{"type":"FeatureCollection","id":"American Revolution","swarm_features":127,"features":[{"type":"Feature","properties":{"country_code":"KOR","city":"Seoul","geoname_id":"1835848","downloaders":"{\"size\":627386,\"mobile\":17951,\"satellite\":2,\"tor\":77,\"tor_exit_nodes\":0,\"vpn\":14901,\"relay\":8,\"proxy\":44,\"hosting\":20866,\"service\":4422}","uploaders":"{\"size\":441,\"mobile\":8,\"satellite\":0,\"tor\":0,\"tor_exit_nodes\":0,\"vpn\":182,\"relay\":7,\"proxy\":0,\"hosting\":190,\"service\":186}"},"geometry":{"type":"Point","coordinates":[126.9784,37.566]}},{"type":"Feature","properties":{"country_code":"RUS","city":"Moscow","geoname_id":"524901","downloaders":"{\"size\":396739,\"mobile\":3073,\"satellite\":1,\"tor\":0,\"tor_exit_nodes\":0,\"vpn\":22289,\"relay\":226,\"proxy\":521,\"hosting\":59521,\"service\":4335}","uploaders":"{\"size\":523,\"mobile\":2,\"satellite\":0,\"tor\":0,\"tor_exit_nodes\":0,\"vpn\":19,\"relay\":0,\"proxy\":0,\"hosting\":381,\"service\":4}"},"geometry":{"type":"Point","coordinates":[37.61781,55.75204]}},{"type":"Feature","properties":{"country_code":"CHN","city":"Nanjing","geoname_id":"1799962","downloaders":"{\"size\":271280,\"mobile\":1290,\"satellite\":0,\"tor\":0,\"tor_exit_nodes\":0,\"vpn\":5470,\"relay\":0,\"proxy\":45,\"hosting\":449,\"service\":0}","uploaders":"{\"size\":4956,\"mobile\":6,\"satellite\":0,\"tor\":0,\"tor_exit_nodes\":0,\"vpn\":57,\"relay\":0,\"proxy\":1,\"hosting\":5,\"service\":0}"},"geometry":{"type":"Point","coordinates":[118.77778,32.06167]}},{"type":"Feature","properties":{"country_code":"TUR","city":"Istanbul","geoname_id":"745044","downloaders":"{\"size\":259001,\"mobile\":3935,\"satellite\":0,\"tor\":0,\"tor_exit_nodes\":0,\"vpn\":586,\"relay\":1,\"proxy\":19,\"hosting\":984,\"service\":446}","uploaders":"{\"size\":300,\"mobile\":13,\"satellite\":0,\"tor\":0,\"tor_exit_nodes\":0,\"vpn\":32,\"relay\":0,\"proxy\":0,\"hosting\":33,\"service\":32}"},"geometry":{"type":"Point","coordinates":[28.94966,41.01384]}},{"type":"Feature","properties":{"country_code":"RUS","city":"Saint Petersburg","geoname_id":"498817","downloaders":"{\"size\":232493,\"mobile\":1307,\"satellite\":0,\"tor\":0,\"tor_exit_nodes\":0,\"vpn\":6538,\"relay\":124,\"proxy\":62,\"hosting\":13738,\"service\":535}","uploaders":"{\"size\":158,\"mobile\":4,\"satellite\":0,\"tor\":0,\"tor_exit_nodes\":0,\"vpn\":7,\"relay\":2,\"proxy\":0,\"hosting\":33,\"service\":4}"},"geometry":{"type":"Point","coordinates":[30.31413,59.93863]}},{"type":"Feature","properties":{"country_code":"USA","city":"Ashburn","geoname_id":"4744870","downloaders":"{\"size\":215300,\"mobile\":9,\"satellite\":64,\"tor\":22,\"tor_exit_nodes\":0,\"vpn\":13204,\"relay\":6,\"proxy\":72,\"hosting\":214782,\"service\":13114}","uploaders":"{\"size\":81101,\"mobile\":1,\"satellite\":6,\"tor\":1,\"tor_exit_nodes\":0,\"vpn\":2099,\"relay\":1,\"proxy\":16,\"hosting\":81073,\"service\":2092}"},"geometry":{"type":"Point","coordinates":[-77.48749,39.04372]}},{"type":"Feature","properties":{"country_code":"CHN","city":"Shanghai","geoname_id":"1796236","downloaders":"{\"size\":203319,\"mobile\":7260,\"satellite\":0,\"tor\":0,\"tor_exit_nodes\":0,\"vpn\":7988,\"relay\":10,\"proxy\":322,\"hosting\":41686,\"service\":10}","uploaders":"{\"size\":789,\"mobile\":34,\"satellite\":0,\"tor\":0,\"tor_exit_nodes\":0,\"vpn\":16,\"relay\":0,\"proxy\":0,\"hosting\":91,\"service\":0}"},"geometry":{"type":"Point","coordinates":[121.45806,31.22222]}},{"type":"Feature","properties":{"country_code":"NLD","city":"Amsterdam","geoname_id":"2759794","downloaders":"{\"size\":186335,\"mobile\":1110,\"satellite\":14,\"tor\":72,\"tor_exit_nodes\":16,\"vpn\":89865,\"relay\":124,\"proxy\":217,\"hosting\":158953,\"service\":51954}","uploaders":"{\"size\":6807,\"mobile\":28,\"satellite\":0,\"tor\":5,\"tor_exit_nodes\":3,\"vpn\":5642,\"relay\":0,\"proxy\":29,\"hosting\":5825,\"service\":5244}"},"geometry":{"type":"Point","coordinates":[4.88969,52.37403]}},{"type":"Feature","properties":{"country_code":"GBR","city":"London","geoname_id":"2643743","downloaders":"{\"size\":184438,\"mobile\":9594,\"satellite\":253,\"tor\":55,\"tor_exit_nodes\":0,\"vpn\":32289,\"relay\":56,\"proxy\":169,\"hosting\":32233,\"service\":29924}","uploaders":"{\"size\":6815,\"mobile\":509,\"satellite\":40,\"tor\":10,\"tor_exit_nodes\":0,\"vpn\":3478,\"relay\":8,\"proxy\":28,\"hosting\":2942,\"service\":3305}"},"geometry":{"type":"Point","coordinates":[-0.12574,51.50853]}},{"type":"Feature","properties":{"country_code":"CHN","city":"Hangzhou","geoname_id":"1808926","downloaders":"{\"size\":166683,\"mobile\":360,\"satellite\":0,\"tor\":0,\"tor_exit_nodes\":0,\"vpn\":3956,\"relay\":0,\"proxy\":13,\"hosting\":3166,\"service\":6}","uploaders":"{\"size\":174,\"mobile\":0,\"satellite\":0,\"tor\":0,\"tor_exit_nodes\":0,\"vpn\":3,\"relay\":0,\"proxy\":0,\"hosting\":73,\"service\":0}"},"geometry":{"type":"Point","coordinates":[120.16142,30.29365]}},{"type":"Feature","properties":{"country_code":"KOR","city":"Incheon","geoname_id":"1843564","downloaders":"{\"size\":158147,\"mobile\":2089,\"satellite\":0,\"tor\":1,\"tor_exit_nodes\":0,\"vpn\":2433,\"relay\":0,\"proxy\":29,\"hosting\":3156,\"service\":294}","uploaders":"{\"size\":17,\"mobile\":0,\"satellite\":0,\"tor\":0,\"tor_exit_nodes\":0,\"vpn\":0,\"relay\":0,\"proxy\":0,\"hosting\":5,\"service\":0}"},"geometry":{"type":"Point","coordinates":[126.70515,37.45646]}},{"type":"Feature","properties":{"country_code":"NLD","city":"Lelystad","geoname_id":"2751738","downloaders":"{\"size\":146989,\"mobile\":47,\"satellite\":0,\"tor\":242,\"tor_exit_nodes\":60,\"vpn\":19519,\"relay\":0,\"proxy\":1820,\"hosting\":146163,\"service\":15666}","uploaders":"{\"size\":3303,\"mobile\":1,\"satellite\":0,\"tor\":15,\"tor_exit_nodes\":1,\"vpn\":1721,\"relay\":0,\"proxy\":499,\"hosting\":3300,\"service\":1700}"},"geometry":{"type":"Point","coordinates":[5.475,52.50833]}},{"type":"Feature","properties":{"country_code":"HUN","city":"Budapest","geoname_id":"3054643","downloaders":"{\"size\":138527,\"mobile\":4709,\"satellite\":31,\"tor\":4,\"tor_exit_nodes\":1,\"vpn\":5262,\"relay\":0,\"proxy\":13,\"hosting\":5858,\"service\":1667}","uploaders":"{\"size\":312,\"mobile\":3,\"satellite\":0,\"tor\":0,\"tor_exit_nodes\":0,\"vpn\":70,\"relay\":0,\"proxy\":0,\"hosting\":77,\"service\":68}"},"geometry":{"type":"Point","coordinates":[19.04045,47.49835]}},{"type":"Feature","properties":{"country_code":"CHN","city":"Shenzhen","geoname_id":"1795565","downloaders":"{\"size\":109660,\"mobile\":495,\"satellite\":0,\"tor\":0,\"tor_exit_nodes\":0,\"vpn\":5436,\"relay\":0,\"proxy\":26,\"hosting\":1250,\"service\":0}","uploaders":"{\"size\":905,\"mobile\":7,\"satellite\":0,\"tor\":0,\"tor_exit_nodes\":0,\"vpn\":15,\"relay\":0,\"proxy\":0,\"hosting\":48,\"service\":0}"},"geometry":{"type":"Point","coordinates":[114.0683,22.54554]}},{"type":"Feature","properties":{"country_code":"USA","city":"New York City","geoname_id":"5128581","downloaders":"{\"size\":105536,\"mobile\":1117,\"satellite\":320,\"tor\":32,\"tor_exit_nodes\":0,\"vpn\":81772,\"relay\":144,\"proxy\":13,\"hosting\":79287,\"service\":80037}","uploaders":"{\"size\":10833,\"mobile\":55,\"satellite\":107,\"tor\":0,\"tor_exit_nodes\":0,\"vpn\":10113,\"relay\":38,\"proxy\":0,\"hosting\":9534,\"service\":9944}"},"geometry":{"type":"Point","coordinates":[-74.00597,40.71427]}},{"type":"Feature","properties":{"country_code":"FRA","city":"Paris","geoname_id":"2988507","downloaders":"{\"size\":96956,\"mobile\":15395,\"satellite\":207,\"tor\":24,\"tor_exit_nodes\":10,\"vpn\":21889,\"relay\":22,\"proxy\":131,\"hosting\":40633,\"service\":18186}","uploaders":"{\"size\":1173,\"mobile\":118,\"satellite\":3,\"tor\":0,\"tor_exit_nodes\":0,\"vpn\":780,\"relay\":0,\"proxy\":10,\"hosting\":738,\"service\":716}"},"geometry":{"type":"Point","coordinates":[2.3488,48.85341]}},{"type":"Feature","properties":{"country_code":"TUR","city":"Ankara","geoname_id":"323786","downloaders":"{\"size\":94743,\"mobile\":1526,\"satellite\":2,\"tor\":0,\"tor_exit_nodes\":0,\"vpn\":55,\"relay\":0,\"proxy\":2,\"hosting\":7,\"service\":0}","uploaders":"{\"size\":71,\"mobile\":0,\"satellite\":0,\"tor\":0,\"tor_exit_nodes\":0,\"vpn\":0,\"relay\":0,\"proxy\":0,\"hosting\":0,\"service\":0}"},"geometry":{"type":"Point","coordinates":[32.85427,39.91987]}},{"type":"Feature","properties":{"country_code":"POL","city":"Warsaw","geoname_id":"756135","downloaders":"{\"size\":85015,\"mobile\":1202,\"satellite\":82,\"tor\":2,\"tor_exit_nodes\":0,\"vpn\":4382,\"relay\":0,\"proxy\":39,\"hosting\":6701,\"service\":3575}","uploaders":"{\"size\":489,\"mobile\":6,\"satellite\":2,\"tor\":0,\"tor_exit_nodes\":0,\"vpn\":140,\"relay\":0,\"proxy\":0,\"hosting\":153,\"service\":138}"},"geometry":{"type":"Point","coordinates":[21.01178,52.22977]}},{"type":"Feature","properties":{"country_code":"RUS","city":"Yekaterinburg","geoname_id":"1486209","downloaders":"{\"size\":84989,\"mobile\":2628,\"satellite\":0,\"tor\":0,\"tor_exit_nodes\":0,\"vpn\":1974,\"relay\":62,\"proxy\":23,\"hosting\":329,\"service\":260}","uploaders":"{\"size\":19,\"mobile\":1,\"satellite\":0,\"tor\":0,\"tor_exit_nodes\":0,\"vpn\":1,\"relay\":0,\"proxy\":0,\"hosting\":0,\"service\":0}"},"geometry":{"type":"Point","coordinates":[60.61529,56.85733]}},{"type":"Feature","properties":{"country_code":"RUS","city":"Novosibirsk","geoname_id":"1496747","downloaders":"{\"size\":84769,\"mobile\":523,\"satellite\":0,\"tor\":0,\"tor_exit_nodes\":0,\"vpn\":1413,\"relay\":51,\"proxy\":38,\"hosting\":2914,\"service\":194}","uploaders":"{\"size\":28,\"mobile\":2,\"satellite\":0,\"tor\":0,\"tor_exit_nodes\":0,\"vpn\":0,\"relay\":0,\"proxy\":0,\"hosting\":10,\"service\":0}"},"geometry":{"type":"Point","coordinates":[82.93175,55.02259]}},{"type":"Feature","properties":{"country_code":"CAN","city":"Toronto","geoname_id":"6167865","downloaders":"{\"size\":79427,\"mobile\":3109,\"satellite\":229,\"tor\":1,\"tor_exit_nodes\":386,\"vpn\":50122,\"relay\":29,\"proxy\":111,\"hosting\":51790,\"service\":47798}","uploaders":"{\"size\":10198,\"mobile\":243,\"satellite\":44,\"tor\":0,\"tor_exit_nodes\":97,\"vpn\":8597,\"relay\":9,\"proxy\":21,\"hosting\":8650,\"service\":8186}"},"geometry":{"type":"Point","coordinates":[-79.39864,43.70643]}},{"type":"Feature","properties":{"country_code":"KOR","city":"Busan","geoname_id":"1838524","downloaders":"{\"size\":73412,\"mobile\":1097,\"satellite\":0,\"tor\":0,\"tor_exit_nodes\":0,\"vpn\":526,\"relay\":0,\"proxy\":2,\"hosting\":46,\"service\":92}","uploaders":"{\"size\":14,\"mobile\":0,\"satellite\":0,\"tor\":0,\"tor_exit_nodes\":0,\"vpn\":0,\"relay\":0,\"proxy\":0,\"hosting\":0,\"service\":0}"},"geometry":{"type":"Point","coordinates":[129.03004,35.10168]}},{"type":"Feature","properties":{"country_code":"CAN","city":"Montréal","geoname_id":"6077243","downloaders":"{\"size\":67585,\"mobile\":2952,\"satellite\":14,\"tor\":32,\"tor_exit_nodes\":39,\"vpn\":27928,\"relay\":9,\"proxy\":1030,\"hosting\":25313,\"service\":27262}","uploaders":"{\"size\":4657,\"mobile\":63,\"satellite\":0,\"tor\":0,\"tor_exit_nodes\":2,\"vpn\":3859,\"relay\":0,\"proxy\":240,\"hosting\":3038,\"service\":3822}"},"geometry":{"type":"Point","coordinates":[-73.58781,45.50884]}},{"type":"Feature","properties":{"country_code":"ESP","city":"Madrid","geoname_id":"3117735","downloaders":"{\"size\":66223,\"mobile\":796,\"satellite\":210,\"tor\":4,\"tor_exit_nodes\":0,\"vpn\":9372,\"relay\":23,\"proxy\":2,\"hosting\":9938,\"service\":8508}","uploaders":"{\"size\":2031,\"mobile\":25,\"satellite\":53,\"tor\":0,\"tor_exit_nodes\":0,\"vpn\":1181,\"relay\":3,\"proxy\":0,\"hosting\":1332,\"service\":1176}"},"geometry":{"type":"Point","coordinates":[-3.70256,40.4165]}},{"type":"Feature","properties":{"country_code":"RUS","city":"Nizhniy Novgorod","geoname_id":"520555","downloaders":"{\"size\":65219,\"mobile\":356,\"satellite\":0,\"tor\":0,\"tor_exit_nodes\":0,\"vpn\":985,\"relay\":41,\"proxy\":2,\"hosting\":41,\"service\":46}","uploaders":"{\"size\":11,\"mobile\":0,\"satellite\":0,\"tor\":0,\"tor_exit_nodes\":0,\"vpn\":0,\"relay\":0,\"proxy\":0,\"hosting\":0,\"service\":0}"},"geometry":{"type":"Point","coordinates":[44.00205,56.32867]}},{"type":"Feature","properties":{"country_code":"KOR","city":"Daegu","geoname_id":"1835329","downloaders":"{\"size\":63009,\"mobile\":275,\"satellite\":0,\"tor\":0,\"tor_exit_nodes\":0,\"vpn\":705,\"relay\":0,\"proxy\":0,\"hosting\":1043,\"service\":197}","uploaders":"{\"size\":27,\"mobile\":0,\"satellite\":0,\"tor\":0,\"tor_exit_nodes\":0,\"vpn\":0,\"relay\":0,\"proxy\":0,\"hosting\":0,\"service\":0}"},"geometry":{"type":"Point","coordinates":[128.59111,35.87028]}},{"type":"Feature","properties":{"country_code":"MEX","city":"Mexico City","geoname_id":"3530597","downloaders":"{\"size\":57128,\"mobile\":241,\"satellite\":233,\"tor\":0,\"tor_exit_nodes\":0,\"vpn\":194,\"relay\":0,\"proxy\":0,\"hosting\":139,\"service\":144}","uploaders":"{\"size\":234,\"mobile\":1,\"satellite\":11,\"tor\":0,\"tor_exit_nodes\":0,\"vpn\":36,\"relay\":0,\"proxy\":0,\"hosting\":34,\"service\":36}"},"geometry":{"type":"Point","coordinates":[-99.12766,19.42847]}},{"type":"Feature","properties":{"country_code":"BGR","city":"Sofia","geoname_id":"727011","downloaders":"{\"size\":56937,\"mobile\":755,\"satellite\":120,\"tor\":3,\"tor_exit_nodes\":0,\"vpn\":4635,\"relay\":7,\"proxy\":7,\"hosting\":7654,\"service\":3110}","uploaders":"{\"size\":414,\"mobile\":11,\"satellite\":10,\"tor\":0,\"tor_exit_nodes\":0,\"vpn\":217,\"relay\":0,\"proxy\":0,\"hosting\":225,\"service\":214}"},"geometry":{"type":"Point","coordinates":[23.32415,42.69751]}},{"type":"Feature","properties":{"country_code":"RUS","city":"Krasnodar","geoname_id":"542420","downloaders":"{\"size\":56659,\"mobile\":293,\"satellite\":0,\"tor\":0,\"tor_exit_nodes\":0,\"vpn\":685,\"relay\":0,\"proxy\":2,\"hosting\":1806,\"service\":7}","uploaders":"{\"size\":17,\"mobile\":0,\"satellite\":0,\"tor\":0,\"tor_exit_nodes\":0,\"vpn\":0,\"relay\":0,\"proxy\":0,\"hosting\":5,\"service\":0}"},"geometry":{"type":"Point","coordinates":[38.98178,45.04534]}},{"type":"Feature","properties":{"country_code":"USA","city":"Los Angeles","geoname_id":"5368361","downloaders":"{\"size\":55160,\"mobile\":626,\"satellite\":20,\"tor\":0,\"tor_exit_nodes\":0,\"vpn\":39518,\"relay\":50,\"proxy\":59,\"hosting\":42325,\"service\":37839}","uploaders":"{\"size\":6780,\"mobile\":44,\"satellite\":0,\"tor\":0,\"tor_exit_nodes\":0,\"vpn\":5870,\"relay\":0,\"proxy\":1,\"hosting\":5683,\"service\":5654}"},"geometry":{"type":"Point","coordinates":[-118.24368,34.05223]}},{"type":"Feature","properties":{"country_code":"RUS","city":"Samara","geoname_id":"499099","downloaders":"{\"size\":54105,\"mobile\":110,\"satellite\":0,\"tor\":0,\"tor_exit_nodes\":0,\"vpn\":2550,\"relay\":76,\"proxy\":40,\"hosting\":284,\"service\":1839}","uploaders":"{\"size\":8,\"mobile\":0,\"satellite\":0,\"tor\":0,\"tor_exit_nodes\":0,\"vpn\":0,\"relay\":0,\"proxy\":0,\"hosting\":0,\"service\":0}"},"geometry":{"type":"Point","coordinates":[50.13553,53.20767]}},{"type":"Feature","properties":{"country_code":"JPN","city":"Tokyo","geoname_id":"1850147","downloaders":"{\"size\":52336,\"mobile\":13833,\"satellite\":25,\"tor\":1,\"tor_exit_nodes\":0,\"vpn\":8559,\"relay\":140,\"proxy\":34,\"hosting\":11597,\"service\":7807}","uploaders":"{\"size\":720,\"mobile\":26,\"satellite\":6,\"tor\":0,\"tor_exit_nodes\":0,\"vpn\":547,\"relay\":2,\"proxy\":5,\"hosting\":577,\"service\":544}"},"geometry":{"type":"Point","coordinates":[139.69171,35.6895]}},{"type":"Feature","properties":{"country_code":"HKG","city":"Hong Kong","geoname_id":"1819729","downloaders":"{\"size\":52048,\"mobile\":385,\"satellite\":0,\"tor\":0,\"tor_exit_nodes\":0,\"vpn\":6669,\"relay\":66,\"proxy\":11,\"hosting\":8974,\"service\":4109}","uploaders":"{\"size\":959,\"mobile\":4,\"satellite\":0,\"tor\":0,\"tor_exit_nodes\":0,\"vpn\":453,\"relay\":4,\"proxy\":0,\"hosting\":582,\"service\":450}"},"geometry":{"type":"Point","coordinates":[114.17469,22.27832]}},{"type":"Feature","properties":{"country_code":"USA","city":"Chicago","geoname_id":"4887398","downloaders":"{\"size\":51406,\"mobile\":996,\"satellite\":57,\"tor\":78,\"tor_exit_nodes\":0,\"vpn\":38870,\"relay\":19,\"proxy\":8,\"hosting\":39571,\"service\":34661}","uploaders":"{\"size\":6148,\"mobile\":125,\"satellite\":4,\"tor\":8,\"tor_exit_nodes\":0,\"vpn\":5479,\"relay\":4,\"proxy\":1,\"hosting\":5221,\"service\":4962}"},"geometry":{"type":"Point","coordinates":[-87.65005,41.85003]}},{"type":"Feature","properties":{"country_code":"RUS","city":"Voronezh","geoname_id":"472045","downloaders":"{\"size\":49423,\"mobile\":86,\"satellite\":0,\"tor\":0,\"tor_exit_nodes\":0,\"vpn\":898,\"relay\":0,\"proxy\":1,\"hosting\":14,\"service\":22}","uploaders":"{\"size\":22,\"mobile\":0,\"satellite\":0,\"tor\":0,\"tor_exit_nodes\":0,\"vpn\":13,\"relay\":0,\"proxy\":0,\"hosting\":0,\"service\":0}"},"geometry":{"type":"Point","coordinates":[39.19204,51.66833]}},{"type":"Feature","properties":{"country_code":"KOR","city":"Suwon","geoname_id":"1835553","downloaders":"{\"size\":48003,\"mobile\":551,\"satellite\":0,\"tor\":0,\"tor_exit_nodes\":0,\"vpn\":696,\"relay\":0,\"proxy\":22,\"hosting\":114,\"service\":73}","uploaders":"{\"size\":21,\"mobile\":0,\"satellite\":0,\"tor\":0,\"tor_exit_nodes\":0,\"vpn\":0,\"relay\":0,\"proxy\":0,\"hosting\":0,\"service\":0}"},"geometry":{"type":"Point","coordinates":[127.00889,37.29111]}},{"type":"Feature","properties":{"country_code":"RUS","city":"Rostov-on-Don","geoname_id":"501175","downloaders":"{\"size\":47309,\"mobile\":1420,\"satellite\":0,\"tor\":0,\"tor_exit_nodes\":0,\"vpn\":1119,\"relay\":0,\"proxy\":2,\"hosting\":182,\"service\":152}","uploaders":"{\"size\":12,\"mobile\":1,\"satellite\":0,\"tor\":0,\"tor_exit_nodes\":0,\"vpn\":0,\"relay\":0,\"proxy\":0,\"hosting\":0,\"service\":0}"},"geometry":{"type":"Point","coordinates":[39.70769,47.219970000000004]}},{"type":"Feature","properties":{"country_code":"CHE","city":"Zürich","geoname_id":"2657896","downloaders":"{\"size\":46979,\"mobile\":5040,\"satellite\":10,\"tor\":58,\"tor_exit_nodes\":22,\"vpn\":33402,\"relay\":28,\"proxy\":56,\"hosting\":33005,\"service\":32449}","uploaders":"{\"size\":3197,\"mobile\":83,\"satellite\":0,\"tor\":0,\"tor_exit_nodes\":1,\"vpn\":2886,\"relay\":0,\"proxy\":1,\"hosting\":2665,\"service\":2831}"},"geometry":{"type":"Point","coordinates":[8.4793,47.3862]}},{"type":"Feature","properties":{"country_code":"DEU","city":"Frankfurt am Main","geoname_id":"2925533","downloaders":"{\"size\":46892,\"mobile\":415,\"satellite\":1,\"tor\":162,\"tor_exit_nodes\":116,\"vpn\":19883,\"relay\":40,\"proxy\":111,\"hosting\":41047,\"service\":18897}","uploaders":"{\"size\":1682,\"mobile\":0,\"satellite\":0,\"tor\":8,\"tor_exit_nodes\":0,\"vpn\":1375,\"relay\":0,\"proxy\":0,\"hosting\":1648,\"service\":1339}"},"geometry":{"type":"Point","coordinates":[8.6823,50.1153]}},{"type":"Feature","properties":{"country_code":"BRA","city":"São Paulo","geoname_id":"3448439","downloaders":"{\"size\":45685,\"mobile\":690,\"satellite\":400,\"tor\":0,\"tor_exit_nodes\":0,\"vpn\":2196,\"relay\":93,\"proxy\":12,\"hosting\":5440,\"service\":2035}","uploaders":"{\"size\":663,\"mobile\":11,\"satellite\":43,\"tor\":0,\"tor_exit_nodes\":0,\"vpn\":230,\"relay\":7,\"proxy\":0,\"hosting\":281,\"service\":225}"},"geometry":{"type":"Point","coordinates":[-46.63611,-23.5475]}},{"type":"Feature","properties":{"country_code":"TUR","city":"İzmir","geoname_id":"311046","downloaders":"{\"size\":45352,\"mobile\":1703,\"satellite\":0,\"tor\":0,\"tor_exit_nodes\":0,\"vpn\":14,\"relay\":0,\"proxy\":0,\"hosting\":482,\"service\":0}","uploaders":"{\"size\":54,\"mobile\":4,\"satellite\":0,\"tor\":0,\"tor_exit_nodes\":0,\"vpn\":0,\"relay\":0,\"proxy\":0,\"hosting\":0,\"service\":0}"},"geometry":{"type":"Point","coordinates":[27.13838,38.41273]}},{"type":"Feature","properties":{"country_code":"AUS","city":"Sydney","geoname_id":"2147714","downloaders":"{\"size\":42520,\"mobile\":1315,\"satellite\":400,\"tor\":5,\"tor_exit_nodes\":0,\"vpn\":11513,\"relay\":70,\"proxy\":35,\"hosting\":12979,\"service\":10774}","uploaders":"{\"size\":3500,\"mobile\":145,\"satellite\":61,\"tor\":0,\"tor_exit_nodes\":0,\"vpn\":1661,\"relay\":9,\"proxy\":0,\"hosting\":1633,\"service\":1655}"},"geometry":{"type":"Point","coordinates":[151.20732,-33.86785]}},{"type":"Feature","properties":{"country_code":"CAN","city":"Vancouver","geoname_id":"6173331","downloaders":"{\"size\":40783,\"mobile\":11073,\"satellite\":77,\"tor\":75,\"tor_exit_nodes\":0,\"vpn\":22274,\"relay\":0,\"proxy\":3,\"hosting\":14195,\"service\":21059}","uploaders":"{\"size\":3521,\"mobile\":426,\"satellite\":15,\"tor\":18,\"tor_exit_nodes\":0,\"vpn\":2788,\"relay\":0,\"proxy\":0,\"hosting\":1972,\"service\":2739}"},"geometry":{"type":"Point","coordinates":[-123.11934,49.24966]}},{"type":"Feature","properties":{"country_code":"AUS","city":"Melbourne","geoname_id":"2158177","downloaders":"{\"size\":40567,\"mobile\":1106,\"satellite\":337,\"tor\":3,\"tor_exit_nodes\":0,\"vpn\":8823,\"relay\":24,\"proxy\":13,\"hosting\":7261,\"service\":8047}","uploaders":"{\"size\":4116,\"mobile\":78,\"satellite\":1,\"tor\":0,\"tor_exit_nodes\":0,\"vpn\":995,\"relay\":11,\"proxy\":6,\"hosting\":852,\"service\":984}"},"geometry":{"type":"Point","coordinates":[144.96332,-37.814]}},{"type":"Feature","properties":{"country_code":"RUS","city":"Ufa","geoname_id":"479561","downloaders":"{\"size\":40013,\"mobile\":379,\"satellite\":0,\"tor\":0,\"tor_exit_nodes\":0,\"vpn\":386,\"relay\":0,\"proxy\":0,\"hosting\":12,\"service\":30}","uploaders":"{\"size\":7,\"mobile\":0,\"satellite\":0,\"tor\":0,\"tor_exit_nodes\":0,\"vpn\":0,\"relay\":0,\"proxy\":0,\"hosting\":0,\"service\":0}"},"geometry":{"type":"Point","coordinates":[55.96779,54.74306]}},{"type":"Feature","properties":{"country_code":"RUS","city":"Perm","geoname_id":"511196","downloaders":"{\"size\":39967,\"mobile\":49,\"satellite\":0,\"tor\":0,\"tor_exit_nodes\":0,\"vpn\":474,\"relay\":0,\"proxy\":10,\"hosting\":0,\"service\":1}","uploaders":"{\"size\":21,\"mobile\":0,\"satellite\":0,\"tor\":0,\"tor_exit_nodes\":0,\"vpn\":0,\"relay\":0,\"proxy\":0,\"hosting\":0,\"service\":0}"},"geometry":{"type":"Point","coordinates":[56.25017,58.01046]}},{"type":"Feature","properties":{"country_code":"KOR","city":"Daejeon","geoname_id":"1835235","downloaders":"{\"size\":39174,\"mobile\":105,\"satellite\":0,\"tor\":0,\"tor_exit_nodes\":0,\"vpn\":379,\"relay\":0,\"proxy\":7,\"hosting\":65,\"service\":72}","uploaders":"{\"size\":11,\"mobile\":0,\"satellite\":0,\"tor\":0,\"tor_exit_nodes\":0,\"vpn\":0,\"relay\":0,\"proxy\":0,\"hosting\":0,\"service\":0}"},"geometry":{"type":"Point","coordinates":[127.38493,36.34913]}},{"type":"Feature","properties":{"country_code":"TUR","city":"Bursa","geoname_id":"750269","downloaders":"{\"size\":38938,\"mobile\":625,\"satellite\":0,\"tor\":0,\"tor_exit_nodes\":0,\"vpn\":26,\"relay\":0,\"proxy\":0,\"hosting\":221,\"service\":6}","uploaders":"{\"size\":8,\"mobile\":0,\"satellite\":0,\"tor\":0,\"tor_exit_nodes\":0,\"vpn\":0,\"relay\":0,\"proxy\":0,\"hosting\":0,\"service\":0}"},"geometry":{"type":"Point","coordinates":[29.06013,40.19559]}},{"type":"Feature","properties":{"country_code":"KOR","city":"Seongnam-si","geoname_id":"1897000","downloaders":"{\"size\":38613,\"mobile\":367,\"satellite\":0,\"tor\":0,\"tor_exit_nodes\":0,\"vpn\":723,\"relay\":0,\"proxy\":19,\"hosting\":43,\"service\":91}","uploaders":"{\"size\":6,\"mobile\":0,\"satellite\":0,\"tor\":0,\"tor_exit_nodes\":0,\"vpn\":0,\"relay\":0,\"proxy\":0,\"hosting\":0,\"service\":0}"},"geometry":{"type":"Point","coordinates":[127.13778,37.43861]}},{"type":"Feature","properties":{"country_code":"SWE","city":"Stockholm","geoname_id":"2673730","downloaders":"{\"size\":37760,\"mobile\":253,\"satellite\":21,\"tor\":90,\"tor_exit_nodes\":10,\"vpn\":21597,\"relay\":4,\"proxy\":36,\"hosting\":23122,\"service\":20936}","uploaders":"{\"size\":2060,\"mobile\":19,\"satellite\":6,\"tor\":3,\"tor_exit_nodes\":1,\"vpn\":1774,\"relay\":1,\"proxy\":0,\"hosting\":1816,\"service\":1730}"},"geometry":{"type":"Point","coordinates":[18.06871,59.32938]}},{"type":"Feature","properties":{"country_code":"RUS","city":"Krasnoyarsk","geoname_id":"1502026","downloaders":"{\"size\":36954,\"mobile\":232,\"satellite\":0,\"tor\":0,\"tor_exit_nodes\":0,\"vpn\":1412,\"relay\":0,\"proxy\":2,\"hosting\":1637,\"service\":824}","uploaders":"{\"size\":28,\"mobile\":0,\"satellite\":0,\"tor\":0,\"tor_exit_nodes\":0,\"vpn\":1,\"relay\":0,\"proxy\":0,\"hosting\":0,\"service\":0}"},"geometry":{"type":"Point","coordinates":[92.93136,56.03742]}},{"type":"Feature","properties":{"country_code":"RUS","city":"Tyumen","geoname_id":"1488754","downloaders":"{\"size\":36658,\"mobile\":109,\"satellite\":0,\"tor\":0,\"tor_exit_nodes\":0,\"vpn\":456,\"relay\":0,\"proxy\":9,\"hosting\":81,\"service\":7}","uploaders":"{\"size\":7,\"mobile\":0,\"satellite\":0,\"tor\":0,\"tor_exit_nodes\":0,\"vpn\":0,\"relay\":0,\"proxy\":0,\"hosting\":0,\"service\":0}"},"geometry":{"type":"Point","coordinates":[65.52722,57.15222]}},{"type":"Feature","properties":{"country_code":"KOR","city":"Hwaseong-si","geoname_id":"1843847","downloaders":"{\"size\":36343,\"mobile\":217,\"satellite\":0,\"tor\":0,\"tor_exit_nodes\":0,\"vpn\":328,\"relay\":0,\"proxy\":0,\"hosting\":64,\"service\":27}","uploaders":"{\"size\":6,\"mobile\":0,\"satellite\":0,\"tor\":0,\"tor_exit_nodes\":0,\"vpn\":0,\"relay\":0,\"proxy\":0,\"hosting\":0,\"service\":0}"},"geometry":{"type":"Point","coordinates":[126.8169,37.20682]}},{"type":"Feature","properties":{"country_code":"KOR","city":"Goyang-si","geoname_id":"1842485","downloaders":"{\"size\":35804,\"mobile\":873,\"satellite\":0,\"tor\":0,\"tor_exit_nodes\":0,\"vpn\":463,\"relay\":0,\"proxy\":37,\"hosting\":41,\"service\":56}","uploaders":"{\"size\":7,\"mobile\":0,\"satellite\":0,\"tor\":0,\"tor_exit_nodes\":0,\"vpn\":0,\"relay\":0,\"proxy\":0,\"hosting\":0,\"service\":0}"},"geometry":{"type":"Point","coordinates":[126.835,37.65639]}},{"type":"Feature","properties":{"country_code":"FIN","city":"Helsinki","geoname_id":"658225","downloaders":"{\"size\":35689,\"mobile\":594,\"satellite\":4,\"tor\":19,\"tor_exit_nodes\":0,\"vpn\":6075,\"relay\":2,\"proxy\":23,\"hosting\":30056,\"service\":3838}","uploaders":"{\"size\":338,\"mobile\":26,\"satellite\":0,\"tor\":0,\"tor_exit_nodes\":0,\"vpn\":215,\"relay\":0,\"proxy\":1,\"hosting\":276,\"service\":170}"},"geometry":{"type":"Point","coordinates":[24.93545,60.16952]}},{"type":"Feature","properties":{"country_code":"CHN","city":"Beijing","geoname_id":"1816670","downloaders":"{\"size\":35202,\"mobile\":75,\"satellite\":0,\"tor\":0,\"tor_exit_nodes\":0,\"vpn\":1048,\"relay\":0,\"proxy\":11,\"hosting\":3573,\"service\":3}","uploaders":"{\"size\":317,\"mobile\":0,\"satellite\":0,\"tor\":0,\"tor_exit_nodes\":0,\"vpn\":5,\"relay\":0,\"proxy\":0,\"hosting\":98,\"service\":0}"},"geometry":{"type":"Point","coordinates":[116.39723,39.9075]}},{"type":"Feature","properties":{"country_code":"BLR","city":"Minsk","geoname_id":"625144","downloaders":"{\"size\":34938,\"mobile\":7572,\"satellite\":0,\"tor\":0,\"tor_exit_nodes\":0,\"vpn\":971,\"relay\":3,\"proxy\":19,\"hosting\":3437,\"service\":24}","uploaders":"{\"size\":8,\"mobile\":1,\"satellite\":0,\"tor\":0,\"tor_exit_nodes\":0,\"vpn\":3,\"relay\":0,\"proxy\":0,\"hosting\":4,\"service\":3}"},"geometry":{"type":"Point","coordinates":[27.5667,53.9]}},{"type":"Feature","properties":{"country_code":"ITA","city":"Milan","geoname_id":"3173435","downloaders":"{\"size\":34765,\"mobile\":727,\"satellite\":200,\"tor\":16,\"tor_exit_nodes\":0,\"vpn\":5313,\"relay\":5,\"proxy\":18,\"hosting\":10489,\"service\":4837}","uploaders":"{\"size\":729,\"mobile\":18,\"satellite\":13,\"tor\":1,\"tor_exit_nodes\":0,\"vpn\":380,\"relay\":0,\"proxy\":0,\"hosting\":580,\"service\":354}"},"geometry":{"type":"Point","coordinates":[9.18951,45.46427]}},{"type":"Feature","properties":{"country_code":"KOR","city":"Gwangju","geoname_id":"1841811","downloaders":"{\"size\":34574,\"mobile\":419,\"satellite\":0,\"tor\":0,\"tor_exit_nodes\":0,\"vpn\":213,\"relay\":0,\"proxy\":4,\"hosting\":10,\"service\":43}","uploaders":"{\"size\":3,\"mobile\":0,\"satellite\":0,\"tor\":0,\"tor_exit_nodes\":0,\"vpn\":0,\"relay\":0,\"proxy\":0,\"hosting\":0,\"service\":0}"},"geometry":{"type":"Point","coordinates":[126.91556,35.15472]}},{"type":"Feature","properties":{"country_code":"RUS","city":"Omsk","geoname_id":"1496153","downloaders":"{\"size\":34253,\"mobile\":63,\"satellite\":0,\"tor\":0,\"tor_exit_nodes\":0,\"vpn\":321,\"relay\":10,\"proxy\":0,\"hosting\":13,\"service\":36}","uploaders":"{\"size\":6,\"mobile\":0,\"satellite\":0,\"tor\":0,\"tor_exit_nodes\":0,\"vpn\":0,\"relay\":0,\"proxy\":0,\"hosting\":0,\"service\":0}"},"geometry":{"type":"Point","coordinates":[73.36859,54.99244]}},{"type":"Feature","properties":{"country_code":"RUS","city":"Tomsk","geoname_id":"1489425","downloaders":"{\"size\":33809,\"mobile\":29,\"satellite\":0,\"tor\":0,\"tor_exit_nodes\":0,\"vpn\":219,\"relay\":0,\"proxy\":0,\"hosting\":111,\"service\":13}","uploaders":"{\"size\":10,\"mobile\":0,\"satellite\":0,\"tor\":0,\"tor_exit_nodes\":0,\"vpn\":0,\"relay\":0,\"proxy\":0,\"hosting\":0,\"service\":0}"},"geometry":{"type":"Point","coordinates":[84.98216,56.50049]}},{"type":"Feature","properties":{"country_code":"UKR","city":"Kyiv","geoname_id":"703448","downloaders":"{\"size\":33673,\"mobile\":258,\"satellite\":373,\"tor\":14,\"tor_exit_nodes\":0,\"vpn\":2065,\"relay\":0,\"proxy\":2,\"hosting\":5315,\"service\":1176}","uploaders":"{\"size\":190,\"mobile\":2,\"satellite\":2,\"tor\":0,\"tor_exit_nodes\":0,\"vpn\":35,\"relay\":0,\"proxy\":0,\"hosting\":125,\"service\":35}"},"geometry":{"type":"Point","coordinates":[30.5238,50.45466]}},{"type":"Feature","properties":{"country_code":"RUS","city":"Khimki","geoname_id":"550280","downloaders":"{\"size\":32693,\"mobile\":32,\"satellite\":4,\"tor\":0,\"tor_exit_nodes\":0,\"vpn\":1542,\"relay\":0,\"proxy\":10,\"hosting\":528,\"service\":35}","uploaders":"{\"size\":7,\"mobile\":0,\"satellite\":0,\"tor\":0,\"tor_exit_nodes\":0,\"vpn\":1,\"relay\":0,\"proxy\":0,\"hosting\":0,\"service\":0}"},"geometry":{"type":"Point","coordinates":[37.42848,55.9001]}},{"type":"Feature","properties":{"country_code":"RUS","city":"Balashikha","geoname_id":"579464","downloaders":"{\"size\":32297,\"mobile\":1,\"satellite\":0,\"tor\":0,\"tor_exit_nodes\":0,\"vpn\":1145,\"relay\":0,\"proxy\":0,\"hosting\":1538,\"service\":13}","uploaders":"{\"size\":10,\"mobile\":0,\"satellite\":0,\"tor\":0,\"tor_exit_nodes\":0,\"vpn\":0,\"relay\":0,\"proxy\":0,\"hosting\":0,\"service\":0}"},"geometry":{"type":"Point","coordinates":[37.94794,55.79479]}},{"type":"Feature","properties":{"country_code":"USA","city":"Miami","geoname_id":"4164138","downloaders":"{\"size\":31649,\"mobile\":418,\"satellite\":171,\"tor\":14,\"tor_exit_nodes\":0,\"vpn\":26899,\"relay\":8,\"proxy\":41,\"hosting\":26051,\"service\":26511}","uploaders":"{\"size\":4257,\"mobile\":40,\"satellite\":14,\"tor\":1,\"tor_exit_nodes\":0,\"vpn\":4160,\"relay\":0,\"proxy\":3,\"hosting\":3410,\"service\":4096}"},"geometry":{"type":"Point","coordinates":[-80.19366,25.77427]}},{"type":"Feature","properties":{"country_code":"USA","city":"Seattle","geoname_id":"5809844","downloaders":"{\"size\":30361,\"mobile\":415,\"satellite\":143,\"tor\":0,\"tor_exit_nodes\":0,\"vpn\":23586,\"relay\":4,\"proxy\":1,\"hosting\":24954,\"service\":23010}","uploaders":"{\"size\":4454,\"mobile\":68,\"satellite\":23,\"tor\":0,\"tor_exit_nodes\":0,\"vpn\":4038,\"relay\":0,\"proxy\":0,\"hosting\":4160,\"service\":3959}"},"geometry":{"type":"Point","coordinates":[-122.33207,47.60621]}},{"type":"Feature","properties":{"country_code":"RUS","city":"Volgograd","geoname_id":"472757","downloaders":"{\"size\":29308,\"mobile\":1527,\"satellite\":0,\"tor\":0,\"tor_exit_nodes\":0,\"vpn\":315,\"relay\":0,\"proxy\":11,\"hosting\":25,\"service\":8}","uploaders":"{\"size\":9,\"mobile\":0,\"satellite\":0,\"tor\":0,\"tor_exit_nodes\":0,\"vpn\":0,\"relay\":0,\"proxy\":0,\"hosting\":0,\"service\":0}"},"geometry":{"type":"Point","coordinates":[44.4976,48.71378]}},{"type":"Feature","properties":{"country_code":"USA","city":"Dallas","geoname_id":"4684888","downloaders":"{\"size\":29098,\"mobile\":664,\"satellite\":134,\"tor\":0,\"tor_exit_nodes\":0,\"vpn\":25002,\"relay\":0,\"proxy\":0,\"hosting\":24919,\"service\":24566}","uploaders":"{\"size\":3407,\"mobile\":38,\"satellite\":13,\"tor\":0,\"tor_exit_nodes\":0,\"vpn\":3253,\"relay\":0,\"proxy\":0,\"hosting\":3016,\"service\":3195}"},"geometry":{"type":"Point","coordinates":[-96.80667,32.78306]}},{"type":"Feature","properties":{"country_code":"RUS","city":"Barnaul","geoname_id":"1510853","downloaders":"{\"size\":29057,\"mobile\":133,\"satellite\":0,\"tor\":0,\"tor_exit_nodes\":0,\"vpn\":365,\"relay\":0,\"proxy\":0,\"hosting\":79,\"service\":155}","uploaders":"{\"size\":8,\"mobile\":0,\"satellite\":0,\"tor\":0,\"tor_exit_nodes\":0,\"vpn\":0,\"relay\":0,\"proxy\":0,\"hosting\":0,\"service\":0}"},"geometry":{"type":"Point","coordinates":[83.72786,53.36199]}},{"type":"Feature","properties":{"country_code":"USA","city":"Atlanta","geoname_id":"4180439","downloaders":"{\"size\":28438,\"mobile\":292,\"satellite\":38,\"tor\":20,\"tor_exit_nodes\":0,\"vpn\":20313,\"relay\":6,\"proxy\":1,\"hosting\":21823,\"service\":20136}","uploaders":"{\"size\":3922,\"mobile\":29,\"satellite\":0,\"tor\":0,\"tor_exit_nodes\":0,\"vpn\":3727,\"relay\":0,\"proxy\":0,\"hosting\":3626,\"service\":3718}"},"geometry":{"type":"Point","coordinates":[-84.38798,33.749]}},{"type":"Feature","properties":{"country_code":"CHN","city":"Jiaxing","geoname_id":"1805953","downloaders":"{\"size\":28330,\"mobile\":265,\"satellite\":0,\"tor\":0,\"tor_exit_nodes\":0,\"vpn\":308,\"relay\":0,\"proxy\":2,\"hosting\":122,\"service\":0}","uploaders":"{\"size\":123,\"mobile\":0,\"satellite\":0,\"tor\":0,\"tor_exit_nodes\":0,\"vpn\":0,\"relay\":0,\"proxy\":0,\"hosting\":0,\"service\":0}"},"geometry":{"type":"Point","coordinates":[120.75,30.7522]}},{"type":"Feature","properties":{"country_code":"LVA","city":"Riga","geoname_id":"456172","downloaders":"{\"size\":28209,\"mobile\":393,\"satellite\":34,\"tor\":32,\"tor_exit_nodes\":0,\"vpn\":1732,\"relay\":12,\"proxy\":22,\"hosting\":3194,\"service\":1279}","uploaders":"{\"size\":209,\"mobile\":6,\"satellite\":0,\"tor\":2,\"tor_exit_nodes\":0,\"vpn\":124,\"relay\":0,\"proxy\":1,\"hosting\":125,\"service\":121}"},"geometry":{"type":"Point","coordinates":[24.10589,56.946]}},{"type":"Feature","properties":{"country_code":"RUS","city":"Chelyabinsk","geoname_id":"1508291","downloaders":"{\"size\":28108,\"mobile\":224,\"satellite\":0,\"tor\":0,\"tor_exit_nodes\":0,\"vpn\":455,\"relay\":16,\"proxy\":5,\"hosting\":282,\"service\":22}","uploaders":"{\"size\":4,\"mobile\":0,\"satellite\":0,\"tor\":0,\"tor_exit_nodes\":0,\"vpn\":0,\"relay\":0,\"proxy\":0,\"hosting\":0,\"service\":0}"},"geometry":{"type":"Point","coordinates":[61.42877,55.1611]}},{"type":"Feature","properties":{"country_code":"FRA","city":"Lille","geoname_id":"2998324","downloaders":"{\"size\":27959,\"mobile\":2756,\"satellite\":0,\"tor\":22,\"tor_exit_nodes\":0,\"vpn\":974,\"relay\":0,\"proxy\":59,\"hosting\":20359,\"service\":493}","uploaders":"{\"size\":455,\"mobile\":0,\"satellite\":0,\"tor\":0,\"tor_exit_nodes\":0,\"vpn\":51,\"relay\":0,\"proxy\":0,\"hosting\":449,\"service\":51}"},"geometry":{"type":"Point","coordinates":[3.05512,50.63391]}},{"type":"Feature","properties":{"country_code":"CHN","city":"Zhengzhou","geoname_id":"1784658","downloaders":"{\"size\":27925,\"mobile\":53,\"satellite\":0,\"tor\":0,\"tor_exit_nodes\":0,\"vpn\":364,\"relay\":0,\"proxy\":5,\"hosting\":19,\"service\":0}","uploaders":"{\"size\":150,\"mobile\":0,\"satellite\":0,\"tor\":0,\"tor_exit_nodes\":0,\"vpn\":7,\"relay\":0,\"proxy\":0,\"hosting\":0,\"service\":0}"},"geometry":{"type":"Point","coordinates":[113.64861,34.75778]}},{"type":"Feature","properties":{"country_code":"NLD","city":"Rotterdam","geoname_id":"2747891","downloaders":"{\"size\":27901,\"mobile\":1218,\"satellite\":0,\"tor\":29,\"tor_exit_nodes\":0,\"vpn\":9532,\"relay\":0,\"proxy\":4,\"hosting\":13867,\"service\":2754}","uploaders":"{\"size\":596,\"mobile\":60,\"satellite\":0,\"tor\":0,\"tor_exit_nodes\":0,\"vpn\":289,\"relay\":0,\"proxy\":0,\"hosting\":378,\"service\":251}"},"geometry":{"type":"Point","coordinates":[4.47917,51.9225]}},{"type":"Feature","properties":{"country_code":"RUS","city":"Tula","geoname_id":"480562","downloaders":"{\"size\":27503,\"mobile\":10,\"satellite\":0,\"tor\":0,\"tor_exit_nodes\":0,\"vpn\":203,\"relay\":0,\"proxy\":11,\"hosting\":111,\"service\":1}","uploaders":"{\"size\":8,\"mobile\":0,\"satellite\":0,\"tor\":0,\"tor_exit_nodes\":0,\"vpn\":0,\"relay\":0,\"proxy\":0,\"hosting\":0,\"service\":0}"},"geometry":{"type":"Point","coordinates":[37.61822,54.19609]}},{"type":"Feature","properties":{"country_code":"SVN","city":"Ljubljana","geoname_id":"3196359","downloaders":"{\"size\":26966,\"mobile\":522,\"satellite\":5,\"tor\":0,\"tor_exit_nodes\":0,\"vpn\":1084,\"relay\":1,\"proxy\":16,\"hosting\":543,\"service\":502}","uploaders":"{\"size\":254,\"mobile\":26,\"satellite\":0,\"tor\":0,\"tor_exit_nodes\":0,\"vpn\":64,\"relay\":0,\"proxy\":0,\"hosting\":56,\"service\":57}"},"geometry":{"type":"Point","coordinates":[14.50513,46.05108]}},{"type":"Feature","properties":{"country_code":"ROU","city":"Bucharest","geoname_id":"683506","downloaders":"{\"size\":26583,\"mobile\":234,\"satellite\":7,\"tor\":3,\"tor_exit_nodes\":3,\"vpn\":5036,\"relay\":19,\"proxy\":6,\"hosting\":5115,\"service\":4446}","uploaders":"{\"size\":578,\"mobile\":23,\"satellite\":0,\"tor\":1,\"tor_exit_nodes\":1,\"vpn\":301,\"relay\":8,\"proxy\":0,\"hosting\":305,\"service\":304}"},"geometry":{"type":"Point","coordinates":[26.10626,44.43225]}},{"type":"Feature","properties":{"country_code":"RUS","city":"Kemerovo","geoname_id":"1503901","downloaders":"{\"size\":26425,\"mobile\":39,\"satellite\":0,\"tor\":0,\"tor_exit_nodes\":0,\"vpn\":157,\"relay\":0,\"proxy\":0,\"hosting\":4,\"service\":1}","uploaders":"{\"size\":4,\"mobile\":0,\"satellite\":0,\"tor\":0,\"tor_exit_nodes\":0,\"vpn\":0,\"relay\":0,\"proxy\":0,\"hosting\":0,\"service\":0}"},"geometry":{"type":"Point","coordinates":[86.10435,55.35417]}},{"type":"Feature","properties":{"country_code":"SGP","city":"Singapore","geoname_id":"1880252","downloaders":"{\"size\":25914,\"mobile\":706,\"satellite\":0,\"tor\":0,\"tor_exit_nodes\":0,\"vpn\":11474,\"relay\":510,\"proxy\":34,\"hosting\":17452,\"service\":11589}","uploaders":"{\"size\":1680,\"mobile\":25,\"satellite\":0,\"tor\":0,\"tor_exit_nodes\":0,\"vpn\":1361,\"relay\":31,\"proxy\":0,\"hosting\":1506,\"service\":1375}"},"geometry":{"type":"Point","coordinates":[103.85007,1.28967]}},{"type":"Feature","properties":{"country_code":"TUR","city":"Adana","geoname_id":"325363","downloaders":"{\"size\":25046,\"mobile\":221,\"satellite\":0,\"tor\":0,\"tor_exit_nodes\":0,\"vpn\":2,\"relay\":0,\"proxy\":0,\"hosting\":0,\"service\":0}","uploaders":"{\"size\":8,\"mobile\":0,\"satellite\":0,\"tor\":0,\"tor_exit_nodes\":0,\"vpn\":0,\"relay\":0,\"proxy\":0,\"hosting\":0,\"service\":0}"},"geometry":{"type":"Point","coordinates":[35.32531,36.98615]}},{"type":"Feature","properties":{"country_code":"KOR","city":"Ansan-si","geoname_id":"1846918","downloaders":"{\"size\":24921,\"mobile\":293,\"satellite\":0,\"tor\":0,\"tor_exit_nodes\":0,\"vpn\":140,\"relay\":0,\"proxy\":11,\"hosting\":36,\"service\":8}","uploaders":"{\"size\":8,\"mobile\":0,\"satellite\":0,\"tor\":0,\"tor_exit_nodes\":0,\"vpn\":0,\"relay\":0,\"proxy\":0,\"hosting\":0,\"service\":0}"},"geometry":{"type":"Point","coordinates":[126.82194,37.32361]}},{"type":"Feature","properties":{"country_code":"RUS","city":"Saratov","geoname_id":"498677","downloaders":"{\"size\":24642,\"mobile\":178,\"satellite\":0,\"tor\":0,\"tor_exit_nodes\":0,\"vpn\":233,\"relay\":0,\"proxy\":0,\"hosting\":30,\"service\":11}","uploaders":"{\"size\":13,\"mobile\":0,\"satellite\":0,\"tor\":0,\"tor_exit_nodes\":0,\"vpn\":0,\"relay\":0,\"proxy\":0,\"hosting\":0,\"service\":0}"},"geometry":{"type":"Point","coordinates":[45.9901,51.54048]}},{"type":"Feature","properties":{"country_code":"RUS","city":"Vladivostok","geoname_id":"2013348","downloaders":"{\"size\":24568,\"mobile\":335,\"satellite\":2,\"tor\":0,\"tor_exit_nodes\":0,\"vpn\":5591,\"relay\":0,\"proxy\":4,\"hosting\":55,\"service\":3695}","uploaders":"{\"size\":10,\"mobile\":0,\"satellite\":0,\"tor\":0,\"tor_exit_nodes\":0,\"vpn\":3,\"relay\":0,\"proxy\":0,\"hosting\":0,\"service\":0}"},"geometry":{"type":"Point","coordinates":[131.87353,43.10562]}},{"type":"Feature","properties":{"country_code":"KOR","city":"Haegok","geoname_id":"6398843","downloaders":"{\"size\":24240,\"mobile\":86,\"satellite\":0,\"tor\":0,\"tor_exit_nodes\":0,\"vpn\":321,\"relay\":0,\"proxy\":0,\"hosting\":42,\"service\":6}","uploaders":"{\"size\":10,\"mobile\":0,\"satellite\":0,\"tor\":0,\"tor_exit_nodes\":0,\"vpn\":0,\"relay\":0,\"proxy\":0,\"hosting\":0,\"service\":0}"},"geometry":{"type":"Point","coordinates":[127.27880999999999,37.19251]}},{"type":"Feature","properties":{"country_code":"ITA","city":"Rome","geoname_id":"3169070","downloaders":"{\"size\":23760,\"mobile\":738,\"satellite\":0,\"tor\":0,\"tor_exit_nodes\":0,\"vpn\":459,\"relay\":2,\"proxy\":0,\"hosting\":1041,\"service\":285}","uploaders":"{\"size\":82,\"mobile\":18,\"satellite\":0,\"tor\":0,\"tor_exit_nodes\":0,\"vpn\":22,\"relay\":0,\"proxy\":0,\"hosting\":22,\"service\":22}"},"geometry":{"type":"Point","coordinates":[12.51133,41.89193]}},{"type":"Feature","properties":{"country_code":"CHN","city":"Qingdao","geoname_id":"1797929","downloaders":"{\"size\":23647,\"mobile\":14,\"satellite\":0,\"tor\":0,\"tor_exit_nodes\":0,\"vpn\":555,\"relay\":0,\"proxy\":5,\"hosting\":329,\"service\":0}","uploaders":"{\"size\":94,\"mobile\":0,\"satellite\":0,\"tor\":0,\"tor_exit_nodes\":0,\"vpn\":0,\"relay\":0,\"proxy\":0,\"hosting\":0,\"service\":0}"},"geometry":{"type":"Point","coordinates":[120.38042,36.06488]}},{"type":"Feature","properties":{"country_code":"PRT","city":"Lisbon","geoname_id":"2267057","downloaders":"{\"size\":23234,\"mobile\":1492,\"satellite\":28,\"tor\":0,\"tor_exit_nodes\":0,\"vpn\":1598,\"relay\":0,\"proxy\":0,\"hosting\":1506,\"service\":1446}","uploaders":"{\"size\":693,\"mobile\":65,\"satellite\":0,\"tor\":0,\"tor_exit_nodes\":0,\"vpn\":139,\"relay\":0,\"proxy\":0,\"hosting\":144,\"service\":137}"},"geometry":{"type":"Point","coordinates":[-9.1498,38.72509]}},{"type":"Feature","properties":{"country_code":"ESP","city":"Barcelona","geoname_id":"3128760","downloaders":"{\"size\":23104,\"mobile\":502,\"satellite\":0,\"tor\":1,\"tor_exit_nodes\":0,\"vpn\":2509,\"relay\":3,\"proxy\":0,\"hosting\":2298,\"service\":2247}","uploaders":"{\"size\":489,\"mobile\":3,\"satellite\":0,\"tor\":0,\"tor_exit_nodes\":0,\"vpn\":267,\"relay\":0,\"proxy\":0,\"hosting\":265,\"service\":263}"},"geometry":{"type":"Point","coordinates":[2.15899,41.38879]}},{"type":"Feature","properties":{"country_code":"IRL","city":"Dublin","geoname_id":"2964574","downloaders":"{\"size\":22201,\"mobile\":3195,\"satellite\":268,\"tor\":0,\"tor_exit_nodes\":0,\"vpn\":6145,\"relay\":35,\"proxy\":2,\"hosting\":7857,\"service\":6049}","uploaders":"{\"size\":2655,\"mobile\":983,\"satellite\":171,\"tor\":0,\"tor_exit_nodes\":0,\"vpn\":778,\"relay\":8,\"proxy\":0,\"hosting\":831,\"service\":786}"},"geometry":{"type":"Point","coordinates":[-6.24889,53.33306]}},{"type":"Feature","properties":{"country_code":"DEU","city":"Berlin","geoname_id":"2950159","downloaders":"{\"size\":22074,\"mobile\":1006,\"satellite\":157,\"tor\":40,\"tor_exit_nodes\":33,\"vpn\":4379,\"relay\":3,\"proxy\":4,\"hosting\":4791,\"service\":2506}","uploaders":"{\"size\":1727,\"mobile\":1,\"satellite\":1,\"tor\":6,\"tor_exit_nodes\":1,\"vpn\":1656,\"relay\":0,\"proxy\":0,\"hosting\":1337,\"service\":462}"},"geometry":{"type":"Point","coordinates":[13.41053,52.52437]}},{"type":"Feature","properties":{"country_code":"CZE","city":"Prague","geoname_id":"3067696","downloaders":"{\"size\":21675,\"mobile\":431,\"satellite\":34,\"tor\":2,\"tor_exit_nodes\":0,\"vpn\":4632,\"relay\":1,\"proxy\":7,\"hosting\":5952,\"service\":3834}","uploaders":"{\"size\":419,\"mobile\":6,\"satellite\":0,\"tor\":0,\"tor_exit_nodes\":0,\"vpn\":308,\"relay\":0,\"proxy\":0,\"hosting\":322,\"service\":308}"},"geometry":{"type":"Point","coordinates":[14.42076,50.08804]}},{"type":"Feature","properties":{"country_code":"TUR","city":"Antalya","geoname_id":"323777","downloaders":"{\"size\":20843,\"mobile\":3363,\"satellite\":0,\"tor\":0,\"tor_exit_nodes\":0,\"vpn\":2,\"relay\":0,\"proxy\":0,\"hosting\":0,\"service\":0}","uploaders":"{\"size\":10,\"mobile\":0,\"satellite\":0,\"tor\":0,\"tor_exit_nodes\":0,\"vpn\":0,\"relay\":0,\"proxy\":0,\"hosting\":0,\"service\":0}"},"geometry":{"type":"Point","coordinates":[30.69556,36.90812]}},{"type":"Feature","properties":{"country_code":"KOR","city":"Anyang-si","geoname_id":"1846898","downloaders":"{\"size\":20744,\"mobile\":388,\"satellite\":0,\"tor\":0,\"tor_exit_nodes\":0,\"vpn\":335,\"relay\":0,\"proxy\":0,\"hosting\":21,\"service\":11}","uploaders":"{\"size\":13,\"mobile\":0,\"satellite\":0,\"tor\":0,\"tor_exit_nodes\":0,\"vpn\":0,\"relay\":0,\"proxy\":0,\"hosting\":0,\"service\":0}"},"geometry":{"type":"Point","coordinates":[126.92694,37.3925]}},{"type":"Feature","properties":{"country_code":"IRQ","city":"Baghdad","geoname_id":"98182","downloaders":"{\"size\":20135,\"mobile\":233,\"satellite\":54,\"tor\":0,\"tor_exit_nodes\":0,\"vpn\":8,\"relay\":0,\"proxy\":0,\"hosting\":461,\"service\":1}","uploaders":"{\"size\":9,\"mobile\":0,\"satellite\":1,\"tor\":0,\"tor_exit_nodes\":0,\"vpn\":0,\"relay\":0,\"proxy\":0,\"hosting\":0,\"service\":0}"},"geometry":{"type":"Point","coordinates":[44.40088,33.34058]}},{"type":"Feature","properties":{"country_code":"USA","city":"Denver","geoname_id":"5419384","downloaders":"{\"size\":19679,\"mobile\":155,\"satellite\":77,\"tor\":0,\"tor_exit_nodes\":0,\"vpn\":15232,\"relay\":7,\"proxy\":1,\"hosting\":14241,\"service\":15129}","uploaders":"{\"size\":2328,\"mobile\":3,\"satellite\":3,\"tor\":0,\"tor_exit_nodes\":0,\"vpn\":2125,\"relay\":0,\"proxy\":0,\"hosting\":2008,\"service\":2103}"},"geometry":{"type":"Point","coordinates":[-104.9847,39.73915]}},{"type":"Feature","properties":{"country_code":"RUS","city":"Kirov","geoname_id":"548408","downloaders":"{\"size\":19465,\"mobile\":1099,\"satellite\":0,\"tor\":0,\"tor_exit_nodes\":0,\"vpn\":144,\"relay\":0,\"proxy\":0,\"hosting\":0,\"service\":0}","uploaders":"{\"size\":5,\"mobile\":0,\"satellite\":0,\"tor\":0,\"tor_exit_nodes\":0,\"vpn\":0,\"relay\":0,\"proxy\":0,\"hosting\":0,\"service\":0}"},"geometry":{"type":"Point","coordinates":[49.65783,58.59809]}},{"type":"Feature","properties":{"country_code":"CHN","city":"Shenyang","geoname_id":"2034937","downloaders":"{\"size\":19438,\"mobile\":59,\"satellite\":0,\"tor\":0,\"tor_exit_nodes\":0,\"vpn\":206,\"relay\":1,\"proxy\":1,\"hosting\":2,\"service\":1}","uploaders":"{\"size\":40,\"mobile\":0,\"satellite\":0,\"tor\":0,\"tor_exit_nodes\":0,\"vpn\":2,\"relay\":1,\"proxy\":0,\"hosting\":1,\"service\":1}"},"geometry":{"type":"Point","coordinates":[123.43278,41.79222]}},{"type":"Feature","properties":{"country_code":"TUR","city":"Konya","geoname_id":"306571","downloaders":"{\"size\":19412,\"mobile\":986,\"satellite\":0,\"tor\":0,\"tor_exit_nodes\":0,\"vpn\":3,\"relay\":0,\"proxy\":0,\"hosting\":0,\"service\":0}","uploaders":"{\"size\":3,\"mobile\":0,\"satellite\":0,\"tor\":0,\"tor_exit_nodes\":0,\"vpn\":0,\"relay\":0,\"proxy\":0,\"hosting\":0,\"service\":0}"},"geometry":{"type":"Point","coordinates":[32.48464,37.87135]}},{"type":"Feature","properties":{"country_code":"JPN","city":"Osaka","geoname_id":"1853909","downloaders":"{\"size\":19338,\"mobile\":3341,\"satellite\":0,\"tor\":1,\"tor_exit_nodes\":0,\"vpn\":2381,\"relay\":2,\"proxy\":2,\"hosting\":3344,\"service\":2131}","uploaders":"{\"size\":237,\"mobile\":6,\"satellite\":0,\"tor\":0,\"tor_exit_nodes\":0,\"vpn\":194,\"relay\":0,\"proxy\":0,\"hosting\":216,\"service\":194}"},"geometry":{"type":"Point","coordinates":[135.50107,34.69379]}},{"type":"Feature","properties":{"country_code":"KOR","city":"Cheonan","geoname_id":"1845759","downloaders":"{\"size\":19315,\"mobile\":290,\"satellite\":0,\"tor\":0,\"tor_exit_nodes\":0,\"vpn\":101,\"relay\":0,\"proxy\":49,\"hosting\":76,\"service\":5}","uploaders":"{\"size\":7,\"mobile\":0,\"satellite\":0,\"tor\":0,\"tor_exit_nodes\":0,\"vpn\":0,\"relay\":0,\"proxy\":0,\"hosting\":0,\"service\":0}"},"geometry":{"type":"Point","coordinates":[127.1522,36.8065]}},{"type":"Feature","properties":{"country_code":"NZL","city":"Auckland","geoname_id":"2193733","downloaders":"{\"size\":19261,\"mobile\":5498,\"satellite\":311,\"tor\":10,\"tor_exit_nodes\":0,\"vpn\":4361,\"relay\":2,\"proxy\":1,\"hosting\":4688,\"service\":4050}","uploaders":"{\"size\":1423,\"mobile\":379,\"satellite\":44,\"tor\":0,\"tor_exit_nodes\":0,\"vpn\":595,\"relay\":0,\"proxy\":0,\"hosting\":609,\"service\":593}"},"geometry":{"type":"Point","coordinates":[174.76349,-36.84853]}},{"type":"Feature","properties":{"country_code":"LTU","city":"Vilnius","geoname_id":"593116","downloaders":"{\"size\":19172,\"mobile\":363,\"satellite\":13,\"tor\":5,\"tor_exit_nodes\":0,\"vpn\":862,\"relay\":0,\"proxy\":9,\"hosting\":1436,\"service\":565}","uploaders":"{\"size\":113,\"mobile\":13,\"satellite\":0,\"tor\":0,\"tor_exit_nodes\":0,\"vpn\":30,\"relay\":0,\"proxy\":0,\"hosting\":29,\"service\":30}"},"geometry":{"type":"Point","coordinates":[25.2798,54.68916]}},{"type":"Feature","properties":{"country_code":"DEU","city":"Falkenstein","geoname_id":"2927913","downloaders":"{\"size\":19108,\"mobile\":0,\"satellite\":0,\"tor\":5,\"tor_exit_nodes\":0,\"vpn\":7,\"relay\":0,\"proxy\":0,\"hosting\":19105,\"service\":7}","uploaders":"{\"size\":233,\"mobile\":0,\"satellite\":0,\"tor\":0,\"tor_exit_nodes\":0,\"vpn\":0,\"relay\":0,\"proxy\":0,\"hosting\":233,\"service\":0}"},"geometry":{"type":"Point","coordinates":[12.37129,50.47788]}},{"type":"Feature","properties":{"country_code":"USA","city":"San Jose","geoname_id":"5392171","downloaders":"{\"size\":18869,\"mobile\":114,\"satellite\":167,\"tor\":12,\"tor_exit_nodes\":9,\"vpn\":12010,\"relay\":72,\"proxy\":56,\"hosting\":14656,\"service\":11862}","uploaders":"{\"size\":1742,\"mobile\":5,\"satellite\":25,\"tor\":1,\"tor_exit_nodes\":1,\"vpn\":1490,\"relay\":9,\"proxy\":0,\"hosting\":1626,\"service\":1469}"},"geometry":{"type":"Point","coordinates":[-121.89496,37.33939]}},{"type":"Feature","properties":{"country_code":"RUS","city":"Cheboksary","geoname_id":"569696","downloaders":"{\"size\":18816,\"mobile\":23,\"satellite\":0,\"tor\":0,\"tor_exit_nodes\":0,\"vpn\":101,\"relay\":0,\"proxy\":0,\"hosting\":0,\"service\":4}","uploaders":"{\"size\":8,\"mobile\":0,\"satellite\":0,\"tor\":0,\"tor_exit_nodes\":0,\"vpn\":0,\"relay\":0,\"proxy\":0,\"hosting\":0,\"service\":0}"},"geometry":{"type":"Point","coordinates":[47.246,56.13218]}},{"type":"Feature","properties":{"country_code":"CHN","city":"Shaoxing","geoname_id":"1795855","downloaders":"{\"size\":18451,\"mobile\":2,\"satellite\":0,\"tor\":0,\"tor_exit_nodes\":0,\"vpn\":196,\"relay\":0,\"proxy\":20,\"hosting\":8914,\"service\":0}","uploaders":"{\"size\":42,\"mobile\":0,\"satellite\":0,\"tor\":0,\"tor_exit_nodes\":0,\"vpn\":0,\"relay\":0,\"proxy\":0,\"hosting\":0,\"service\":0}"},"geometry":{"type":"Point","coordinates":[120.57864,30.00237]}},{"type":"Feature","properties":{"country_code":"BEL","city":"Brussels","geoname_id":"2800866","downloaders":"{\"size\":18445,\"mobile\":308,\"satellite\":38,\"tor\":0,\"tor_exit_nodes\":15,\"vpn\":4199,\"relay\":3,\"proxy\":1,\"hosting\":3593,\"service\":4025}","uploaders":"{\"size\":539,\"mobile\":38,\"satellite\":1,\"tor\":0,\"tor_exit_nodes\":0,\"vpn\":364,\"relay\":0,\"proxy\":0,\"hosting\":343,\"service\":350}"},"geometry":{"type":"Point","coordinates":[4.34878,50.85045]}},{"type":"Feature","properties":{"country_code":"KOR","city":"Bucheon-si","geoname_id":"1838716","downloaders":"{\"size\":18349,\"mobile\":45,\"satellite\":0,\"tor\":0,\"tor_exit_nodes\":0,\"vpn\":366,\"relay\":0,\"proxy\":0,\"hosting\":5,\"service\":54}","uploaders":"{\"size\":5,\"mobile\":0,\"satellite\":0,\"tor\":0,\"tor_exit_nodes\":0,\"vpn\":0,\"relay\":0,\"proxy\":0,\"hosting\":0,\"service\":0}"},"geometry":{"type":"Point","coordinates":[126.78306,37.49889]}},{"type":"Feature","properties":{"country_code":"FRA","city":"Dunkerque","geoname_id":"3020686","downloaders":"{\"size\":18047,\"mobile\":343,\"satellite\":0,\"tor\":29,\"tor_exit_nodes\":16,\"vpn\":507,\"relay\":0,\"proxy\":27,\"hosting\":17108,\"service\":58}","uploaders":"{\"size\":299,\"mobile\":1,\"satellite\":0,\"tor\":0,\"tor_exit_nodes\":0,\"vpn\":0,\"relay\":0,\"proxy\":0,\"hosting\":297,\"service\":0}"},"geometry":{"type":"Point","coordinates":[2.37681,51.0344]}},{"type":"Feature","properties":{"country_code":"AUS","city":"Brisbane","geoname_id":"2174003","downloaders":"{\"size\":18030,\"mobile\":810,\"satellite\":100,\"tor\":8,\"tor_exit_nodes\":0,\"vpn\":4354,\"relay\":6,\"proxy\":0,\"hosting\":4039,\"service\":3897}","uploaders":"{\"size\":1203,\"mobile\":74,\"satellite\":3,\"tor\":0,\"tor_exit_nodes\":0,\"vpn\":535,\"relay\":1,\"proxy\":0,\"hosting\":529,\"service\":524}"},"geometry":{"type":"Point","coordinates":[153.02809,-27.46794]}},{"type":"Feature","properties":{"country_code":"KOR","city":"Hwado","geoname_id":"1897118","downloaders":"{\"size\":17839,\"mobile\":1,\"satellite\":0,\"tor\":0,\"tor_exit_nodes\":0,\"vpn\":136,\"relay\":0,\"proxy\":5,\"hosting\":0,\"service\":18}","uploaders":"{\"size\":10,\"mobile\":0,\"satellite\":0,\"tor\":0,\"tor_exit_nodes\":0,\"vpn\":0,\"relay\":0,\"proxy\":0,\"hosting\":0,\"service\":0}"},"geometry":{"type":"Point","coordinates":[127.3075,37.6525]}},{"type":"Feature","properties":{"country_code":"TWN","city":"Taipei","geoname_id":"1668341","downloaders":"{\"size\":17801,\"mobile\":584,\"satellite\":0,\"tor\":21,\"tor_exit_nodes\":18,\"vpn\":1623,\"relay\":6,\"proxy\":3,\"hosting\":879,\"service\":800}","uploaders":"{\"size\":236,\"mobile\":25,\"satellite\":0,\"tor\":0,\"tor_exit_nodes\":0,\"vpn\":63,\"relay\":0,\"proxy\":0,\"hosting\":51,\"service\":60}"},"geometry":{"type":"Point","coordinates":[121.52639,25.05306]}},{"type":"Feature","properties":{"country_code":"RUS","city":"Tver","geoname_id":"480060","downloaders":"{\"size\":17689,\"mobile\":26,\"satellite\":0,\"tor\":0,\"tor_exit_nodes\":0,\"vpn\":272,\"relay\":0,\"proxy\":6,\"hosting\":24,\"service\":32}","uploaders":"{\"size\":4,\"mobile\":0,\"satellite\":0,\"tor\":0,\"tor_exit_nodes\":0,\"vpn\":0,\"relay\":0,\"proxy\":0,\"hosting\":0,\"service\":0}"},"geometry":{"type":"Point","coordinates":[35.90057,56.85836]}},{"type":"Feature","properties":{"country_code":"KOR","city":"Pyeongtaek","geoname_id":"1838343","downloaders":"{\"size\":17593,\"mobile\":91,\"satellite\":0,\"tor\":0,\"tor_exit_nodes\":0,\"vpn\":91,\"relay\":0,\"proxy\":11,\"hosting\":11,\"service\":3}","uploaders":"{\"size\":5,\"mobile\":0,\"satellite\":0,\"tor\":0,\"tor_exit_nodes\":0,\"vpn\":0,\"relay\":0,\"proxy\":0,\"hosting\":0,\"service\":0}"},"geometry":{"type":"Point","coordinates":[127.08889,36.99472]}},{"type":"Feature","properties":{"country_code":"USA","city":"Phoenix","geoname_id":"5308655","downloaders":"{\"size\":17445,\"mobile\":452,\"satellite\":62,\"tor\":114,\"tor_exit_nodes\":0,\"vpn\":8419,\"relay\":17,\"proxy\":9,\"hosting\":9827,\"service\":8092}","uploaders":"{\"size\":1441,\"mobile\":45,\"satellite\":2,\"tor\":41,\"tor_exit_nodes\":0,\"vpn\":1133,\"relay\":0,\"proxy\":1,\"hosting\":1111,\"service\":1100}"},"geometry":{"type":"Point","coordinates":[-112.07404,33.44838]}},{"type":"Feature","properties":{"country_code":"RUS","city":"Ulyanovsk","geoname_id":"479123","downloaders":"{\"size\":17334,\"mobile\":111,\"satellite\":0,\"tor\":0,\"tor_exit_nodes\":0,\"vpn\":553,\"relay\":0,\"proxy\":0,\"hosting\":3173,\"service\":388}","uploaders":"{\"size\":3,\"mobile\":0,\"satellite\":0,\"tor\":0,\"tor_exit_nodes\":0,\"vpn\":0,\"relay\":0,\"proxy\":0,\"hosting\":0,\"service\":0}"},"geometry":{"type":"Point","coordinates":[48.38657,54.32824]}},{"type":"Feature","properties":{"country_code":"FRA","city":"Marseille","geoname_id":"2995469","downloaders":"{\"size\":17202,\"mobile\":2726,\"satellite\":0,\"tor\":0,\"tor_exit_nodes\":0,\"vpn\":5206,\"relay\":17,\"proxy\":8,\"hosting\":6650,\"service\":5197}","uploaders":"{\"size\":437,\"mobile\":45,\"satellite\":0,\"tor\":0,\"tor_exit_nodes\":0,\"vpn\":371,\"relay\":1,\"proxy\":0,\"hosting\":381,\"service\":372}"},"geometry":{"type":"Point","coordinates":[5.38107,43.29695]}},{"type":"Feature","properties":{"country_code":"THA","city":"Bangkok","geoname_id":"1609350","downloaders":"{\"size\":16975,\"mobile\":2160,\"satellite\":0,\"tor\":0,\"tor_exit_nodes\":0,\"vpn\":847,\"relay\":29,\"proxy\":12,\"hosting\":1517,\"service\":611}","uploaders":"{\"size\":1675,\"mobile\":398,\"satellite\":0,\"tor\":0,\"tor_exit_nodes\":0,\"vpn\":114,\"relay\":0,\"proxy\":0,\"hosting\":130,\"service\":107}"},"geometry":{"type":"Point","coordinates":[100.50144,13.75398]}},{"type":"Feature","properties":{"country_code":"POL","city":"Ursynów","geoname_id":"6545326","downloaders":"{\"size\":16927,\"mobile\":0,\"satellite\":0,\"tor\":0,\"tor_exit_nodes\":0,\"vpn\":757,\"relay\":0,\"proxy\":0,\"hosting\":538,\"service\":747}","uploaders":"{\"size\":48,\"mobile\":0,\"satellite\":0,\"tor\":0,\"tor_exit_nodes\":0,\"vpn\":29,\"relay\":0,\"proxy\":0,\"hosting\":29,\"service\":29}"},"geometry":{"type":"Point","coordinates":[21.0068,52.1552]}},{"type":"Feature","properties":{"country_code":"RUS","city":"Izhevsk","geoname_id":"554840","downloaders":"{\"size\":16767,\"mobile\":13,\"satellite\":1,\"tor\":0,\"tor_exit_nodes\":0,\"vpn\":205,\"relay\":0,\"proxy\":0,\"hosting\":0,\"service\":3}","uploaders":"{\"size\":5,\"mobile\":0,\"satellite\":0,\"tor\":0,\"tor_exit_nodes\":0,\"vpn\":0,\"relay\":0,\"proxy\":0,\"hosting\":0,\"service\":0}"},"geometry":{"type":"Point","coordinates":[53.19862,56.85225]}},{"type":"Feature","properties":{"country_code":"RUS","city":"Khabarovsk","geoname_id":"2022890","downloaders":"{\"size\":16764,\"mobile\":71,\"satellite\":20,\"tor\":0,\"tor_exit_nodes\":0,\"vpn\":539,\"relay\":0,\"proxy\":0,\"hosting\":40,\"service\":189}","uploaders":"{\"size\":5,\"mobile\":0,\"satellite\":0,\"tor\":0,\"tor_exit_nodes\":0,\"vpn\":0,\"relay\":0,\"proxy\":0,\"hosting\":0,\"service\":0}"},"geometry":{"type":"Point","coordinates":[135.0971,48.46204]}},{"type":"Feature","properties":{"country_code":"KOR","city":"Wŏnju","geoname_id":"1833105","downloaders":"{\"size\":16609,\"mobile\":63,\"satellite\":0,\"tor\":0,\"tor_exit_nodes\":0,\"vpn\":172,\"relay\":0,\"proxy\":0,\"hosting\":0,\"service\":8}","uploaders":"{\"size\":6,\"mobile\":0,\"satellite\":0,\"tor\":0,\"tor_exit_nodes\":0,\"vpn\":0,\"relay\":0,\"proxy\":0,\"hosting\":0,\"service\":0}"},"geometry":{"type":"Point","coordinates":[127.94528,37.35139]}},{"type":"Feature","properties":{"country_code":"RUS","city":"Tolyatti","geoname_id":"482283","downloaders":"{\"size\":16433,\"mobile\":19,\"satellite\":0,\"tor\":0,\"tor_exit_nodes\":0,\"vpn\":103,\"relay\":0,\"proxy\":0,\"hosting\":0,\"service\":25}","uploaders":"{\"size\":11,\"mobile\":0,\"satellite\":0,\"tor\":0,\"tor_exit_nodes\":0,\"vpn\":0,\"relay\":0,\"proxy\":0,\"hosting\":0,\"service\":0}"},"geometry":{"type":"Point","coordinates":[49.3461,53.5303]}},{"type":"Feature","properties":{"country_code":"GRC","city":"Athens","geoname_id":"264371","downloaders":"{\"size\":16336,\"mobile\":3575,\"satellite\":126,\"tor\":1,\"tor_exit_nodes\":0,\"vpn\":1268,\"relay\":8,\"proxy\":0,\"hosting\":1254,\"service\":1234}","uploaders":"{\"size\":1404,\"mobile\":586,\"satellite\":21,\"tor\":0,\"tor_exit_nodes\":0,\"vpn\":177,\"relay\":6,\"proxy\":0,\"hosting\":185,\"service\":181}"},"geometry":{"type":"Point","coordinates":[23.72784,37.98376]}},{"type":"Feature","properties":{"country_code":"RUS","city":"Mytishchi","geoname_id":"523812","downloaders":"{\"size\":16194,\"mobile\":0,\"satellite\":0,\"tor\":0,\"tor_exit_nodes\":0,\"vpn\":998,\"relay\":0,\"proxy\":5,\"hosting\":5,\"service\":27}","uploaders":"{\"size\":14,\"mobile\":0,\"satellite\":0,\"tor\":0,\"tor_exit_nodes\":0,\"vpn\":0,\"relay\":0,\"proxy\":0,\"hosting\":0,\"service\":0}"},"geometry":{"type":"Point","coordinates":[37.72964,55.91099]}},{"type":"Feature","properties":{"country_code":"NOR","city":"Oslo","geoname_id":"3143244","downloaders":"{\"size\":16190,\"mobile\":1075,\"satellite\":121,\"tor\":4,\"tor_exit_nodes\":3,\"vpn\":5360,\"relay\":0,\"proxy\":1,\"hosting\":5059,\"service\":4873}","uploaders":"{\"size\":566,\"mobile\":65,\"satellite\":8,\"tor\":0,\"tor_exit_nodes\":0,\"vpn\":292,\"relay\":0,\"proxy\":0,\"hosting\":287,\"service\":287}"},"geometry":{"type":"Point","coordinates":[10.74609,59.91273]}},{"type":"Feature","properties":{"country_code":"ISR","city":"Tel Aviv","geoname_id":"293397","downloaders":"{\"size\":16175,\"mobile\":1458,\"satellite\":0,\"tor\":1,\"tor_exit_nodes\":0,\"vpn\":1016,\"relay\":0,\"proxy\":2,\"hosting\":945,\"service\":902}","uploaders":"{\"size\":1197,\"mobile\":191,\"satellite\":0,\"tor\":0,\"tor_exit_nodes\":0,\"vpn\":89,\"relay\":0,\"proxy\":0,\"hosting\":90,\"service\":87}"},"geometry":{"type":"Point","coordinates":[34.78057,32.08088]}},{"type":"Feature","properties":{"country_code":"ARG","city":"Buenos Aires","geoname_id":"3435910","downloaders":"{\"size\":16136,\"mobile\":511,\"satellite\":273,\"tor\":0,\"tor_exit_nodes\":0,\"vpn\":643,\"relay\":2,\"proxy\":0,\"hosting\":713,\"service\":565}","uploaders":"{\"size\":357,\"mobile\":11,\"satellite\":7,\"tor\":0,\"tor_exit_nodes\":0,\"vpn\":60,\"relay\":0,\"proxy\":0,\"hosting\":60,\"service\":58}"},"geometry":{"type":"Point","coordinates":[-58.37723,-34.61315]}},{"type":"Feature","properties":{"country_code":"CHN","city":"Hefei","geoname_id":"1808722","downloaders":"{\"size\":15788,\"mobile\":9,\"satellite\":0,\"tor\":0,\"tor_exit_nodes\":0,\"vpn\":727,\"relay\":0,\"proxy\":0,\"hosting\":0,\"service\":0}","uploaders":"{\"size\":34,\"mobile\":0,\"satellite\":0,\"tor\":0,\"tor_exit_nodes\":0,\"vpn\":1,\"relay\":0,\"proxy\":0,\"hosting\":0,\"service\":0}"},"geometry":{"type":"Point","coordinates":[117.28083,31.86389]}},{"type":"Feature","properties":{"country_code":"PAK","city":"Lahore","geoname_id":"1172451","downloaders":"{\"size\":15608,\"mobile\":156,\"satellite\":1,\"tor\":0,\"tor_exit_nodes\":0,\"vpn\":31,\"relay\":0,\"proxy\":0,\"hosting\":13,\"service\":0}","uploaders":"{\"size\":87,\"mobile\":14,\"satellite\":0,\"tor\":0,\"tor_exit_nodes\":0,\"vpn\":0,\"relay\":0,\"proxy\":0,\"hosting\":0,\"service\":0}"},"geometry":{"type":"Point","coordinates":[74.35071,31.558]}},{"type":"Feature","properties":{"country_code":"TUR","city":"Kayseri","geoname_id":"308464","downloaders":"{\"size\":15509,\"mobile\":440,\"satellite\":0,\"tor\":0,\"tor_exit_nodes\":0,\"vpn\":2,\"relay\":0,\"proxy\":0,\"hosting\":0,\"service\":0}","uploaders":"{\"size\":3,\"mobile\":0,\"satellite\":0,\"tor\":0,\"tor_exit_nodes\":0,\"vpn\":0,\"relay\":0,\"proxy\":0,\"hosting\":0,\"service\":0}"},"geometry":{"type":"Point","coordinates":[35.48528,38.73222]}},{"type":"Feature","properties":{"country_code":"POL","city":"Poznań","geoname_id":"3088171","downloaders":"{\"size\":15458,\"mobile\":237,\"satellite\":0,\"tor\":1,\"tor_exit_nodes\":0,\"vpn\":108,\"relay\":0,\"proxy\":0,\"hosting\":93,\"service\":3}","uploaders":"{\"size\":62,\"mobile\":19,\"satellite\":0,\"tor\":0,\"tor_exit_nodes\":0,\"vpn\":0,\"relay\":0,\"proxy\":0,\"hosting\":0,\"service\":0}"},"geometry":{"type":"Point","coordinates":[16.92993,52.40692]}},{"type":"Feature","properties":{"country_code":"JPN","city":"Yokohama","geoname_id":"1848354","downloaders":"{\"size\":15126,\"mobile\":5789,\"satellite\":0,\"tor\":0,\"tor_exit_nodes\":0,\"vpn\":559,\"relay\":3,\"proxy\":0,\"hosting\":57,\"service\":275}","uploaders":"{\"size\":36,\"mobile\":12,\"satellite\":0,\"tor\":0,\"tor_exit_nodes\":0,\"vpn\":3,\"relay\":0,\"proxy\":0,\"hosting\":2,\"service\":3}"},"geometry":{"type":"Point","coordinates":[139.65,35.43333]}},{"type":"Feature","properties":{"country_code":"RUS","city":"Kaliningrad","geoname_id":"554234","downloaders":"{\"size\":15119,\"mobile\":163,\"satellite\":0,\"tor\":0,\"tor_exit_nodes\":0,\"vpn\":169,\"relay\":0,\"proxy\":7,\"hosting\":0,\"service\":0}","uploaders":"{\"size\":4,\"mobile\":0,\"satellite\":0,\"tor\":0,\"tor_exit_nodes\":0,\"vpn\":0,\"relay\":0,\"proxy\":0,\"hosting\":0,\"service\":0}"},"geometry":{"type":"Point","coordinates":[20.51102,54.70639]}},{"type":"Feature","properties":{"country_code":"CHN","city":"Wuhan","geoname_id":"1791247","downloaders":"{\"size\":14541,\"mobile\":141,\"satellite\":0,\"tor\":0,\"tor_exit_nodes\":0,\"vpn\":623,\"relay\":0,\"proxy\":5,\"hosting\":121,\"service\":0}","uploaders":"{\"size\":56,\"mobile\":0,\"satellite\":0,\"tor\":0,\"tor_exit_nodes\":0,\"vpn\":1,\"relay\":0,\"proxy\":0,\"hosting\":0,\"service\":0}"},"geometry":{"type":"Point","coordinates":[114.26667,30.58333]}},{"type":"Feature","properties":{"country_code":"RUS","city":"Bryansk","geoname_id":"571476","downloaders":"{\"size\":14460,\"mobile\":0,\"satellite\":0,\"tor\":0,\"tor_exit_nodes\":0,\"vpn\":113,\"relay\":0,\"proxy\":0,\"hosting\":0,\"service\":6}","uploaders":"{\"size\":6,\"mobile\":0,\"satellite\":0,\"tor\":0,\"tor_exit_nodes\":0,\"vpn\":0,\"relay\":0,\"proxy\":0,\"hosting\":0,\"service\":0}"},"geometry":{"type":"Point","coordinates":[34.32143,53.27096]}},{"type":"Feature","properties":{"country_code":"CHN","city":"Chengdu","geoname_id":"1815286","downloaders":"{\"size\":14369,\"mobile\":478,\"satellite\":0,\"tor\":0,\"tor_exit_nodes\":0,\"vpn\":845,\"relay\":0,\"proxy\":6,\"hosting\":462,\"service\":0}","uploaders":"{\"size\":190,\"mobile\":1,\"satellite\":0,\"tor\":0,\"tor_exit_nodes\":0,\"vpn\":2,\"relay\":0,\"proxy\":0,\"hosting\":0,\"service\":0}"},"geometry":{"type":"Point","coordinates":[104.06667,30.66667]}},{"type":"Feature","properties":{"country_code":"ESP","city":"Sevilla","geoname_id":"2510911","downloaders":"{\"size\":14314,\"mobile\":565,\"satellite\":0,\"tor\":0,\"tor_exit_nodes\":0,\"vpn\":56,\"relay\":3,\"proxy\":0,\"hosting\":13,\"service\":6}","uploaders":"{\"size\":53,\"mobile\":5,\"satellite\":0,\"tor\":0,\"tor_exit_nodes\":0,\"vpn\":0,\"relay\":0,\"proxy\":0,\"hosting\":0,\"service\":0}"},"geometry":{"type":"Point","coordinates":[-5.97317,37.38283]}},{"type":"Feature","properties":{"country_code":"HRV","city":"Zagreb","geoname_id":"3186886","downloaders":"{\"size\":14219,\"mobile\":689,\"satellite\":56,\"tor\":10,\"tor_exit_nodes\":0,\"vpn\":1417,\"relay\":0,\"proxy\":0,\"hosting\":1455,\"service\":1354}","uploaders":"{\"size\":851,\"mobile\":107,\"satellite\":0,\"tor\":0,\"tor_exit_nodes\":0,\"vpn\":173,\"relay\":0,\"proxy\":0,\"hosting\":175,\"service\":172}"},"geometry":{"type":"Point","coordinates":[15.97798,45.81444]}},{"type":"Feature","properties":{"country_code":"BRA","city":"Rio de Janeiro","geoname_id":"3451190","downloaders":"{\"size\":13928,\"mobile\":191,\"satellite\":0,\"tor\":0,\"tor_exit_nodes\":0,\"vpn\":79,\"relay\":0,\"proxy\":1,\"hosting\":67,\"service\":1}","uploaders":"{\"size\":174,\"mobile\":1,\"satellite\":0,\"tor\":0,\"tor_exit_nodes\":0,\"vpn\":10,\"relay\":0,\"proxy\":0,\"hosting\":0,\"service\":0}"},"geometry":{"type":"Point","coordinates":[-43.18223,-22.90642]}},{"type":"Feature","properties":{"country_code":"CHN","city":"Quanzhou","geoname_id":"1797353","downloaders":"{\"size\":13704,\"mobile\":146,\"satellite\":0,\"tor\":0,\"tor_exit_nodes\":0,\"vpn\":161,\"relay\":0,\"proxy\":0,\"hosting\":0,\"service\":0}","uploaders":"{\"size\":12,\"mobile\":1,\"satellite\":0,\"tor\":0,\"tor_exit_nodes\":0,\"vpn\":1,\"relay\":0,\"proxy\":0,\"hosting\":0,\"service\":0}"},"geometry":{"type":"Point","coordinates":[118.58583,24.91389]}},{"type":"Feature","properties":{"country_code":"TWN","city":"Banqiao","geoname_id":"1670029","downloaders":"{\"size\":13630,\"mobile\":96,\"satellite\":0,\"tor\":0,\"tor_exit_nodes\":0,\"vpn\":887,\"relay\":0,\"proxy\":2,\"hosting\":61,\"service\":54}","uploaders":"{\"size\":147,\"mobile\":4,\"satellite\":0,\"tor\":0,\"tor_exit_nodes\":0,\"vpn\":6,\"relay\":0,\"proxy\":0,\"hosting\":1,\"service\":1}"},"geometry":{"type":"Point","coordinates":[121.46719,25.01427]}},{"type":"Feature","properties":{"country_code":"AUT","city":"Vienna","geoname_id":"2761369","downloaders":"{\"size\":13620,\"mobile\":849,\"satellite\":72,\"tor\":19,\"tor_exit_nodes\":0,\"vpn\":3494,\"relay\":1,\"proxy\":31,\"hosting\":4103,\"service\":3328}","uploaders":"{\"size\":536,\"mobile\":62,\"satellite\":4,\"tor\":0,\"tor_exit_nodes\":0,\"vpn\":285,\"relay\":0,\"proxy\":0,\"hosting\":287,\"service\":283}"},"geometry":{"type":"Point","coordinates":[16.37208,48.20849]}},{"type":"Feature","properties":{"country_code":"EST","city":"Tallinn","geoname_id":"588409","downloaders":"{\"size\":13402,\"mobile\":607,\"satellite\":1,\"tor\":16,\"tor_exit_nodes\":0,\"vpn\":1539,\"relay\":2,\"proxy\":2,\"hosting\":4431,\"service\":1271}","uploaders":"{\"size\":199,\"mobile\":26,\"satellite\":0,\"tor\":0,\"tor_exit_nodes\":0,\"vpn\":61,\"relay\":0,\"proxy\":0,\"hosting\":56,\"service\":61}"},"geometry":{"type":"Point","coordinates":[24.75353,59.43696]}},{"type":"Feature","properties":{"country_code":"RUS","city":"Korolev","geoname_id":"554233","downloaders":"{\"size\":13307,\"mobile\":0,\"satellite\":0,\"tor\":0,\"tor_exit_nodes\":0,\"vpn\":499,\"relay\":0,\"proxy\":0,\"hosting\":346,\"service\":11}","uploaders":"{\"size\":6,\"mobile\":0,\"satellite\":0,\"tor\":0,\"tor_exit_nodes\":0,\"vpn\":0,\"relay\":0,\"proxy\":0,\"hosting\":0,\"service\":0}"},"geometry":{"type":"Point","coordinates":[37.82556,55.91417]}},{"type":"Feature","properties":{"country_code":"AUS","city":"Perth","geoname_id":"2063523","downloaders":"{\"size\":13031,\"mobile\":379,\"satellite\":84,\"tor\":1,\"tor_exit_nodes\":0,\"vpn\":3466,\"relay\":18,\"proxy\":15,\"hosting\":3303,\"service\":3247}","uploaders":"{\"size\":938,\"mobile\":66,\"satellite\":3,\"tor\":0,\"tor_exit_nodes\":0,\"vpn\":326,\"relay\":1,\"proxy\":1,\"hosting\":327,\"service\":326}"},"geometry":{"type":"Point","coordinates":[115.8614,-31.95224]}},{"type":"Feature","properties":{"country_code":"DNK","city":"Copenhagen","geoname_id":"2618425","downloaders":"{\"size\":12880,\"mobile\":419,\"satellite\":0,\"tor\":12,\"tor_exit_nodes\":6,\"vpn\":4392,\"relay\":3,\"proxy\":0,\"hosting\":4449,\"service\":4016}","uploaders":"{\"size\":546,\"mobile\":35,\"satellite\":0,\"tor\":0,\"tor_exit_nodes\":0,\"vpn\":339,\"relay\":0,\"proxy\":0,\"hosting\":343,\"service\":339}"},"geometry":{"type":"Point","coordinates":[12.56553,55.67594]}},{"type":"Feature","properties":{"country_code":"POL","city":"Wrocław","geoname_id":"3081368","downloaders":"{\"size\":12870,\"mobile\":282,\"satellite\":0,\"tor\":0,\"tor_exit_nodes\":0,\"vpn\":169,\"relay\":0,\"proxy\":0,\"hosting\":864,\"service\":0}","uploaders":"{\"size\":36,\"mobile\":1,\"satellite\":0,\"tor\":0,\"tor_exit_nodes\":0,\"vpn\":0,\"relay\":0,\"proxy\":0,\"hosting\":0,\"service\":0}"},"geometry":{"type":"Point","coordinates":[17.03006,51.10286]}},{"type":"Feature","properties":{"country_code":"BGR","city":"Plovdiv","geoname_id":"728193","downloaders":"{\"size\":12751,\"mobile\":1,\"satellite\":0,\"tor\":0,\"tor_exit_nodes\":0,\"vpn\":364,\"relay\":0,\"proxy\":0,\"hosting\":952,\"service\":0}","uploaders":"{\"size\":23,\"mobile\":0,\"satellite\":0,\"tor\":0,\"tor_exit_nodes\":0,\"vpn\":2,\"relay\":0,\"proxy\":0,\"hosting\":0,\"service\":0}"},"geometry":{"type":"Point","coordinates":[24.75001,42.15387]}},{"type":"Feature","properties":{"country_code":"BEL","city":"Antwerpen","geoname_id":"2803138","downloaders":"{\"size\":12553,\"mobile\":256,\"satellite\":0,\"tor\":0,\"tor_exit_nodes\":0,\"vpn\":188,\"relay\":0,\"proxy\":0,\"hosting\":87,\"service\":86}","uploaders":"{\"size\":206,\"mobile\":5,\"satellite\":0,\"tor\":0,\"tor_exit_nodes\":0,\"vpn\":5,\"relay\":0,\"proxy\":0,\"hosting\":5,\"service\":5}"},"geometry":{"type":"Point","coordinates":[4.40026,51.22047]}},{"type":"Feature","properties":{"country_code":"KOR","city":"Uijeongbu-si","geoname_id":"1833788","downloaders":"{\"size\":12472,\"mobile\":45,\"satellite\":0,\"tor\":0,\"tor_exit_nodes\":0,\"vpn\":76,\"relay\":0,\"proxy\":30,\"hosting\":20,\"service\":31}","uploaders":"{\"size\":13,\"mobile\":0,\"satellite\":0,\"tor\":0,\"tor_exit_nodes\":0,\"vpn\":0,\"relay\":0,\"proxy\":2,\"hosting\":0,\"service\":0}"},"geometry":{"type":"Point","coordinates":[127.0474,37.7415]}},{"type":"Feature","properties":{"country_code":"SWE","city":"Kista","geoname_id":"2700791","downloaders":"{\"size\":12417,\"mobile\":249,\"satellite\":0,\"tor\":0,\"tor_exit_nodes\":0,\"vpn\":2009,\"relay\":0,\"proxy\":0,\"hosting\":1930,\"service\":1903}","uploaders":"{\"size\":441,\"mobile\":64,\"satellite\":0,\"tor\":0,\"tor_exit_nodes\":0,\"vpn\":210,\"relay\":0,\"proxy\":0,\"hosting\":210,\"service\":210}"},"geometry":{"type":"Point","coordinates":[17.9448,59.4032]}},{"type":"Feature","properties":{"country_code":"MEX","city":"Guadalajara","geoname_id":"4005539","downloaders":"{\"size\":12271,\"mobile\":0,\"satellite\":0,\"tor\":0,\"tor_exit_nodes\":0,\"vpn\":13,\"relay\":0,\"proxy\":0,\"hosting\":1,\"service\":1}","uploaders":"{\"size\":42,\"mobile\":0,\"satellite\":0,\"tor\":0,\"tor_exit_nodes\":0,\"vpn\":0,\"relay\":0,\"proxy\":0,\"hosting\":0,\"service\":0}"},"geometry":{"type":"Point","coordinates":[-103.34749,20.67738]}},{"type":"Feature","properties":{"country_code":"UKR","city":"Odesa","geoname_id":"698740","downloaders":"{\"size\":12026,\"mobile\":122,\"satellite\":0,\"tor\":0,\"tor_exit_nodes\":0,\"vpn\":148,\"relay\":1,\"proxy\":5,\"hosting\":1,\"service\":1}","uploaders":"{\"size\":10,\"mobile\":2,\"satellite\":0,\"tor\":0,\"tor_exit_nodes\":0,\"vpn\":3,\"relay\":0,\"proxy\":0,\"hosting\":0,\"service\":0}"},"geometry":{"type":"Point","coordinates":[30.74383,46.48572]}},{"type":"Feature","properties":{"country_code":"RUS","city":"Kursk","geoname_id":"538560","downloaders":"{\"size\":11925,\"mobile\":5,\"satellite\":0,\"tor\":0,\"tor_exit_nodes\":0,\"vpn\":87,\"relay\":0,\"proxy\":0,\"hosting\":1,\"service\":0}","uploaders":"{\"size\":9,\"mobile\":0,\"satellite\":0,\"tor\":0,\"tor_exit_nodes\":0,\"vpn\":0,\"relay\":0,\"proxy\":0,\"hosting\":0,\"service\":0}"},"geometry":{"type":"Point","coordinates":[36.18457,51.72689]}},{"type":"Feature","properties":{"country_code":"POL","city":"Katowice","geoname_id":"3096472","downloaders":"{\"size\":11871,\"mobile\":47,\"satellite\":0,\"tor\":0,\"tor_exit_nodes\":0,\"vpn\":27,\"relay\":0,\"proxy\":0,\"hosting\":218,\"service\":0}","uploaders":"{\"size\":4,\"mobile\":0,\"satellite\":0,\"tor\":0,\"tor_exit_nodes\":0,\"vpn\":0,\"relay\":0,\"proxy\":0,\"hosting\":0,\"service\":0}"},"geometry":{"type":"Point","coordinates":[19.02173,50.2597]}},{"type":"Feature","properties":{"country_code":"KOR","city":"Kimhae","geoname_id":"1842943","downloaders":"{\"size\":11842,\"mobile\":52,\"satellite\":0,\"tor\":0,\"tor_exit_nodes\":0,\"vpn\":67,\"relay\":0,\"proxy\":0,\"hosting\":0,\"service\":36}","uploaders":"{\"size\":3,\"mobile\":0,\"satellite\":0,\"tor\":0,\"tor_exit_nodes\":0,\"vpn\":0,\"relay\":0,\"proxy\":0,\"hosting\":0,\"service\":0}"},"geometry":{"type":"Point","coordinates":[128.88111,35.23417]}},{"type":"Feature","properties":{"country_code":"BEL","city":"Charleroi","geoname_id":"2800481","downloaders":"{\"size\":11691,\"mobile\":10,\"satellite\":0,\"tor\":0,\"tor_exit_nodes\":0,\"vpn\":89,\"relay\":1,\"proxy\":0,\"hosting\":1,\"service\":1}","uploaders":"{\"size\":27,\"mobile\":0,\"satellite\":0,\"tor\":0,\"tor_exit_nodes\":0,\"vpn\":2,\"relay\":0,\"proxy\":0,\"hosting\":0,\"service\":0}"},"geometry":{"type":"Point","coordinates":[4.44448,50.41136]}},{"type":"Feature","properties":{"country_code":"DEU","city":"Nürnberg","geoname_id":"2861650","downloaders":"{\"size\":11591,\"mobile\":105,\"satellite\":0,\"tor\":71,\"tor_exit_nodes\":1,\"vpn\":279,\"relay\":0,\"proxy\":1,\"hosting\":9875,\"service\":187}","uploaders":"{\"size\":144,\"mobile\":0,\"satellite\":0,\"tor\":3,\"tor_exit_nodes\":0,\"vpn\":1,\"relay\":0,\"proxy\":0,\"hosting\":141,\"service\":1}"},"geometry":{"type":"Point","coordinates":[11.07752,49.45421]}},{"type":"Feature","properties":{"country_code":"TUR","city":"Samsun","geoname_id":"740264","downloaders":"{\"size\":11536,\"mobile\":112,\"satellite\":0,\"tor\":0,\"tor_exit_nodes\":0,\"vpn\":1,\"relay\":0,\"proxy\":0,\"hosting\":339,\"service\":0}","uploaders":"{\"size\":5,\"mobile\":0,\"satellite\":0,\"tor\":0,\"tor_exit_nodes\":0,\"vpn\":0,\"relay\":0,\"proxy\":0,\"hosting\":1,\"service\":0}"},"geometry":{"type":"Point","coordinates":[36.3361,41.27976]}},{"type":"Feature","properties":{"country_code":"CHN","city":"Guangzhou","geoname_id":"1809858","downloaders":"{\"size\":11475,\"mobile\":112,\"satellite\":0,\"tor\":0,\"tor_exit_nodes\":0,\"vpn\":385,\"relay\":0,\"proxy\":0,\"hosting\":3263,\"service\":0}","uploaders":"{\"size\":61,\"mobile\":1,\"satellite\":0,\"tor\":0,\"tor_exit_nodes\":0,\"vpn\":0,\"relay\":0,\"proxy\":0,\"hosting\":38,\"service\":0}"},"geometry":{"type":"Point","coordinates":[113.25,23.11667]}},{"type":"Feature","properties":{"country_code":"CHL","city":"Santiago","geoname_id":"3871336","downloaders":"{\"size\":11427,\"mobile\":771,\"satellite\":79,\"tor\":0,\"tor_exit_nodes\":0,\"vpn\":492,\"relay\":0,\"proxy\":0,\"hosting\":1025,\"service\":462}","uploaders":"{\"size\":330,\"mobile\":16,\"satellite\":2,\"tor\":0,\"tor_exit_nodes\":0,\"vpn\":24,\"relay\":0,\"proxy\":0,\"hosting\":32,\"service\":24}"},"geometry":{"type":"Point","coordinates":[-70.64827,-33.45694]}},{"type":"Feature","properties":{"country_code":"USA","city":"Houston","geoname_id":"4699066","downloaders":"{\"size\":11416,\"mobile\":687,\"satellite\":0,\"tor\":0,\"tor_exit_nodes\":0,\"vpn\":4113,\"relay\":92,\"proxy\":1,\"hosting\":4593,\"service\":3836}","uploaders":"{\"size\":877,\"mobile\":14,\"satellite\":0,\"tor\":0,\"tor_exit_nodes\":0,\"vpn\":683,\"relay\":58,\"proxy\":0,\"hosting\":742,\"service\":692}"},"geometry":{"type":"Point","coordinates":[-95.36327,29.76328]}},{"type":"Feature","properties":{"country_code":"RUS","city":"Smolensk","geoname_id":"491687","downloaders":"{\"size\":11341,\"mobile\":0,\"satellite\":0,\"tor\":0,\"tor_exit_nodes\":0,\"vpn\":137,\"relay\":0,\"proxy\":0,\"hosting\":0,\"service\":5}","uploaders":"{\"size\":7,\"mobile\":0,\"satellite\":0,\"tor\":0,\"tor_exit_nodes\":0,\"vpn\":0,\"relay\":0,\"proxy\":0,\"hosting\":0,\"service\":0}"},"geometry":{"type":"Point","coordinates":[32.05088,54.77826]}},{"type":"Feature","properties":{"country_code":"ITA","city":"Naples","geoname_id":"3172394","downloaders":"{\"size\":11331,\"mobile\":486,\"satellite\":0,\"tor\":0,\"tor_exit_nodes\":0,\"vpn\":25,\"relay\":0,\"proxy\":0,\"hosting\":91,\"service\":0}","uploaders":"{\"size\":12,\"mobile\":0,\"satellite\":0,\"tor\":0,\"tor_exit_nodes\":0,\"vpn\":0,\"relay\":0,\"proxy\":0,\"hosting\":0,\"service\":0}"},"geometry":{"type":"Point","coordinates":[14.26811,40.85216]}},{"type":"Feature","properties":{"country_code":"EGY","city":"Cairo","geoname_id":"360630","downloaders":"{\"size\":11124,\"mobile\":977,\"satellite\":0,\"tor\":0,\"tor_exit_nodes\":0,\"vpn\":9,\"relay\":1,\"proxy\":0,\"hosting\":15,\"service\":6}","uploaders":"{\"size\":174,\"mobile\":3,\"satellite\":0,\"tor\":0,\"tor_exit_nodes\":0,\"vpn\":1,\"relay\":0,\"proxy\":0,\"hosting\":1,\"service\":1}"},"geometry":{"type":"Point","coordinates":[31.24967,30.06263]}},{"type":"Feature","properties":{"country_code":"GBR","city":"Manchester","geoname_id":"2643123","downloaders":"{\"size\":10815,\"mobile\":1274,\"satellite\":0,\"tor\":6,\"tor_exit_nodes\":0,\"vpn\":6026,\"relay\":1,\"proxy\":7,\"hosting\":5917,\"service\":5951}","uploaders":"{\"size\":1215,\"mobile\":45,\"satellite\":0,\"tor\":0,\"tor_exit_nodes\":0,\"vpn\":1057,\"relay\":0,\"proxy\":0,\"hosting\":1049,\"service\":1055}"},"geometry":{"type":"Point","coordinates":[-2.23743,53.48095]}},{"type":"Feature","properties":{"country_code":"SWE","city":"Göteborg","geoname_id":"2711537","downloaders":"{\"size\":10807,\"mobile\":326,\"satellite\":0,\"tor\":20,\"tor_exit_nodes\":0,\"vpn\":3403,\"relay\":1,\"proxy\":0,\"hosting\":2846,\"service\":3249}","uploaders":"{\"size\":305,\"mobile\":31,\"satellite\":0,\"tor\":0,\"tor_exit_nodes\":0,\"vpn\":214,\"relay\":0,\"proxy\":0,\"hosting\":184,\"service\":214}"},"geometry":{"type":"Point","coordinates":[11.96679,57.70716]}},{"type":"Feature","properties":{"country_code":"KOR","city":"Gwangju","geoname_id":"1841810","downloaders":"{\"size\":10755,\"mobile\":47,\"satellite\":0,\"tor\":0,\"tor_exit_nodes\":0,\"vpn\":88,\"relay\":0,\"proxy\":4,\"hosting\":24,\"service\":24}","uploaders":"{\"size\":3,\"mobile\":1,\"satellite\":0,\"tor\":0,\"tor_exit_nodes\":0,\"vpn\":0,\"relay\":0,\"proxy\":0,\"hosting\":0,\"service\":0}"},"geometry":{"type":"Point","coordinates":[127.25722,37.41]}},{"type":"Feature","properties":{"country_code":"UZB","city":"Tashkent","geoname_id":"1512569","downloaders":"{\"size\":10750,\"mobile\":333,\"satellite\":0,\"tor\":0,\"tor_exit_nodes\":0,\"vpn\":961,\"relay\":0,\"proxy\":6,\"hosting\":7265,\"service\":834}","uploaders":"{\"size\":31,\"mobile\":2,\"satellite\":0,\"tor\":0,\"tor_exit_nodes\":0,\"vpn\":8,\"relay\":0,\"proxy\":0,\"hosting\":29,\"service\":8}"},"geometry":{"type":"Point","coordinates":[69.21627,41.26465]}},{"type":"Feature","properties":{"country_code":"NLD","city":"Haarlem","geoname_id":"2755003","downloaders":"{\"size\":10709,\"mobile\":3,\"satellite\":0,\"tor\":0,\"tor_exit_nodes\":0,\"vpn\":9637,\"relay\":0,\"proxy\":1,\"hosting\":9943,\"service\":6}","uploaders":"{\"size\":41,\"mobile\":0,\"satellite\":0,\"tor\":0,\"tor_exit_nodes\":0,\"vpn\":35,\"relay\":0,\"proxy\":0,\"hosting\":32,\"service\":0}"},"geometry":{"type":"Point","coordinates":[4.63683,52.38084]}},{"type":"Feature","properties":{"country_code":"RUS","city":"Shchyolkovo","geoname_id":"495344","downloaders":"{\"size\":10588,\"mobile\":0,\"satellite\":0,\"tor\":0,\"tor_exit_nodes\":0,\"vpn\":239,\"relay\":0,\"proxy\":0,\"hosting\":31,\"service\":0}","uploaders":"{\"size\":4,\"mobile\":0,\"satellite\":0,\"tor\":0,\"tor_exit_nodes\":0,\"vpn\":0,\"relay\":0,\"proxy\":0,\"hosting\":0,\"service\":0}"},"geometry":{"type":"Point","coordinates":[37.97218,55.92497]}},{"type":"Feature","properties":{"country_code":"TWN","city":"Taichung","geoname_id":"1668399","downloaders":"{\"size\":10572,\"mobile\":190,\"satellite\":0,\"tor\":0,\"tor_exit_nodes\":0,\"vpn\":490,\"relay\":1,\"proxy\":0,\"hosting\":8,\"service\":32}","uploaders":"{\"size\":25,\"mobile\":0,\"satellite\":0,\"tor\":0,\"tor_exit_nodes\":0,\"vpn\":1,\"relay\":0,\"proxy\":0,\"hosting\":0,\"service\":0}"},"geometry":{"type":"Point","coordinates":[120.6839,24.1469]}},{"type":"Feature","properties":{"country_code":"RUS","city":"Tambov","geoname_id":"484646","downloaders":"{\"size\":10561,\"mobile\":219,\"satellite\":0,\"tor\":0,\"tor_exit_nodes\":0,\"vpn\":82,\"relay\":0,\"proxy\":0,\"hosting\":0,\"service\":0}","uploaders":"{\"size\":3,\"mobile\":0,\"satellite\":0,\"tor\":0,\"tor_exit_nodes\":0,\"vpn\":0,\"relay\":0,\"proxy\":0,\"hosting\":0,\"service\":0}"},"geometry":{"type":"Point","coordinates":[41.44102,52.73632]}},{"type":"Feature","properties":{"country_code":"CHN","city":"Xi’an","geoname_id":"1790630","downloaders":"{\"size\":10513,\"mobile\":916,\"satellite\":0,\"tor\":0,\"tor_exit_nodes\":0,\"vpn\":119,\"relay\":0,\"proxy\":2,\"hosting\":24,\"service\":0}","uploaders":"{\"size\":1207,\"mobile\":9,\"satellite\":0,\"tor\":0,\"tor_exit_nodes\":0,\"vpn\":1,\"relay\":0,\"proxy\":0,\"hosting\":0,\"service\":0}"},"geometry":{"type":"Point","coordinates":[108.92861,34.25833]}},{"type":"Feature","properties":{"country_code":"USA","city":"Santa Clara","geoname_id":"5393015","downloaders":"{\"size\":10483,\"mobile\":32,\"satellite\":0,\"tor\":0,\"tor_exit_nodes\":0,\"vpn\":7707,\"relay\":0,\"proxy\":4,\"hosting\":6243,\"service\":7015}","uploaders":"{\"size\":1249,\"mobile\":1,\"satellite\":0,\"tor\":0,\"tor_exit_nodes\":0,\"vpn\":1106,\"relay\":0,\"proxy\":0,\"hosting\":659,\"service\":1021}"},"geometry":{"type":"Point","coordinates":[-121.95524,37.35411]}},{"type":"Feature","properties":{"country_code":"FRA","city":"Lauterbourg","geoname_id":"3005948","downloaders":"{\"size\":10400,\"mobile\":0,\"satellite\":0,\"tor\":14,\"tor_exit_nodes\":0,\"vpn\":162,\"relay\":0,\"proxy\":58,\"hosting\":10160,\"service\":25}","uploaders":"{\"size\":75,\"mobile\":0,\"satellite\":0,\"tor\":0,\"tor_exit_nodes\":0,\"vpn\":0,\"relay\":0,\"proxy\":0,\"hosting\":73,\"service\":0}"},"geometry":{"type":"Point","coordinates":[8.17846,48.97515]}},{"type":"Feature","properties":{"country_code":"POL","city":"Kraków","geoname_id":"3094802","downloaders":"{\"size\":10387,\"mobile\":93,\"satellite\":0,\"tor\":0,\"tor_exit_nodes\":0,\"vpn\":109,\"relay\":0,\"proxy\":0,\"hosting\":64,\"service\":0}","uploaders":"{\"size\":83,\"mobile\":3,\"satellite\":0,\"tor\":0,\"tor_exit_nodes\":0,\"vpn\":0,\"relay\":0,\"proxy\":0,\"hosting\":5,\"service\":0}"},"geometry":{"type":"Point","coordinates":[19.93658,50.06143]}},{"type":"Feature","properties":{"country_code":"RUS","city":"Pushkino","geoname_id":"503977","downloaders":"{\"size\":10349,\"mobile\":3,\"satellite\":0,\"tor\":0,\"tor_exit_nodes\":0,\"vpn\":424,\"relay\":0,\"proxy\":0,\"hosting\":0,\"service\":8}","uploaders":"{\"size\":5,\"mobile\":0,\"satellite\":0,\"tor\":0,\"tor_exit_nodes\":0,\"vpn\":0,\"relay\":0,\"proxy\":0,\"hosting\":0,\"service\":0}"},"geometry":{"type":"Point","coordinates":[37.82897,55.99456]}},{"type":"Feature","properties":{"country_code":"UKR","city":"Lviv","geoname_id":"702550","downloaders":"{\"size\":10320,\"mobile\":85,\"satellite\":0,\"tor\":0,\"tor_exit_nodes\":0,\"vpn\":296,\"relay\":2,\"proxy\":0,\"hosting\":29,\"service\":111}","uploaders":"{\"size\":18,\"mobile\":0,\"satellite\":0,\"tor\":0,\"tor_exit_nodes\":0,\"vpn\":0,\"relay\":0,\"proxy\":0,\"hosting\":0,\"service\":0}"},"geometry":{"type":"Point","coordinates":[24.02324,49.83826]}},{"type":"Feature","properties":{"country_code":"SAU","city":"Riyadh","geoname_id":"108410","downloaders":"{\"size\":10245,\"mobile\":1656,\"satellite\":1,\"tor\":0,\"tor_exit_nodes\":0,\"vpn\":40,\"relay\":4,\"proxy\":0,\"hosting\":65,\"service\":10}","uploaders":"{\"size\":138,\"mobile\":27,\"satellite\":0,\"tor\":0,\"tor_exit_nodes\":0,\"vpn\":1,\"relay\":0,\"proxy\":0,\"hosting\":1,\"service\":1}"},"geometry":{"type":"Point","coordinates":[46.72185,24.68773]}},{"type":"Feature","properties":{"country_code":"TUR","city":"Diyarbakır","geoname_id":"316541","downloaders":"{\"size\":10211,\"mobile\":1303,\"satellite\":0,\"tor\":0,\"tor_exit_nodes\":0,\"vpn\":0,\"relay\":0,\"proxy\":0,\"hosting\":0,\"service\":0}","uploaders":"{\"size\":4,\"mobile\":1,\"satellite\":0,\"tor\":0,\"tor_exit_nodes\":0,\"vpn\":0,\"relay\":0,\"proxy\":0,\"hosting\":0,\"service\":0}"},"geometry":{"type":"Point","coordinates":[40.21721,37.91363]}},{"type":"Feature","properties":{"country_code":"PRT","city":"Porto","geoname_id":"2735943","downloaders":"{\"size\":10162,\"mobile\":585,\"satellite\":0,\"tor\":0,\"tor_exit_nodes\":0,\"vpn\":69,\"relay\":0,\"proxy\":0,\"hosting\":40,\"service\":30}","uploaders":"{\"size\":178,\"mobile\":0,\"satellite\":0,\"tor\":0,\"tor_exit_nodes\":0,\"vpn\":0,\"relay\":0,\"proxy\":0,\"hosting\":1,\"service\":0}"},"geometry":{"type":"Point","coordinates":[-8.61097,41.1485]}},{"type":"Feature","properties":{"country_code":"USA","city":"Leesburg","geoname_id":"4769125","downloaders":"{\"size\":10038,\"mobile\":0,\"satellite\":0,\"tor\":0,\"tor_exit_nodes\":0,\"vpn\":1931,\"relay\":0,\"proxy\":0,\"hosting\":9666,\"service\":1923}","uploaders":"{\"size\":647,\"mobile\":0,\"satellite\":0,\"tor\":0,\"tor_exit_nodes\":0,\"vpn\":274,\"relay\":0,\"proxy\":0,\"hosting\":646,\"service\":274}"},"geometry":{"type":"Point","coordinates":[-77.5636,39.11566]}},{"type":"Feature","properties":{"country_code":"MEX","city":"Monterrey","geoname_id":"3995465","downloaders":"{\"size\":9935,\"mobile\":44,\"satellite\":0,\"tor\":0,\"tor_exit_nodes\":0,\"vpn\":18,\"relay\":0,\"proxy\":0,\"hosting\":4,\"service\":2}","uploaders":"{\"size\":29,\"mobile\":0,\"satellite\":0,\"tor\":0,\"tor_exit_nodes\":0,\"vpn\":0,\"relay\":0,\"proxy\":0,\"hosting\":0,\"service\":0}"},"geometry":{"type":"Point","coordinates":[-100.31721,25.68435]}},{"type":"Feature","properties":{"country_code":"KAZ","city":"Almaty","geoname_id":"1526384","downloaders":"{\"size\":9912,\"mobile\":425,\"satellite\":39,\"tor\":0,\"tor_exit_nodes\":0,\"vpn\":175,\"relay\":0,\"proxy\":1,\"hosting\":1903,\"service\":4}","uploaders":"{\"size\":5,\"mobile\":0,\"satellite\":0,\"tor\":0,\"tor_exit_nodes\":0,\"vpn\":0,\"relay\":0,\"proxy\":0,\"hosting\":1,\"service\":0}"},"geometry":{"type":"Point","coordinates":[76.9115,43.25249]}},{"type":"Feature","properties":{"country_code":"KOR","city":"Chuncheon","geoname_id":"1845136","downloaders":"{\"size\":9769,\"mobile\":3,\"satellite\":0,\"tor\":0,\"tor_exit_nodes\":0,\"vpn\":16,\"relay\":0,\"proxy\":18,\"hosting\":2179,\"service\":3}","uploaders":"{\"size\":4,\"mobile\":0,\"satellite\":0,\"tor\":0,\"tor_exit_nodes\":0,\"vpn\":0,\"relay\":0,\"proxy\":0,\"hosting\":0,\"service\":0}"},"geometry":{"type":"Point","coordinates":[127.73417,37.87472]}},{"type":"Feature","properties":{"country_code":"POL","city":"Gdańsk","geoname_id":"3099434","downloaders":"{\"size\":9693,\"mobile\":41,\"satellite\":0,\"tor\":0,\"tor_exit_nodes\":0,\"vpn\":119,\"relay\":0,\"proxy\":11,\"hosting\":112,\"service\":69}","uploaders":"{\"size\":12,\"mobile\":1,\"satellite\":0,\"tor\":0,\"tor_exit_nodes\":0,\"vpn\":5,\"relay\":0,\"proxy\":0,\"hosting\":5,\"service\":5}"},"geometry":{"type":"Point","coordinates":[18.64912,54.35227]}},{"type":"Feature","properties":{"country_code":"RUS","city":"Podolsk","geoname_id":"508101","downloaders":"{\"size\":9240,\"mobile\":1,\"satellite\":0,\"tor\":0,\"tor_exit_nodes\":0,\"vpn\":275,\"relay\":0,\"proxy\":0,\"hosting\":1,\"service\":0}","uploaders":"{\"size\":3,\"mobile\":0,\"satellite\":0,\"tor\":0,\"tor_exit_nodes\":0,\"vpn\":1,\"relay\":0,\"proxy\":0,\"hosting\":0,\"service\":0}"},"geometry":{"type":"Point","coordinates":[37.55472,55.42419]}},{"type":"Feature","properties":{"country_code":"ZAF","city":"Johannesburg","geoname_id":"993800","downloaders":"{\"size\":9204,\"mobile\":392,\"satellite\":3,\"tor\":0,\"tor_exit_nodes\":0,\"vpn\":862,\"relay\":8,\"proxy\":3,\"hosting\":3185,\"service\":720}","uploaders":"{\"size\":476,\"mobile\":28,\"satellite\":0,\"tor\":0,\"tor_exit_nodes\":0,\"vpn\":65,\"relay\":0,\"proxy\":0,\"hosting\":173,\"service\":60}"},"geometry":{"type":"Point","coordinates":[28.04363,-26.20227]}},{"type":"Feature","properties":{"country_code":"CHN","city":"Changsha","geoname_id":"1815577","downloaders":"{\"size\":9124,\"mobile\":20,\"satellite\":0,\"tor\":0,\"tor_exit_nodes\":0,\"vpn\":319,\"relay\":0,\"proxy\":1,\"hosting\":0,\"service\":0}","uploaders":"{\"size\":37,\"mobile\":0,\"satellite\":0,\"tor\":0,\"tor_exit_nodes\":0,\"vpn\":0,\"relay\":0,\"proxy\":0,\"hosting\":0,\"service\":0}"},"geometry":{"type":"Point","coordinates":[112.97087,28.19874]}},{"type":"Feature","properties":{"country_code":"AUS","city":"Adelaide","geoname_id":"2078025","downloaders":"{\"size\":9104,\"mobile\":718,\"satellite\":0,\"tor\":3,\"tor_exit_nodes\":0,\"vpn\":1961,\"relay\":7,\"proxy\":0,\"hosting\":1836,\"service\":1824}","uploaders":"{\"size\":664,\"mobile\":63,\"satellite\":0,\"tor\":0,\"tor_exit_nodes\":0,\"vpn\":215,\"relay\":1,\"proxy\":0,\"hosting\":216,\"service\":216}"},"geometry":{"type":"Point","coordinates":[138.59863000000001,-34.92866]}},{"type":"Feature","properties":{"country_code":"LTU","city":"Kaunas","geoname_id":"598316","downloaders":"{\"size\":9090,\"mobile\":239,\"satellite\":0,\"tor\":0,\"tor_exit_nodes\":0,\"vpn\":88,\"relay\":0,\"proxy\":0,\"hosting\":1,\"service\":0}","uploaders":"{\"size\":12,\"mobile\":1,\"satellite\":0,\"tor\":0,\"tor_exit_nodes\":0,\"vpn\":0,\"relay\":0,\"proxy\":0,\"hosting\":0,\"service\":0}"},"geometry":{"type":"Point","coordinates":[23.90909,54.90156]}},{"type":"Feature","properties":{"country_code":"ESP","city":"Valencia","geoname_id":"2509954","downloaders":"{\"size\":9035,\"mobile\":106,\"satellite\":0,\"tor\":0,\"tor_exit_nodes\":0,\"vpn\":256,\"relay\":5,\"proxy\":0,\"hosting\":253,\"service\":191}","uploaders":"{\"size\":64,\"mobile\":0,\"satellite\":0,\"tor\":0,\"tor_exit_nodes\":0,\"vpn\":10,\"relay\":0,\"proxy\":0,\"hosting\":11,\"service\":10}"},"geometry":{"type":"Point","coordinates":[-0.37966,39.47391]}},{"type":"Feature","properties":{"country_code":"USA","city":"Salt Lake City","geoname_id":"5780993","downloaders":"{\"size\":8995,\"mobile\":30,\"satellite\":5,\"tor\":0,\"tor_exit_nodes\":0,\"vpn\":4848,\"relay\":50,\"proxy\":1,\"hosting\":5532,\"service\":4796}","uploaders":"{\"size\":1152,\"mobile\":4,\"satellite\":0,\"tor\":0,\"tor_exit_nodes\":0,\"vpn\":905,\"relay\":29,\"proxy\":0,\"hosting\":1018,\"service\":929}"},"geometry":{"type":"Point","coordinates":[-111.89105,40.76078]}},{"type":"Feature","properties":{"country_code":"COL","city":"Bogotá","geoname_id":"3688689","downloaders":"{\"size\":8914,\"mobile\":697,\"satellite\":88,\"tor\":0,\"tor_exit_nodes\":0,\"vpn\":856,\"relay\":0,\"proxy\":0,\"hosting\":912,\"service\":789}","uploaders":"{\"size\":197,\"mobile\":4,\"satellite\":10,\"tor\":0,\"tor_exit_nodes\":0,\"vpn\":120,\"relay\":0,\"proxy\":0,\"hosting\":115,\"service\":120}"},"geometry":{"type":"Point","coordinates":[-74.08175,4.60971]}},{"type":"Feature","properties":{"country_code":"RUS","city":"Novosineglazovskiy","geoname_id":"1496738","downloaders":"{\"size\":8798,\"mobile\":267,\"satellite\":0,\"tor\":0,\"tor_exit_nodes\":0,\"vpn\":71,\"relay\":0,\"proxy\":1,\"hosting\":0,\"service\":2}","uploaders":"{\"size\":3,\"mobile\":0,\"satellite\":0,\"tor\":0,\"tor_exit_nodes\":0,\"vpn\":0,\"relay\":0,\"proxy\":0,\"hosting\":0,\"service\":0}"},"geometry":{"type":"Point","coordinates":[61.3768,55.03928]}},{"type":"Feature","properties":{"country_code":"BGR","city":"Varna","geoname_id":"726050","downloaders":"{\"size\":8715,\"mobile\":443,\"satellite\":0,\"tor\":0,\"tor_exit_nodes\":0,\"vpn\":75,\"relay\":0,\"proxy\":0,\"hosting\":252,\"service\":0}","uploaders":"{\"size\":14,\"mobile\":1,\"satellite\":0,\"tor\":0,\"tor_exit_nodes\":0,\"vpn\":0,\"relay\":0,\"proxy\":0,\"hosting\":0,\"service\":0}"},"geometry":{"type":"Point","coordinates":[27.91024,43.21912]}},{"type":"Feature","properties":{"country_code":"MYS","city":"Kuala Lumpur","geoname_id":"1735161","downloaders":"{\"size\":8681,\"mobile\":1099,\"satellite\":13,\"tor\":0,\"tor_exit_nodes\":0,\"vpn\":773,\"relay\":0,\"proxy\":4,\"hosting\":923,\"service\":731}","uploaders":"{\"size\":263,\"mobile\":15,\"satellite\":0,\"tor\":0,\"tor_exit_nodes\":0,\"vpn\":118,\"relay\":0,\"proxy\":0,\"hosting\":121,\"service\":118}"},"geometry":{"type":"Point","coordinates":[101.68653,3.1412]}},{"type":"Feature","properties":{"country_code":"POL","city":"Łódź","geoname_id":"3093133","downloaders":"{\"size\":8628,\"mobile\":67,\"satellite\":0,\"tor\":0,\"tor_exit_nodes\":0,\"vpn\":65,\"relay\":0,\"proxy\":0,\"hosting\":129,\"service\":1}","uploaders":"{\"size\":14,\"mobile\":0,\"satellite\":0,\"tor\":0,\"tor_exit_nodes\":0,\"vpn\":0,\"relay\":0,\"proxy\":0,\"hosting\":0,\"service\":0}"},"geometry":{"type":"Point","coordinates":[19.47395,51.77058]}},{"type":"Feature","properties":{"country_code":"JPN","city":"Nagoya","geoname_id":"1856057","downloaders":"{\"size\":8530,\"mobile\":1611,\"satellite\":0,\"tor\":0,\"tor_exit_nodes\":0,\"vpn\":474,\"relay\":0,\"proxy\":0,\"hosting\":0,\"service\":337}","uploaders":"{\"size\":9,\"mobile\":1,\"satellite\":0,\"tor\":0,\"tor_exit_nodes\":0,\"vpn\":0,\"relay\":0,\"proxy\":0,\"hosting\":0,\"service\":0}"},"geometry":{"type":"Point","coordinates":[136.90641,35.18147]}},{"type":"Feature","properties":{"country_code":"USA","city":"Boston","geoname_id":"4930956","downloaders":"{\"size\":8525,\"mobile\":115,\"satellite\":1,\"tor\":0,\"tor_exit_nodes\":0,\"vpn\":7357,\"relay\":0,\"proxy\":0,\"hosting\":7460,\"service\":7345}","uploaders":"{\"size\":1150,\"mobile\":8,\"satellite\":0,\"tor\":0,\"tor_exit_nodes\":0,\"vpn\":1125,\"relay\":0,\"proxy\":0,\"hosting\":1125,\"service\":1125}"},"geometry":{"type":"Point","coordinates":[-71.05977,42.35843]}},{"type":"Feature","properties":{"country_code":"BEL","city":"Wortegem","geoname_id":"2783449","downloaders":"{\"size\":8473,\"mobile\":8,\"satellite\":0,\"tor\":0,\"tor_exit_nodes\":0,\"vpn\":41,\"relay\":0,\"proxy\":0,\"hosting\":0,\"service\":0}","uploaders":"{\"size\":46,\"mobile\":4,\"satellite\":0,\"tor\":0,\"tor_exit_nodes\":0,\"vpn\":0,\"relay\":0,\"proxy\":0,\"hosting\":0,\"service\":0}"},"geometry":{"type":"Point","coordinates":[3.51,50.85357]}},{"type":"Feature","properties":{"country_code":"ITA","city":"Turin","geoname_id":"3165524","downloaders":"{\"size\":8414,\"mobile\":182,\"satellite\":1,\"tor\":0,\"tor_exit_nodes\":0,\"vpn\":93,\"relay\":0,\"proxy\":0,\"hosting\":25,\"service\":0}","uploaders":"{\"size\":48,\"mobile\":8,\"satellite\":0,\"tor\":0,\"tor_exit_nodes\":0,\"vpn\":0,\"relay\":0,\"proxy\":0,\"hosting\":1,\"service\":0}"},"geometry":{"type":"Point","coordinates":[7.68682,45.07049]}},{"type":"Feature","properties":{"country_code":"SVK","city":"Bratislava","geoname_id":"3060972","downloaders":"{\"size\":8357,\"mobile\":17,\"satellite\":7,\"tor\":0,\"tor_exit_nodes\":0,\"vpn\":1671,\"relay\":0,\"proxy\":1,\"hosting\":1626,\"service\":1439}","uploaders":"{\"size\":153,\"mobile\":0,\"satellite\":0,\"tor\":0,\"tor_exit_nodes\":0,\"vpn\":97,\"relay\":0,\"proxy\":0,\"hosting\":97,\"service\":97}"},"geometry":{"type":"Point","coordinates":[17.10674,48.14816]}},{"type":"Feature","properties":{"country_code":"SAU","city":"Jeddah","geoname_id":"105343","downloaders":"{\"size\":8327,\"mobile\":1919,\"satellite\":1,\"tor\":0,\"tor_exit_nodes\":0,\"vpn\":15,\"relay\":0,\"proxy\":0,\"hosting\":37,\"service\":6}","uploaders":"{\"size\":89,\"mobile\":8,\"satellite\":0,\"tor\":0,\"tor_exit_nodes\":0,\"vpn\":0,\"relay\":0,\"proxy\":0,\"hosting\":1,\"service\":0}"},"geometry":{"type":"Point","coordinates":[39.18624,21.49012]}},{"type":"Feature","properties":{"country_code":"USA","city":"Kansas City","geoname_id":"4393217","downloaders":"{\"size\":8313,\"mobile\":243,\"satellite\":22,\"tor\":10,\"tor_exit_nodes\":0,\"vpn\":2170,\"relay\":0,\"proxy\":6,\"hosting\":3782,\"service\":2022}","uploaders":"{\"size\":619,\"mobile\":20,\"satellite\":0,\"tor\":1,\"tor_exit_nodes\":0,\"vpn\":345,\"relay\":0,\"proxy\":0,\"hosting\":440,\"service\":331}"},"geometry":{"type":"Point","coordinates":[-94.57857,39.09973]}},{"type":"Feature","properties":{"country_code":"ISR","city":"Jerusalem","geoname_id":"281184","downloaders":"{\"size\":8306,\"mobile\":185,\"satellite\":0,\"tor\":3,\"tor_exit_nodes\":0,\"vpn\":158,\"relay\":0,\"proxy\":0,\"hosting\":356,\"service\":0}","uploaders":"{\"size\":652,\"mobile\":30,\"satellite\":0,\"tor\":0,\"tor_exit_nodes\":0,\"vpn\":19,\"relay\":0,\"proxy\":0,\"hosting\":8,\"service\":0}"},"geometry":{"type":"Point","coordinates":[35.21633,31.76904]}},