{"type":"FeatureCollection","id":"American Revolution","swarm_features":113,"features":[{"type":"Feature","properties":{"country_code":"KOR","city":"Seoul","geoname_id":"1835848","downloaders":"{\"size\":247985,\"mobile\":968,\"satellite\":0,\"tor\":0,\"tor_exit_nodes\":0,\"vpn\":6170,\"relay\":0,\"proxy\":36,\"hosting\":2183,\"service\":1172}","uploaders":"{\"size\":227,\"mobile\":0,\"satellite\":0,\"tor\":0,\"tor_exit_nodes\":0,\"vpn\":62,\"relay\":0,\"proxy\":0,\"hosting\":64,\"service\":61}"},"geometry":{"type":"Point","coordinates":[126.9784,37.566]}},{"type":"Feature","properties":{"country_code":"RUS","city":"Moscow","geoname_id":"524901","downloaders":"{\"size\":171301,\"mobile\":8275,\"satellite\":0,\"tor\":0,\"tor_exit_nodes\":0,\"vpn\":7486,\"relay\":0,\"proxy\":157,\"hosting\":11638,\"service\":1079}","uploaders":"{\"size\":292,\"mobile\":9,\"satellite\":0,\"tor\":0,\"tor_exit_nodes\":0,\"vpn\":1,\"relay\":0,\"proxy\":0,\"hosting\":210,\"service\":0}"},"geometry":{"type":"Point","coordinates":[37.61781,55.75204]}},{"type":"Feature","properties":{"country_code":"CHN","city":"Shanghai","geoname_id":"1796236","downloaders":"{\"size\":144106,\"mobile\":333,\"satellite\":0,\"tor\":0,\"tor_exit_nodes\":0,\"vpn\":4113,\"relay\":0,\"proxy\":0,\"hosting\":18342,\"service\":4}","uploaders":"{\"size\":1038,\"mobile\":1,\"satellite\":0,\"tor\":0,\"tor_exit_nodes\":0,\"vpn\":12,\"relay\":0,\"proxy\":0,\"hosting\":66,\"service\":0}"},"geometry":{"type":"Point","coordinates":[121.45806,31.22222]}},{"type":"Feature","properties":{"country_code":"NLD","city":"Amsterdam","geoname_id":"2759794","downloaders":"{\"size\":130158,\"mobile\":123,\"satellite\":4,\"tor\":0,\"tor_exit_nodes\":11,\"vpn\":43948,\"relay\":0,\"proxy\":592,\"hosting\":118965,\"service\":25241}","uploaders":"{\"size\":5205,\"mobile\":10,\"satellite\":0,\"tor\":0,\"tor_exit_nodes\":3,\"vpn\":3131,\"relay\":0,\"proxy\":177,\"hosting\":4627,\"service\":2832}"},"geometry":{"type":"Point","coordinates":[4.88969,52.37403]}},{"type":"Feature","properties":{"country_code":"TUR","city":"Istanbul","geoname_id":"745044","downloaders":"{\"size\":96426,\"mobile\":8602,\"satellite\":0,\"tor\":0,\"tor_exit_nodes\":0,\"vpn\":284,\"relay\":0,\"proxy\":0,\"hosting\":376,\"service\":247}","uploaders":"{\"size\":195,\"mobile\":21,\"satellite\":0,\"tor\":0,\"tor_exit_nodes\":0,\"vpn\":23,\"relay\":0,\"proxy\":0,\"hosting\":24,\"service\":23}"},"geometry":{"type":"Point","coordinates":[28.94966,41.01384]}},{"type":"Feature","properties":{"country_code":"RUS","city":"Saint Petersburg","geoname_id":"498817","downloaders":"{\"size\":94802,\"mobile\":5284,\"satellite\":0,\"tor\":0,\"tor_exit_nodes\":0,\"vpn\":929,\"relay\":0,\"proxy\":19,\"hosting\":2736,\"service\":268}","uploaders":"{\"size\":67,\"mobile\":0,\"satellite\":0,\"tor\":0,\"tor_exit_nodes\":0,\"vpn\":2,\"relay\":0,\"proxy\":0,\"hosting\":19,\"service\":2}"},"geometry":{"type":"Point","coordinates":[30.31413,59.93863]}},{"type":"Feature","properties":{"country_code":"USA","city":"Ashburn","geoname_id":"4744870","downloaders":"{\"size\":92483,\"mobile\":88,\"satellite\":48,\"tor\":0,\"tor_exit_nodes\":0,\"vpn\":6939,\"relay\":6,\"proxy\":31,\"hosting\":91900,\"service\":6805}","uploaders":"{\"size\":31616,\"mobile\":17,\"satellite\":6,\"tor\":0,\"tor_exit_nodes\":0,\"vpn\":1145,\"relay\":1,\"proxy\":0,\"hosting\":31562,\"service\":1118}"},"geometry":{"type":"Point","coordinates":[-77.48749,39.04372]}},{"type":"Feature","properties":{"country_code":"CHN","city":"Nanjing","geoname_id":"1799962","downloaders":"{\"size\":89233,\"mobile\":0,\"satellite\":0,\"tor\":0,\"tor_exit_nodes\":0,\"vpn\":1014,\"relay\":0,\"proxy\":0,\"hosting\":252,\"service\":0}","uploaders":"{\"size\":258,\"mobile\":0,\"satellite\":0,\"tor\":0,\"tor_exit_nodes\":0,\"vpn\":3,\"relay\":0,\"proxy\":0,\"hosting\":3,\"service\":0}"},"geometry":{"type":"Point","coordinates":[118.77778,32.06167]}},{"type":"Feature","properties":{"country_code":"USA","city":"New York City","geoname_id":"5128581","downloaders":"{\"size\":55103,\"mobile\":1005,\"satellite\":266,\"tor\":0,\"tor_exit_nodes\":0,\"vpn\":42008,\"relay\":4,\"proxy\":5,\"hosting\":40584,\"service\":40641}","uploaders":"{\"size\":6334,\"mobile\":63,\"satellite\":91,\"tor\":0,\"tor_exit_nodes\":0,\"vpn\":5596,\"relay\":0,\"proxy\":0,\"hosting\":5320,\"service\":5414}"},"geometry":{"type":"Point","coordinates":[-74.00597,40.71427]}},{"type":"Feature","properties":{"country_code":"HUN","city":"Budapest","geoname_id":"3054643","downloaders":"{\"size\":52954,\"mobile\":2302,\"satellite\":3,\"tor\":0,\"tor_exit_nodes\":3,\"vpn\":2077,\"relay\":0,\"proxy\":3,\"hosting\":1867,\"service\":773}","uploaders":"{\"size\":137,\"mobile\":2,\"satellite\":0,\"tor\":0,\"tor_exit_nodes\":0,\"vpn\":27,\"relay\":0,\"proxy\":0,\"hosting\":31,\"service\":26}"},"geometry":{"type":"Point","coordinates":[19.04045,47.49835]}},{"type":"Feature","properties":{"country_code":"GBR","city":"London","geoname_id":"2643743","downloaders":"{\"size\":50102,\"mobile\":2358,\"satellite\":71,\"tor\":0,\"tor_exit_nodes\":0,\"vpn\":16768,\"relay\":6,\"proxy\":100,\"hosting\":16454,\"service\":15102}","uploaders":"{\"size\":3441,\"mobile\":247,\"satellite\":21,\"tor\":0,\"tor_exit_nodes\":0,\"vpn\":1931,\"relay\":0,\"proxy\":21,\"hosting\":1600,\"service\":1759}"},"geometry":{"type":"Point","coordinates":[-0.12574,51.50853]}},{"type":"Feature","properties":{"country_code":"KOR","city":"Incheon","geoname_id":"1843564","downloaders":"{\"size\":46576,\"mobile\":141,\"satellite\":0,\"tor\":0,\"tor_exit_nodes\":0,\"vpn\":612,\"relay\":0,\"proxy\":7,\"hosting\":112,\"service\":101}","uploaders":"{\"size\":10,\"mobile\":0,\"satellite\":0,\"tor\":0,\"tor_exit_nodes\":0,\"vpn\":0,\"relay\":0,\"proxy\":0,\"hosting\":1,\"service\":0}"},"geometry":{"type":"Point","coordinates":[126.70515,37.45646]}},{"type":"Feature","properties":{"country_code":"CHN","city":"Hangzhou","geoname_id":"1808926","downloaders":"{\"size\":45519,\"mobile\":0,\"satellite\":0,\"tor\":0,\"tor_exit_nodes\":0,\"vpn\":443,\"relay\":0,\"proxy\":0,\"hosting\":1873,\"service\":0}","uploaders":"{\"size\":95,\"mobile\":0,\"satellite\":0,\"tor\":0,\"tor_exit_nodes\":0,\"vpn\":12,\"relay\":0,\"proxy\":0,\"hosting\":51,\"service\":0}"},"geometry":{"type":"Point","coordinates":[120.16142,30.29365]}},{"type":"Feature","properties":{"country_code":"CHN","city":"Shenzhen","geoname_id":"1795565","downloaders":"{\"size\":43633,\"mobile\":24,\"satellite\":0,\"tor\":0,\"tor_exit_nodes\":0,\"vpn\":1762,\"relay\":0,\"proxy\":0,\"hosting\":585,\"service\":0}","uploaders":"{\"size\":389,\"mobile\":0,\"satellite\":0,\"tor\":0,\"tor_exit_nodes\":0,\"vpn\":9,\"relay\":0,\"proxy\":0,\"hosting\":22,\"service\":0}"},"geometry":{"type":"Point","coordinates":[114.0683,22.54554]}},{"type":"Feature","properties":{"country_code":"RUS","city":"Yekaterinburg","geoname_id":"1486209","downloaders":"{\"size\":43409,\"mobile\":3725,\"satellite\":0,\"tor\":0,\"tor_exit_nodes\":0,\"vpn\":1606,\"relay\":0,\"proxy\":3,\"hosting\":74,\"service\":106}","uploaders":"{\"size\":10,\"mobile\":0,\"satellite\":0,\"tor\":0,\"tor_exit_nodes\":0,\"vpn\":1,\"relay\":0,\"proxy\":0,\"hosting\":0,\"service\":0}"},"geometry":{"type":"Point","coordinates":[60.61529,56.85733]}},{"type":"Feature","properties":{"country_code":"POL","city":"Warsaw","geoname_id":"756135","downloaders":"{\"size\":41442,\"mobile\":3502,\"satellite\":28,\"tor\":0,\"tor_exit_nodes\":0,\"vpn\":1961,\"relay\":0,\"proxy\":7,\"hosting\":2712,\"service\":1591}","uploaders":"{\"size\":227,\"mobile\":7,\"satellite\":2,\"tor\":0,\"tor_exit_nodes\":0,\"vpn\":77,\"relay\":0,\"proxy\":0,\"hosting\":90,\"service\":76}"},"geometry":{"type":"Point","coordinates":[21.01178,52.22977]}},{"type":"Feature","properties":{"country_code":"CAN","city":"Toronto","geoname_id":"6167865","downloaders":"{\"size\":40773,\"mobile\":2646,\"satellite\":119,\"tor\":46,\"tor_exit_nodes\":237,\"vpn\":26324,\"relay\":1,\"proxy\":57,\"hosting\":27242,\"service\":25118}","uploaders":"{\"size\":6190,\"mobile\":217,\"satellite\":20,\"tor\":8,\"tor_exit_nodes\":63,\"vpn\":5034,\"relay\":0,\"proxy\":13,\"hosting\":5145,\"service\":4776}"},"geometry":{"type":"Point","coordinates":[-79.39864,43.70643]}},{"type":"Feature","properties":{"country_code":"RUS","city":"Novosibirsk","geoname_id":"1496747","downloaders":"{\"size\":38284,\"mobile\":3350,\"satellite\":0,\"tor\":0,\"tor_exit_nodes\":0,\"vpn\":528,\"relay\":0,\"proxy\":22,\"hosting\":144,\"service\":55}","uploaders":"{\"size\":17,\"mobile\":1,\"satellite\":0,\"tor\":0,\"tor_exit_nodes\":0,\"vpn\":0,\"relay\":0,\"proxy\":0,\"hosting\":7,\"service\":0}"},"geometry":{"type":"Point","coordinates":[82.93175,55.02259]}},{"type":"Feature","properties":{"country_code":"FRA","city":"Paris","geoname_id":"2988507","downloaders":"{\"size\":36692,\"mobile\":4343,\"satellite\":49,\"tor\":0,\"tor_exit_nodes\":2,\"vpn\":9841,\"relay\":0,\"proxy\":29,\"hosting\":17614,\"service\":7965}","uploaders":"{\"size\":653,\"mobile\":53,\"satellite\":2,\"tor\":0,\"tor_exit_nodes\":0,\"vpn\":429,\"relay\":0,\"proxy\":0,\"hosting\":417,\"service\":405}"},"geometry":{"type":"Point","coordinates":[2.3488,48.85341]}},{"type":"Feature","properties":{"country_code":"KOR","city":"Busan","geoname_id":"1838524","downloaders":"{\"size\":29338,\"mobile\":238,\"satellite\":0,\"tor\":0,\"tor_exit_nodes\":0,\"vpn\":196,\"relay\":0,\"proxy\":2,\"hosting\":1,\"service\":27}","uploaders":"{\"size\":9,\"mobile\":0,\"satellite\":0,\"tor\":0,\"tor_exit_nodes\":0,\"vpn\":0,\"relay\":0,\"proxy\":0,\"hosting\":0,\"service\":0}"},"geometry":{"type":"Point","coordinates":[129.03004,35.10168]}},{"type":"Feature","properties":{"country_code":"BGR","city":"Sofia","geoname_id":"727011","downloaders":"{\"size\":28911,\"mobile\":4425,\"satellite\":19,\"tor\":0,\"tor_exit_nodes\":0,\"vpn\":2410,\"relay\":0,\"proxy\":1,\"hosting\":2918,\"service\":1551}","uploaders":"{\"size\":251,\"mobile\":44,\"satellite\":0,\"tor\":0,\"tor_exit_nodes\":0,\"vpn\":129,\"relay\":0,\"proxy\":0,\"hosting\":132,\"service\":129}"},"geometry":{"type":"Point","coordinates":[23.32415,42.69751]}},{"type":"Feature","properties":{"country_code":"RUS","city":"Nizhniy Novgorod","geoname_id":"520555","downloaders":"{\"size\":28525,\"mobile\":6304,\"satellite\":0,\"tor\":0,\"tor_exit_nodes\":0,\"vpn\":401,\"relay\":0,\"proxy\":2,\"hosting\":21,\"service\":25}","uploaders":"{\"size\":5,\"mobile\":0,\"satellite\":0,\"tor\":0,\"tor_exit_nodes\":0,\"vpn\":0,\"relay\":0,\"proxy\":0,\"hosting\":0,\"service\":0}"},"geometry":{"type":"Point","coordinates":[44.00205,56.32867]}},{"type":"Feature","properties":{"country_code":"USA","city":"Los Angeles","geoname_id":"5368361","downloaders":"{\"size\":28110,\"mobile\":442,\"satellite\":12,\"tor\":0,\"tor_exit_nodes\":0,\"vpn\":20400,\"relay\":0,\"proxy\":37,\"hosting\":21553,\"service\":18845}","uploaders":"{\"size\":3810,\"mobile\":33,\"satellite\":0,\"tor\":0,\"tor_exit_nodes\":0,\"vpn\":3192,\"relay\":0,\"proxy\":1,\"hosting\":3152,\"service\":2952}"},"geometry":{"type":"Point","coordinates":[-118.2646,34.0766]}},{"type":"Feature","properties":{"country_code":"TUR","city":"Ankara","geoname_id":"323786","downloaders":"{\"size\":27809,\"mobile\":1539,\"satellite\":0,\"tor\":0,\"tor_exit_nodes\":0,\"vpn\":8,\"relay\":0,\"proxy\":0,\"hosting\":6,\"service\":0}","uploaders":"{\"size\":29,\"mobile\":1,\"satellite\":0,\"tor\":0,\"tor_exit_nodes\":0,\"vpn\":0,\"relay\":0,\"proxy\":0,\"hosting\":0,\"service\":0}"},"geometry":{"type":"Point","coordinates":[32.85427,39.91987]}},{"type":"Feature","properties":{"country_code":"CAN","city":"Montréal","geoname_id":"6077243","downloaders":"{\"size\":26775,\"mobile\":1351,\"satellite\":7,\"tor\":0,\"tor_exit_nodes\":24,\"vpn\":14382,\"relay\":1,\"proxy\":633,\"hosting\":12313,\"service\":13786}","uploaders":"{\"size\":2670,\"mobile\":40,\"satellite\":0,\"tor\":0,\"tor_exit_nodes\":2,\"vpn\":2201,\"relay\":0,\"proxy\":201,\"hosting\":1696,\"service\":2128}"},"geometry":{"type":"Point","coordinates":[-73.58781,45.50884]}},{"type":"Feature","properties":{"country_code":"USA","city":"Chicago","geoname_id":"4887398","downloaders":"{\"size\":26145,\"mobile\":744,\"satellite\":86,\"tor\":0,\"tor_exit_nodes\":0,\"vpn\":22232,\"relay\":8,\"proxy\":4,\"hosting\":20495,\"service\":18781}","uploaders":"{\"size\":3345,\"mobile\":111,\"satellite\":7,\"tor\":0,\"tor_exit_nodes\":0,\"vpn\":3067,\"relay\":0,\"proxy\":0,\"hosting\":2725,\"service\":2669}"},"geometry":{"type":"Point","coordinates":[-87.65005,41.85003]}},{"type":"Feature","properties":{"country_code":"ESP","city":"Madrid","geoname_id":"3117735","downloaders":"{\"size\":25047,\"mobile\":8120,\"satellite\":84,\"tor\":0,\"tor_exit_nodes\":0,\"vpn\":4062,\"relay\":0,\"proxy\":3,\"hosting\":4315,\"service\":3844}","uploaders":"{\"size\":840,\"mobile\":202,\"satellite\":11,\"tor\":0,\"tor_exit_nodes\":0,\"vpn\":433,\"relay\":0,\"proxy\":0,\"hosting\":518,\"service\":432}"},"geometry":{"type":"Point","coordinates":[-3.70256,40.4165]}},{"type":"Feature","properties":{"country_code":"KOR","city":"Daegu","geoname_id":"1835329","downloaders":"{\"size\":25008,\"mobile\":56,\"satellite\":0,\"tor\":0,\"tor_exit_nodes\":0,\"vpn\":237,\"relay\":0,\"proxy\":3,\"hosting\":408,\"service\":37}","uploaders":"{\"size\":17,\"mobile\":0,\"satellite\":0,\"tor\":0,\"tor_exit_nodes\":0,\"vpn\":0,\"relay\":0,\"proxy\":0,\"hosting\":0,\"service\":0}"},"geometry":{"type":"Point","coordinates":[128.59111,35.87028]}},{"type":"Feature","properties":{"country_code":"RUS","city":"Krasnodar","geoname_id":"542420","downloaders":"{\"size\":22922,\"mobile\":4276,\"satellite\":0,\"tor\":0,\"tor_exit_nodes\":0,\"vpn\":149,\"relay\":0,\"proxy\":1,\"hosting\":44,\"service\":4}","uploaders":"{\"size\":8,\"mobile\":0,\"satellite\":0,\"tor\":0,\"tor_exit_nodes\":0,\"vpn\":0,\"relay\":0,\"proxy\":0,\"hosting\":0,\"service\":0}"},"geometry":{"type":"Point","coordinates":[38.98178,45.04534]}},{"type":"Feature","properties":{"country_code":"AUS","city":"Sydney","geoname_id":"2147714","downloaders":"{\"size\":21452,\"mobile\":702,\"satellite\":140,\"tor\":1,\"tor_exit_nodes\":0,\"vpn\":6656,\"relay\":20,\"proxy\":8,\"hosting\":9242,\"service\":6130}","uploaders":"{\"size\":2088,\"mobile\":78,\"satellite\":27,\"tor\":0,\"tor_exit_nodes\":0,\"vpn\":917,\"relay\":2,\"proxy\":0,\"hosting\":990,\"service\":893}"},"geometry":{"type":"Point","coordinates":[151.1935,-33.926]}},{"type":"Feature","properties":{"country_code":"RUS","city":"Voronezh","geoname_id":"472045","downloaders":"{\"size\":21305,\"mobile\":78,\"satellite\":0,\"tor\":0,\"tor_exit_nodes\":0,\"vpn\":230,\"relay\":0,\"proxy\":1,\"hosting\":381,\"service\":0}","uploaders":"{\"size\":16,\"mobile\":0,\"satellite\":0,\"tor\":0,\"tor_exit_nodes\":0,\"vpn\":13,\"relay\":0,\"proxy\":0,\"hosting\":0,\"service\":0}"},"geometry":{"type":"Point","coordinates":[39.19204,51.66833]}},{"type":"Feature","properties":{"country_code":"DEU","city":"Frankfurt am Main","geoname_id":"2925533","downloaders":"{\"size\":20864,\"mobile\":350,\"satellite\":0,\"tor\":0,\"tor_exit_nodes\":70,\"vpn\":8619,\"relay\":0,\"proxy\":23,\"hosting\":18081,\"service\":7877}","uploaders":"{\"size\":921,\"mobile\":0,\"satellite\":0,\"tor\":0,\"tor_exit_nodes\":0,\"vpn\":699,\"relay\":0,\"proxy\":0,\"hosting\":844,\"service\":676}"},"geometry":{"type":"Point","coordinates":[8.68417,50.11552]}},{"type":"Feature","properties":{"country_code":"RUS","city":"Khimki","geoname_id":"550280","downloaders":"{\"size\":20126,\"mobile\":18,\"satellite\":1,\"tor\":0,\"tor_exit_nodes\":0,\"vpn\":1468,\"relay\":0,\"proxy\":27,\"hosting\":8760,\"service\":378}","uploaders":"{\"size\":3,\"mobile\":0,\"satellite\":0,\"tor\":0,\"tor_exit_nodes\":0,\"vpn\":1,\"relay\":0,\"proxy\":0,\"hosting\":1,\"service\":0}"},"geometry":{"type":"Point","coordinates":[37.42848,55.9001]}},{"type":"Feature","properties":{"country_code":"KOR","city":"Suwon","geoname_id":"1835553","downloaders":"{\"size\":19917,\"mobile\":18,\"satellite\":0,\"tor\":0,\"tor_exit_nodes\":0,\"vpn\":238,\"relay\":0,\"proxy\":5,\"hosting\":0,\"service\":8}","uploaders":"{\"size\":5,\"mobile\":0,\"satellite\":0,\"tor\":0,\"tor_exit_nodes\":0,\"vpn\":0,\"relay\":0,\"proxy\":0,\"hosting\":0,\"service\":0}"},"geometry":{"type":"Point","coordinates":[127.00889,37.29111]}},{"type":"Feature","properties":{"country_code":"NLD","city":"Lelystad","geoname_id":"2751738","downloaders":"{\"size\":19886,\"mobile\":18,\"satellite\":0,\"tor\":26,\"tor_exit_nodes\":29,\"vpn\":2928,\"relay\":0,\"proxy\":20,\"hosting\":19166,\"service\":793}","uploaders":"{\"size\":467,\"mobile\":1,\"satellite\":0,\"tor\":1,\"tor_exit_nodes\":1,\"vpn\":61,\"relay\":0,\"proxy\":0,\"hosting\":445,\"service\":57}"},"geometry":{"type":"Point","coordinates":[5.475,52.50833]}},{"type":"Feature","properties":{"country_code":"RUS","city":"Rostov-na-Donu","geoname_id":"501175","downloaders":"{\"size\":19090,\"mobile\":1012,\"satellite\":0,\"tor\":0,\"tor_exit_nodes\":0,\"vpn\":138,\"relay\":0,\"proxy\":1,\"hosting\":442,\"service\":81}","uploaders":"{\"size\":8,\"mobile\":0,\"satellite\":0,\"tor\":0,\"tor_exit_nodes\":0,\"vpn\":0,\"relay\":0,\"proxy\":0,\"hosting\":0,\"service\":0}"},"geometry":{"type":"Point","coordinates":[39.70769,47.219970000000007]}},{"type":"Feature","properties":{"country_code":"FIN","city":"Helsinki","geoname_id":"658225","downloaders":"{\"size\":19015,\"mobile\":264,\"satellite\":2,\"tor\":0,\"tor_exit_nodes\":0,\"vpn\":2721,\"relay\":0,\"proxy\":10,\"hosting\":16672,\"service\":1665}","uploaders":"{\"size\":211,\"mobile\":21,\"satellite\":0,\"tor\":0,\"tor_exit_nodes\":0,\"vpn\":141,\"relay\":0,\"proxy\":1,\"hosting\":164,\"service\":107}"},"geometry":{"type":"Point","coordinates":[24.93545,60.16952]}},{"type":"Feature","properties":{"country_code":"RUS","city":"Perm","geoname_id":"511196","downloaders":"{\"size\":18085,\"mobile\":890,\"satellite\":0,\"tor\":0,\"tor_exit_nodes\":0,\"vpn\":170,\"relay\":0,\"proxy\":3,\"hosting\":0,\"service\":2}","uploaders":"{\"size\":14,\"mobile\":1,\"satellite\":0,\"tor\":0,\"tor_exit_nodes\":0,\"vpn\":0,\"relay\":0,\"proxy\":0,\"hosting\":0,\"service\":0}"},"geometry":{"type":"Point","coordinates":[56.25017,58.01046]}},{"type":"Feature","properties":{"country_code":"AUS","city":"Melbourne","geoname_id":"2158177","downloaders":"{\"size\":17888,\"mobile\":794,\"satellite\":128,\"tor\":0,\"tor_exit_nodes\":0,\"vpn\":4870,\"relay\":0,\"proxy\":6,\"hosting\":5270,\"service\":4237}","uploaders":"{\"size\":2028,\"mobile\":84,\"satellite\":0,\"tor\":0,\"tor_exit_nodes\":0,\"vpn\":589,\"relay\":0,\"proxy\":6,\"hosting\":658,\"service\":562}"},"geometry":{"type":"Point","coordinates":[144.96332,-37.814]}},{"type":"Feature","properties":{"country_code":"HKG","city":"Hong Kong","geoname_id":"1819729","downloaders":"{\"size\":17672,\"mobile\":186,\"satellite\":0,\"tor\":0,\"tor_exit_nodes\":0,\"vpn\":3391,\"relay\":0,\"proxy\":3,\"hosting\":5501,\"service\":2769}","uploaders":"{\"size\":582,\"mobile\":10,\"satellite\":0,\"tor\":0,\"tor_exit_nodes\":0,\"vpn\":313,\"relay\":0,\"proxy\":0,\"hosting\":384,\"service\":310}"},"geometry":{"type":"Point","coordinates":[114.17469,22.27832]}},{"type":"Feature","properties":{"country_code":"TUR","city":"İzmir","geoname_id":"311046","downloaders":"{\"size\":17563,\"mobile\":3298,\"satellite\":0,\"tor\":0,\"tor_exit_nodes\":0,\"vpn\":2,\"relay\":0,\"proxy\":0,\"hosting\":2,\"service\":0}","uploaders":"{\"size\":38,\"mobile\":9,\"satellite\":0,\"tor\":0,\"tor_exit_nodes\":0,\"vpn\":0,\"relay\":0,\"proxy\":0,\"hosting\":0,\"service\":0}"},"geometry":{"type":"Point","coordinates":[27.13838,38.41273]}},{"type":"Feature","properties":{"country_code":"BRA","city":"São Paulo","geoname_id":"3448439","downloaders":"{\"size\":17557,\"mobile\":2707,\"satellite\":187,\"tor\":0,\"tor_exit_nodes\":0,\"vpn\":1336,\"relay\":0,\"proxy\":12,\"hosting\":2443,\"service\":1189}","uploaders":"{\"size\":386,\"mobile\":67,\"satellite\":35,\"tor\":0,\"tor_exit_nodes\":0,\"vpn\":161,\"relay\":0,\"proxy\":0,\"hosting\":190,\"service\":153}"},"geometry":{"type":"Point","coordinates":[-46.63611,-23.5475]}},{"type":"Feature","properties":{"country_code":"MEX","city":"Mexico City","geoname_id":"3530597","downloaders":"{\"size\":17410,\"mobile\":32,\"satellite\":105,\"tor\":0,\"tor_exit_nodes\":0,\"vpn\":136,\"relay\":0,\"proxy\":0,\"hosting\":88,\"service\":118}","uploaders":"{\"size\":146,\"mobile\":0,\"satellite\":10,\"tor\":0,\"tor_exit_nodes\":0,\"vpn\":22,\"relay\":0,\"proxy\":0,\"hosting\":11,\"service\":19}"},"geometry":{"type":"Point","coordinates":[-99.12766,19.42847]}},{"type":"Feature","properties":{"country_code":"KOR","city":"Goyang-si","geoname_id":"1842485","downloaders":"{\"size\":17307,\"mobile\":209,\"satellite\":0,\"tor\":0,\"tor_exit_nodes\":0,\"vpn\":317,\"relay\":0,\"proxy\":14,\"hosting\":0,\"service\":20}","uploaders":"{\"size\":5,\"mobile\":0,\"satellite\":0,\"tor\":0,\"tor_exit_nodes\":0,\"vpn\":0,\"relay\":0,\"proxy\":0,\"hosting\":0,\"service\":0}"},"geometry":{"type":"Point","coordinates":[126.835,37.65639]}},{"type":"Feature","properties":{"country_code":"SWE","city":"Stockholm","geoname_id":"2673730","downloaders":"{\"size\":17273,\"mobile\":799,\"satellite\":4,\"tor\":32,\"tor_exit_nodes\":7,\"vpn\":9757,\"relay\":0,\"proxy\":20,\"hosting\":7228,\"service\":8737}","uploaders":"{\"size\":1258,\"mobile\":76,\"satellite\":1,\"tor\":1,\"tor_exit_nodes\":0,\"vpn\":1014,\"relay\":0,\"proxy\":0,\"hosting\":780,\"service\":933}"},"geometry":{"type":"Point","coordinates":[18.06871,59.32938]}},{"type":"Feature","properties":{"country_code":"BEL","city":"Brussels","geoname_id":"2800866","downloaders":"{\"size\":17252,\"mobile\":167,\"satellite\":13,\"tor\":0,\"tor_exit_nodes\":7,\"vpn\":1974,\"relay\":0,\"proxy\":0,\"hosting\":1621,\"service\":1883}","uploaders":"{\"size\":585,\"mobile\":35,\"satellite\":1,\"tor\":0,\"tor_exit_nodes\":0,\"vpn\":266,\"relay\":0,\"proxy\":0,\"hosting\":230,\"service\":266}"},"geometry":{"type":"Point","coordinates":[4.34878,50.85045]}},{"type":"Feature","properties":{"country_code":"USA","city":"Miami","geoname_id":"4164138","downloaders":"{\"size\":17249,\"mobile\":212,\"satellite\":42,\"tor\":0,\"tor_exit_nodes\":0,\"vpn\":14197,\"relay\":0,\"proxy\":0,\"hosting\":14112,\"service\":13798}","uploaders":"{\"size\":2482,\"mobile\":20,\"satellite\":4,\"tor\":0,\"tor_exit_nodes\":0,\"vpn\":2310,\"relay\":0,\"proxy\":0,\"hosting\":1966,\"service\":2270}"},"geometry":{"type":"Point","coordinates":[-80.3426,25.6062]}},{"type":"Feature","properties":{"country_code":"RUS","city":"Krasnoyarsk","geoname_id":"1502026","downloaders":"{\"size\":17243,\"mobile\":1546,\"satellite\":0,\"tor\":0,\"tor_exit_nodes\":0,\"vpn\":408,\"relay\":0,\"proxy\":0,\"hosting\":0,\"service\":188}","uploaders":"{\"size\":10,\"mobile\":0,\"satellite\":0,\"tor\":0,\"tor_exit_nodes\":0,\"vpn\":0,\"relay\":0,\"proxy\":0,\"hosting\":0,\"service\":0}"},"geometry":{"type":"Point","coordinates":[92.93136,56.03742]}},{"type":"Feature","properties":{"country_code":"KOR","city":"Daejeon","geoname_id":"1835235","downloaders":"{\"size\":17031,\"mobile\":44,\"satellite\":0,\"tor\":0,\"tor_exit_nodes\":0,\"vpn\":203,\"relay\":0,\"proxy\":8,\"hosting\":0,\"service\":22}","uploaders":"{\"size\":7,\"mobile\":0,\"satellite\":0,\"tor\":0,\"tor_exit_nodes\":0,\"vpn\":0,\"relay\":0,\"proxy\":0,\"hosting\":0,\"service\":0}"},"geometry":{"type":"Point","coordinates":[127.38493,36.34913]}},{"type":"Feature","properties":{"country_code":"CHE","city":"Zürich","geoname_id":"2657896","downloaders":"{\"size\":16803,\"mobile\":749,\"satellite\":5,\"tor\":0,\"tor_exit_nodes\":1,\"vpn\":10623,\"relay\":1,\"proxy\":13,\"hosting\":10897,\"service\":10178}","uploaders":"{\"size\":1622,\"mobile\":37,\"satellite\":0,\"tor\":0,\"tor_exit_nodes\":0,\"vpn\":1130,\"relay\":0,\"proxy\":0,\"hosting\":1236,\"service\":1104}"},"geometry":{"type":"Point","coordinates":[8.4793,47.3862]}},{"type":"Feature","properties":{"country_code":"RUS","city":"Tyumen","geoname_id":"1488754","downloaders":"{\"size\":16397,\"mobile\":2125,\"satellite\":0,\"tor\":0,\"tor_exit_nodes\":0,\"vpn\":171,\"relay\":0,\"proxy\":1,\"hosting\":0,\"service\":5}","uploaders":"{\"size\":4,\"mobile\":1,\"satellite\":0,\"tor\":0,\"tor_exit_nodes\":0,\"vpn\":0,\"relay\":0,\"proxy\":0,\"hosting\":0,\"service\":0}"},"geometry":{"type":"Point","coordinates":[65.52722,57.15222]}},{"type":"Feature","properties":{"country_code":"RUS","city":"Ufa","geoname_id":"479561","downloaders":"{\"size\":16343,\"mobile\":471,\"satellite\":0,\"tor\":0,\"tor_exit_nodes\":0,\"vpn\":130,\"relay\":0,\"proxy\":0,\"hosting\":0,\"service\":12}","uploaders":"{\"size\":7,\"mobile\":0,\"satellite\":0,\"tor\":0,\"tor_exit_nodes\":0,\"vpn\":0,\"relay\":0,\"proxy\":0,\"hosting\":0,\"service\":0}"},"geometry":{"type":"Point","coordinates":[55.96779,54.74306]}},{"type":"Feature","properties":{"country_code":"BLR","city":"Minsk","geoname_id":"625144","downloaders":"{\"size\":15992,\"mobile\":110,\"satellite\":0,\"tor\":0,\"tor_exit_nodes\":0,\"vpn\":378,\"relay\":0,\"proxy\":5,\"hosting\":184,\"service\":7}","uploaders":"{\"size\":4,\"mobile\":0,\"satellite\":0,\"tor\":0,\"tor_exit_nodes\":0,\"vpn\":0,\"relay\":0,\"proxy\":0,\"hosting\":1,\"service\":0}"},"geometry":{"type":"Point","coordinates":[27.56653,53.90019]}},{"type":"Feature","properties":{"country_code":"CAN","city":"Vancouver","geoname_id":"6173331","downloaders":"{\"size\":15986,\"mobile\":778,\"satellite\":47,\"tor\":0,\"tor_exit_nodes\":0,\"vpn\":12045,\"relay\":0,\"proxy\":0,\"hosting\":7808,\"service\":11341}","uploaders":"{\"size\":1855,\"mobile\":50,\"satellite\":15,\"tor\":0,\"tor_exit_nodes\":0,\"vpn\":1588,\"relay\":0,\"proxy\":0,\"hosting\":1056,\"service\":1539}"},"geometry":{"type":"Point","coordinates":[-123.11934,49.24966]}},{"type":"Feature","properties":{"country_code":"JPN","city":"Tokyo","geoname_id":"1850147","downloaders":"{\"size\":15641,\"mobile\":874,\"satellite\":6,\"tor\":0,\"tor_exit_nodes\":0,\"vpn\":3958,\"relay\":0,\"proxy\":7,\"hosting\":5193,\"service\":3547}","uploaders":"{\"size\":353,\"mobile\":5,\"satellite\":0,\"tor\":0,\"tor_exit_nodes\":0,\"vpn\":258,\"relay\":0,\"proxy\":0,\"hosting\":280,\"service\":258}"},"geometry":{"type":"Point","coordinates":[139.69171,35.6895]}},{"type":"Feature","properties":{"country_code":"KOR","city":"Seongnam-si","geoname_id":"1897000","downloaders":"{\"size\":15561,\"mobile\":112,\"satellite\":0,\"tor\":0,\"tor_exit_nodes\":0,\"vpn\":242,\"relay\":0,\"proxy\":2,\"hosting\":0,\"service\":8}","uploaders":"{\"size\":6,\"mobile\":0,\"satellite\":0,\"tor\":0,\"tor_exit_nodes\":0,\"vpn\":0,\"relay\":0,\"proxy\":0,\"hosting\":0,\"service\":0}"},"geometry":{"type":"Point","coordinates":[127.13778,37.43861]}},{"type":"Feature","properties":{"country_code":"USA","city":"Atlanta","geoname_id":"4180439","downloaders":"{\"size\":15260,\"mobile\":245,\"satellite\":27,\"tor\":0,\"tor_exit_nodes\":0,\"vpn\":11177,\"relay\":0,\"proxy\":0,\"hosting\":11850,\"service\":11033}","uploaders":"{\"size\":2275,\"mobile\":23,\"satellite\":0,\"tor\":0,\"tor_exit_nodes\":0,\"vpn\":2138,\"relay\":0,\"proxy\":0,\"hosting\":2071,\"service\":2116}"},"geometry":{"type":"Point","coordinates":[-84.5205,33.7224]}},{"type":"Feature","properties":{"country_code":"RUS","city":"Tomsk","geoname_id":"1489425","downloaders":"{\"size\":15176,\"mobile\":27,\"satellite\":0,\"tor\":0,\"tor_exit_nodes\":0,\"vpn\":156,\"relay\":0,\"proxy\":0,\"hosting\":49,\"service\":10}","uploaders":"{\"size\":5,\"mobile\":0,\"satellite\":0,\"tor\":0,\"tor_exit_nodes\":0,\"vpn\":0,\"relay\":0,\"proxy\":0,\"hosting\":0,\"service\":0}"},"geometry":{"type":"Point","coordinates":[84.98216,56.50049]}},{"type":"Feature","properties":{"country_code":"RUS","city":"Barnaul","geoname_id":"1510853","downloaders":"{\"size\":15037,\"mobile\":4,\"satellite\":0,\"tor\":0,\"tor_exit_nodes\":0,\"vpn\":113,\"relay\":0,\"proxy\":0,\"hosting\":0,\"service\":29}","uploaders":"{\"size\":5,\"mobile\":0,\"satellite\":0,\"tor\":0,\"tor_exit_nodes\":0,\"vpn\":0,\"relay\":0,\"proxy\":0,\"hosting\":0,\"service\":0}"},"geometry":{"type":"Point","coordinates":[83.72786,53.36199]}},{"type":"Feature","properties":{"country_code":"RUS","city":"Omsk","geoname_id":"1496153","downloaders":"{\"size\":14826,\"mobile\":927,\"satellite\":0,\"tor\":0,\"tor_exit_nodes\":0,\"vpn\":106,\"relay\":0,\"proxy\":0,\"hosting\":1,\"service\":9}","uploaders":"{\"size\":5,\"mobile\":0,\"satellite\":0,\"tor\":0,\"tor_exit_nodes\":0,\"vpn\":0,\"relay\":0,\"proxy\":0,\"hosting\":0,\"service\":0}"},"geometry":{"type":"Point","coordinates":[73.36859,54.99244]}},{"type":"Feature","properties":{"country_code":"KOR","city":"Hwaseong-si","geoname_id":"1843847","downloaders":"{\"size\":14697,\"mobile\":32,\"satellite\":0,\"tor\":0,\"tor_exit_nodes\":0,\"vpn\":185,\"relay\":0,\"proxy\":0,\"hosting\":0,\"service\":10}","uploaders":"{\"size\":3,\"mobile\":0,\"satellite\":0,\"tor\":0,\"tor_exit_nodes\":0,\"vpn\":0,\"relay\":0,\"proxy\":0,\"hosting\":0,\"service\":0}"},"geometry":{"type":"Point","coordinates":[126.8169,37.20682]}},{"type":"Feature","properties":{"country_code":"RUS","city":"Saratov","geoname_id":"498677","downloaders":"{\"size\":14438,\"mobile\":368,\"satellite\":0,\"tor\":0,\"tor_exit_nodes\":0,\"vpn\":109,\"relay\":0,\"proxy\":0,\"hosting\":31,\"service\":3}","uploaders":"{\"size\":8,\"mobile\":2,\"satellite\":0,\"tor\":0,\"tor_exit_nodes\":0,\"vpn\":0,\"relay\":0,\"proxy\":0,\"hosting\":0,\"service\":0}"},"geometry":{"type":"Point","coordinates":[45.9901,51.54048]}},{"type":"Feature","properties":{"country_code":"KOR","city":"Gwangju","geoname_id":"1841811","downloaders":"{\"size\":14377,\"mobile\":13,\"satellite\":0,\"tor\":0,\"tor_exit_nodes\":0,\"vpn\":130,\"relay\":0,\"proxy\":2,\"hosting\":0,\"service\":52}","uploaders":"{\"size\":3,\"mobile\":0,\"satellite\":0,\"tor\":0,\"tor_exit_nodes\":0,\"vpn\":0,\"relay\":0,\"proxy\":0,\"hosting\":0,\"service\":0}"},"geometry":{"type":"Point","coordinates":[126.91556,35.15472]}},{"type":"Feature","properties":{"country_code":"RUS","city":"Kemerovo","geoname_id":"1503901","downloaders":"{\"size\":14095,\"mobile\":34,\"satellite\":0,\"tor\":0,\"tor_exit_nodes\":0,\"vpn\":106,\"relay\":0,\"proxy\":0,\"hosting\":41,\"service\":3}","uploaders":"{\"size\":4,\"mobile\":0,\"satellite\":0,\"tor\":0,\"tor_exit_nodes\":0,\"vpn\":0,\"relay\":0,\"proxy\":0,\"hosting\":0,\"service\":0}"},"geometry":{"type":"Point","coordinates":[86.10435,55.35417]}},{"type":"Feature","properties":{"country_code":"USA","city":"Seattle","geoname_id":"5809844","downloaders":"{\"size\":14055,\"mobile\":338,\"satellite\":81,\"tor\":0,\"tor_exit_nodes\":0,\"vpn\":12456,\"relay\":1,\"proxy\":0,\"hosting\":11448,\"service\":11755}","uploaders":"{\"size\":2234,\"mobile\":63,\"satellite\":10,\"tor\":0,\"tor_exit_nodes\":0,\"vpn\":2116,\"relay\":0,\"proxy\":0,\"hosting\":1892,\"service\":2015}"},"geometry":{"type":"Point","coordinates":[-122.33207,47.60621]}},{"type":"Feature","properties":{"country_code":"USA","city":"Dallas","geoname_id":"4684888","downloaders":"{\"size\":13724,\"mobile\":222,\"satellite\":64,\"tor\":0,\"tor_exit_nodes\":0,\"vpn\":11522,\"relay\":0,\"proxy\":0,\"hosting\":12038,\"service\":10491}","uploaders":"{\"size\":1673,\"mobile\":29,\"satellite\":5,\"tor\":0,\"tor_exit_nodes\":0,\"vpn\":1534,\"relay\":0,\"proxy\":0,\"hosting\":1525,\"service\":1406}"},"geometry":{"type":"Point","coordinates":[-96.8314,33.0005]}},{"type":"Feature","properties":{"country_code":"CHN","city":"Beijing","geoname_id":"1816670","downloaders":"{\"size\":13721,\"mobile\":0,\"satellite\":0,\"tor\":0,\"tor_exit_nodes\":0,\"vpn\":278,\"relay\":0,\"proxy\":0,\"hosting\":1540,\"service\":0}","uploaders":"{\"size\":229,\"mobile\":0,\"satellite\":0,\"tor\":0,\"tor_exit_nodes\":0,\"vpn\":2,\"relay\":0,\"proxy\":0,\"hosting\":82,\"service\":0}"},"geometry":{"type":"Point","coordinates":[116.39723,39.9075]}},{"type":"Feature","properties":{"country_code":"SGP","city":"Singapore","geoname_id":"1880252","downloaders":"{\"size\":13006,\"mobile\":100,\"satellite\":0,\"tor\":0,\"tor_exit_nodes\":0,\"vpn\":5698,\"relay\":1,\"proxy\":10,\"hosting\":8426,\"service\":5602}","uploaders":"{\"size\":1035,\"mobile\":1,\"satellite\":0,\"tor\":0,\"tor_exit_nodes\":0,\"vpn\":895,\"relay\":1,\"proxy\":0,\"hosting\":981,\"service\":890}"},"geometry":{"type":"Point","coordinates":[103.85007,1.28967]}},{"type":"Feature","properties":{"country_code":"RUS","city":"Tula","geoname_id":"480562","downloaders":"{\"size\":12460,\"mobile\":2216,\"satellite\":0,\"tor\":0,\"tor_exit_nodes\":0,\"vpn\":118,\"relay\":0,\"proxy\":0,\"hosting\":0,\"service\":0}","uploaders":"{\"size\":6,\"mobile\":0,\"satellite\":0,\"tor\":0,\"tor_exit_nodes\":0,\"vpn\":0,\"relay\":0,\"proxy\":0,\"hosting\":0,\"service\":0}"},"geometry":{"type":"Point","coordinates":[37.61822,54.19609]}},{"type":"Feature","properties":{"country_code":"LVA","city":"Riga","geoname_id":"456172","downloaders":"{\"size\":12035,\"mobile\":286,\"satellite\":3,\"tor\":0,\"tor_exit_nodes\":0,\"vpn\":786,\"relay\":0,\"proxy\":1,\"hosting\":1447,\"service\":572}","uploaders":"{\"size\":163,\"mobile\":4,\"satellite\":0,\"tor\":0,\"tor_exit_nodes\":0,\"vpn\":107,\"relay\":0,\"proxy\":0,\"hosting\":109,\"service\":106}"},"geometry":{"type":"Point","coordinates":[24.10589,56.946]}},{"type":"Feature","properties":{"country_code":"CHN","city":"Jiaxing","geoname_id":"1805953","downloaders":"{\"size\":11995,\"mobile\":0,\"satellite\":0,\"tor\":0,\"tor_exit_nodes\":0,\"vpn\":642,\"relay\":0,\"proxy\":0,\"hosting\":44,\"service\":0}","uploaders":"{\"size\":11,\"mobile\":0,\"satellite\":0,\"tor\":0,\"tor_exit_nodes\":0,\"vpn\":0,\"relay\":0,\"proxy\":0,\"hosting\":0,\"service\":0}"},"geometry":{"type":"Point","coordinates":[120.75,30.7522]}},{"type":"Feature","properties":{"country_code":"ITA","city":"Milan","geoname_id":"3173435","downloaders":"{\"size\":11526,\"mobile\":2152,\"satellite\":60,\"tor\":0,\"tor_exit_nodes\":0,\"vpn\":2324,\"relay\":2,\"proxy\":2,\"hosting\":2384,\"service\":2161}","uploaders":"{\"size\":334,\"mobile\":19,\"satellite\":1,\"tor\":0,\"tor_exit_nodes\":0,\"vpn\":206,\"relay\":0,\"proxy\":0,\"hosting\":210,\"service\":192}"},"geometry":{"type":"Point","coordinates":[9.18951,45.46427]}},{"type":"Feature","properties":{"country_code":"RUS","city":"Balashikha","geoname_id":"579464","downloaders":"{\"size\":11380,\"mobile\":100,\"satellite\":0,\"tor\":0,\"tor_exit_nodes\":0,\"vpn\":746,\"relay\":0,\"proxy\":10,\"hosting\":549,\"service\":83}","uploaders":"{\"size\":3,\"mobile\":0,\"satellite\":0,\"tor\":0,\"tor_exit_nodes\":0,\"vpn\":0,\"relay\":0,\"proxy\":0,\"hosting\":0,\"service\":0}"},"geometry":{"type":"Point","coordinates":[37.94794,55.79479]}},{"type":"Feature","properties":{"country_code":"SVN","city":"Ljubljana","geoname_id":"3196359","downloaders":"{\"size\":11313,\"mobile\":226,\"satellite\":2,\"tor\":0,\"tor_exit_nodes\":0,\"vpn\":492,\"relay\":0,\"proxy\":0,\"hosting\":243,\"service\":232}","uploaders":"{\"size\":158,\"mobile\":16,\"satellite\":0,\"tor\":0,\"tor_exit_nodes\":0,\"vpn\":42,\"relay\":0,\"proxy\":0,\"hosting\":34,\"service\":35}"},"geometry":{"type":"Point","coordinates":[14.50513,46.05108]}},{"type":"Feature","properties":{"country_code":"KOR","city":"Anyang-si","geoname_id":"1846898","downloaders":"{\"size\":11065,\"mobile\":4,\"satellite\":0,\"tor\":0,\"tor_exit_nodes\":0,\"vpn\":239,\"relay\":0,\"proxy\":4,\"hosting\":0,\"service\":40}","uploaders":"{\"size\":7,\"mobile\":0,\"satellite\":0,\"tor\":0,\"tor_exit_nodes\":0,\"vpn\":0,\"relay\":0,\"proxy\":0,\"hosting\":0,\"service\":0}"},"geometry":{"type":"Point","coordinates":[126.92694,37.3925]}},{"type":"Feature","properties":{"country_code":"UKR","city":"Kyiv","geoname_id":"703448","downloaders":"{\"size\":10867,\"mobile\":74,\"satellite\":145,\"tor\":0,\"tor_exit_nodes\":0,\"vpn\":724,\"relay\":0,\"proxy\":1,\"hosting\":2492,\"service\":370}","uploaders":"{\"size\":118,\"mobile\":0,\"satellite\":0,\"tor\":0,\"tor_exit_nodes\":0,\"vpn\":22,\"relay\":0,\"proxy\":0,\"hosting\":89,\"service\":22}"},"geometry":{"type":"Point","coordinates":[30.5238,50.45466]}},{"type":"Feature","properties":{"country_code":"RUS","city":"Volgograd","geoname_id":"472757","downloaders":"{\"size\":10844,\"mobile\":1179,\"satellite\":0,\"tor\":0,\"tor_exit_nodes\":0,\"vpn\":62,\"relay\":0,\"proxy\":0,\"hosting\":0,\"service\":33}","uploaders":"{\"size\":6,\"mobile\":4,\"satellite\":0,\"tor\":0,\"tor_exit_nodes\":0,\"vpn\":0,\"relay\":0,\"proxy\":0,\"hosting\":0,\"service\":0}"},"geometry":{"type":"Point","coordinates":[44.4976,48.71378]}},{"type":"Feature","properties":{"country_code":"KOR","city":"Haegok","geoname_id":"6398843","downloaders":"{\"size\":10834,\"mobile\":16,\"satellite\":0,\"tor\":0,\"tor_exit_nodes\":0,\"vpn\":129,\"relay\":0,\"proxy\":5,\"hosting\":0,\"service\":9}","uploaders":"{\"size\":5,\"mobile\":0,\"satellite\":0,\"tor\":0,\"tor_exit_nodes\":0,\"vpn\":0,\"relay\":0,\"proxy\":0,\"hosting\":0,\"service\":0}"},"geometry":{"type":"Point","coordinates":[127.27880999999999,37.19251]}},{"type":"Feature","properties":{"country_code":"ROU","city":"Bucharest","geoname_id":"683506","downloaders":"{\"size\":10606,\"mobile\":2060,\"satellite\":6,\"tor\":37,\"tor_exit_nodes\":3,\"vpn\":2433,\"relay\":0,\"proxy\":4,\"hosting\":2640,\"service\":2079}","uploaders":"{\"size\":341,\"mobile\":20,\"satellite\":0,\"tor\":1,\"tor_exit_nodes\":1,\"vpn\":209,\"relay\":0,\"proxy\":0,\"hosting\":222,\"service\":195}"},"geometry":{"type":"Point","coordinates":[26.10626,44.43225]}},{"type":"Feature","properties":{"country_code":"CHN","city":"Zhengzhou","geoname_id":"1784658","downloaders":"{\"size\":10443,\"mobile\":0,\"satellite\":0,\"tor\":0,\"tor_exit_nodes\":0,\"vpn\":129,\"relay\":0,\"proxy\":0,\"hosting\":3,\"service\":0}","uploaders":"{\"size\":122,\"mobile\":0,\"satellite\":0,\"tor\":0,\"tor_exit_nodes\":0,\"vpn\":1,\"relay\":0,\"proxy\":0,\"hosting\":0,\"service\":0}"},"geometry":{"type":"Point","coordinates":[113.64861,34.75778]}},{"type":"Feature","properties":{"country_code":"DEU","city":"Falkenstein","geoname_id":"2927913","downloaders":"{\"size\":10281,\"mobile\":0,\"satellite\":0,\"tor\":0,\"tor_exit_nodes\":0,\"vpn\":2,\"relay\":0,\"proxy\":0,\"hosting\":10273,\"service\":2}","uploaders":"{\"size\":151,\"mobile\":0,\"satellite\":0,\"tor\":0,\"tor_exit_nodes\":0,\"vpn\":0,\"relay\":0,\"proxy\":0,\"hosting\":151,\"service\":0}"},"geometry":{"type":"Point","coordinates":[12.37129,50.47788]}},{"type":"Feature","properties":{"country_code":"IRL","city":"Dublin","geoname_id":"2964574","downloaders":"{\"size\":10265,\"mobile\":2191,\"satellite\":70,\"tor\":0,\"tor_exit_nodes\":0,\"vpn\":3031,\"relay\":0,\"proxy\":0,\"hosting\":3817,\"service\":2733}","uploaders":"{\"size\":1247,\"mobile\":353,\"satellite\":28,\"tor\":0,\"tor_exit_nodes\":0,\"vpn\":444,\"relay\":0,\"proxy\":0,\"hosting\":468,\"service\":409}"},"geometry":{"type":"Point","coordinates":[-6.24889,53.33306]}},{"type":"Feature","properties":{"country_code":"KOR","city":"Bucheon-si","geoname_id":"1838716","downloaders":"{\"size\":10088,\"mobile\":1,\"satellite\":0,\"tor\":0,\"tor_exit_nodes\":0,\"vpn\":121,\"relay\":0,\"proxy\":0,\"hosting\":0,\"service\":2}","uploaders":"{\"size\":5,\"mobile\":0,\"satellite\":0,\"tor\":0,\"tor_exit_nodes\":0,\"vpn\":0,\"relay\":0,\"proxy\":0,\"hosting\":0,\"service\":0}"},"geometry":{"type":"Point","coordinates":[126.78306,37.49889]}},{"type":"Feature","properties":{"country_code":"CZE","city":"Prague","geoname_id":"3067696","downloaders":"{\"size\":9449,\"mobile\":816,\"satellite\":9,\"tor\":0,\"tor_exit_nodes\":0,\"vpn\":2520,\"relay\":1,\"proxy\":2,\"hosting\":2710,\"service\":2015}","uploaders":"{\"size\":283,\"mobile\":8,\"satellite\":0,\"tor\":0,\"tor_exit_nodes\":0,\"vpn\":212,\"relay\":0,\"proxy\":0,\"hosting\":217,\"service\":208}"},"geometry":{"type":"Point","coordinates":[14.42076,50.08804]}},{"type":"Feature","properties":{"country_code":"POL","city":"Poznań","geoname_id":"3088171","downloaders":"{\"size\":9353,\"mobile\":441,\"satellite\":0,\"tor\":1,\"tor_exit_nodes\":0,\"vpn\":51,\"relay\":0,\"proxy\":0,\"hosting\":17,\"service\":0}","uploaders":"{\"size\":45,\"mobile\":36,\"satellite\":0,\"tor\":0,\"tor_exit_nodes\":0,\"vpn\":0,\"relay\":0,\"proxy\":0,\"hosting\":0,\"service\":0}"},"geometry":{"type":"Point","coordinates":[16.92993,52.40692]}},{"type":"Feature","properties":{"country_code":"USA","city":"Denver","geoname_id":"5419384","downloaders":"{\"size\":9277,\"mobile\":143,\"satellite\":24,\"tor\":0,\"tor_exit_nodes\":0,\"vpn\":7666,\"relay\":0,\"proxy\":0,\"hosting\":6790,\"service\":7482}","uploaders":"{\"size\":1305,\"mobile\":5,\"satellite\":1,\"tor\":0,\"tor_exit_nodes\":0,\"vpn\":1160,\"relay\":0,\"proxy\":0,\"hosting\":1133,\"service\":1130}"},"geometry":{"type":"Point","coordinates":[-104.9847,39.73915]}},{"type":"Feature","properties":{"country_code":"CHN","city":"Qingdao","geoname_id":"1797929","downloaders":"{\"size\":9021,\"mobile\":0,\"satellite\":0,\"tor\":0,\"tor_exit_nodes\":0,\"vpn\":187,\"relay\":0,\"proxy\":0,\"hosting\":63,\"service\":0}","uploaders":"{\"size\":26,\"mobile\":0,\"satellite\":0,\"tor\":0,\"tor_exit_nodes\":0,\"vpn\":0,\"relay\":0,\"proxy\":0,\"hosting\":0,\"service\":0}"},"geometry":{"type":"Point","coordinates":[120.38042,36.06488]}},{"type":"Feature","properties":{"country_code":"USA","city":"San Jose","geoname_id":"5392171","downloaders":"{\"size\":8852,\"mobile\":70,\"satellite\":82,\"tor\":6,\"tor_exit_nodes\":4,\"vpn\":6371,\"relay\":0,\"proxy\":50,\"hosting\":7439,\"service\":6282}","uploaders":"{\"size\":1062,\"mobile\":7,\"satellite\":20,\"tor\":1,\"tor_exit_nodes\":1,\"vpn\":920,\"relay\":0,\"proxy\":0,\"hosting\":990,\"service\":902}"},"geometry":{"type":"Point","coordinates":[-121.8896,37.2568]}},{"type":"Feature","properties":{"country_code":"FRA","city":"Amiens","geoname_id":"3037854","downloaders":"{\"size\":8609,\"mobile\":157,\"satellite\":0,\"tor\":0,\"tor_exit_nodes\":0,\"vpn\":283,\"relay\":0,\"proxy\":0,\"hosting\":8130,\"service\":53}","uploaders":"{\"size\":204,\"mobile\":0,\"satellite\":0,\"tor\":0,\"tor_exit_nodes\":0,\"vpn\":1,\"relay\":0,\"proxy\":0,\"hosting\":203,\"service\":1}"},"geometry":{"type":"Point","coordinates":[2.3,49.9]}},{"type":"Feature","properties":{"country_code":"NZL","city":"Auckland","geoname_id":"2193733","downloaders":"{\"size\":8549,\"mobile\":2902,\"satellite\":60,\"tor\":0,\"tor_exit_nodes\":0,\"vpn\":1885,\"relay\":0,\"proxy\":0,\"hosting\":1932,\"service\":1748}","uploaders":"{\"size\":864,\"mobile\":240,\"satellite\":9,\"tor\":0,\"tor_exit_nodes\":0,\"vpn\":278,\"relay\":0,\"proxy\":0,\"hosting\":293,\"service\":275}"},"geometry":{"type":"Point","coordinates":[174.76349,-36.84853]}},{"type":"Feature","properties":{"country_code":"USA","city":"Phoenix","geoname_id":"5308655","downloaders":"{\"size\":8427,\"mobile\":386,\"satellite\":40,\"tor\":0,\"tor_exit_nodes\":0,\"vpn\":4484,\"relay\":6,\"proxy\":2,\"hosting\":5120,\"service\":4196}","uploaders":"{\"size\":741,\"mobile\":44,\"satellite\":2,\"tor\":0,\"tor_exit_nodes\":0,\"vpn\":556,\"relay\":0,\"proxy\":1,\"hosting\":545,\"service\":527}"},"geometry":{"type":"Point","coordinates":[-112.07404,33.44838]}},{"type":"Feature","properties":{"country_code":"RUS","city":"Cheboksary","geoname_id":"569696","downloaders":"{\"size\":8386,\"mobile\":1455,\"satellite\":0,\"tor\":0,\"tor_exit_nodes\":0,\"vpn\":64,\"relay\":0,\"proxy\":0,\"hosting\":0,\"service\":0}","uploaders":"{\"size\":6,\"mobile\":0,\"satellite\":0,\"tor\":0,\"tor_exit_nodes\":0,\"vpn\":0,\"relay\":0,\"proxy\":0,\"hosting\":0,\"service\":0}"},"geometry":{"type":"Point","coordinates":[47.246,56.13218]}},{"type":"Feature","properties":{"country_code":"AUS","city":"Brisbane","geoname_id":"2174003","downloaders":"{\"size\":8358,\"mobile\":523,\"satellite\":32,\"tor\":0,\"tor_exit_nodes\":0,\"vpn\":2057,\"relay\":0,\"proxy\":0,\"hosting\":2200,\"service\":1884}","uploaders":"{\"size\":874,\"mobile\":72,\"satellite\":3,\"tor\":0,\"tor_exit_nodes\":0,\"vpn\":335,\"relay\":0,\"proxy\":0,\"hosting\":362,\"service\":332}"},"geometry":{"type":"Point","coordinates":[153.02809,-27.46794]}},{"type":"Feature","properties":{"country_code":"FRA","city":"Dunkerque","geoname_id":"3020686","downloaders":"{\"size\":8214,\"mobile\":76,\"satellite\":0,\"tor\":0,\"tor_exit_nodes\":0,\"vpn\":217,\"relay\":0,\"proxy\":24,\"hosting\":7963,\"service\":29}","uploaders":"{\"size\":257,\"mobile\":0,\"satellite\":0,\"tor\":0,\"tor_exit_nodes\":0,\"vpn\":0,\"relay\":0,\"proxy\":0,\"hosting\":257,\"service\":0}"},"geometry":{"type":"Point","coordinates":[2.37681,51.0344]}},{"type":"Feature","properties":{"country_code":"DEU","city":"Berlin","geoname_id":"2950159","downloaders":"{\"size\":8199,\"mobile\":2173,\"satellite\":70,\"tor\":3,\"tor_exit_nodes\":3,\"vpn\":2760,\"relay\":0,\"proxy\":0,\"hosting\":2873,\"service\":2014}","uploaders":"{\"size\":1490,\"mobile\":1,\"satellite\":1,\"tor\":0,\"tor_exit_nodes\":0,\"vpn\":1435,\"relay\":0,\"proxy\":0,\"hosting\":1119,\"service\":991}"},"geometry":{"type":"Point","coordinates":[13.41053,52.52437]}},{"type":"Feature","properties":{"country_code":"ITA","city":"Rome","geoname_id":"3169070","downloaders":"{\"size\":7921,\"mobile\":2727,\"satellite\":0,\"tor\":0,\"tor_exit_nodes\":0,\"vpn\":201,\"relay\":0,\"proxy\":0,\"hosting\":162,\"service\":157}","uploaders":"{\"size\":40,\"mobile\":18,\"satellite\":0,\"tor\":0,\"tor_exit_nodes\":0,\"vpn\":14,\"relay\":0,\"proxy\":0,\"hosting\":14,\"service\":14}"},"geometry":{"type":"Point","coordinates":[12.51133,41.89193]}},{"type":"Feature","properties":{"country_code":"CHN","city":"Shenyang","geoname_id":"2034937","downloaders":"{\"size\":7872,\"mobile\":0,\"satellite\":0,\"tor\":0,\"tor_exit_nodes\":0,\"vpn\":63,\"relay\":0,\"proxy\":0,\"hosting\":1,\"service\":0}","uploaders":"{\"size\":19,\"mobile\":0,\"satellite\":0,\"tor\":0,\"tor_exit_nodes\":0,\"vpn\":0,\"relay\":0,\"proxy\":0,\"hosting\":0,\"service\":0}"},"geometry":{"type":"Point","coordinates":[123.43278,41.79222]}},{"type":"Feature","properties":{"country_code":"KOR","city":"Hwado","geoname_id":"1897118","downloaders":"{\"size\":7851,\"mobile\":3,\"satellite\":0,\"tor\":0,\"tor_exit_nodes\":0,\"vpn\":107,\"relay\":0,\"proxy\":4,\"hosting\":0,\"service\":3}","uploaders":"{\"size\":8,\"mobile\":0,\"satellite\":0,\"tor\":0,\"tor_exit_nodes\":0,\"vpn\":0,\"relay\":0,\"proxy\":0,\"hosting\":0,\"service\":0}"},"geometry":{"type":"Point","coordinates":[127.3075,37.6525]}},{"type":"Feature","properties":{"country_code":"RUS","city":"Tver","geoname_id":"480060","downloaders":"{\"size\":7636,\"mobile\":173,\"satellite\":0,\"tor\":0,\"tor_exit_nodes\":0,\"vpn\":90,\"relay\":0,\"proxy\":1,\"hosting\":5,\"service\":0}","uploaders":"{\"size\":5,\"mobile\":1,\"satellite\":0,\"tor\":0,\"tor_exit_nodes\":0,\"vpn\":0,\"relay\":0,\"proxy\":0,\"hosting\":0,\"service\":0}"},"geometry":{"type":"Point","coordinates":[35.90057,56.85836]}},{"type":"Feature","properties":{"country_code":"TUR","city":"Antalya","geoname_id":"323777","downloaders":"{\"size\":7631,\"mobile\":4231,\"satellite\":0,\"tor\":0,\"tor_exit_nodes\":0,\"vpn\":0,\"relay\":0,\"proxy\":0,\"hosting\":0,\"service\":0}","uploaders":"{\"size\":9,\"mobile\":0,\"satellite\":0,\"tor\":0,\"tor_exit_nodes\":0,\"vpn\":0,\"relay\":0,\"proxy\":0,\"hosting\":0,\"service\":0}"},"geometry":{"type":"Point","coordinates":[30.69556,36.90812]}},{"type":"Feature","properties":{"country_code":"TWN","city":"Taipei","geoname_id":"1668341","downloaders":"{\"size\":7576,\"mobile\":367,\"satellite\":0,\"tor\":7,\"tor_exit_nodes\":7,\"vpn\":735,\"relay\":1,\"proxy\":6,\"hosting\":408,\"service\":321}","uploaders":"{\"size\":159,\"mobile\":18,\"satellite\":0,\"tor\":0,\"tor_exit_nodes\":0,\"vpn\":39,\"relay\":0,\"proxy\":0,\"hosting\":41,\"service\":38}"},"geometry":{"type":"Point","coordinates":[121.52639,25.05306]}},{"type":"Feature","properties":{"country_code":"CHN","city":"Ningbo","geoname_id":"1799397","downloaders":"{\"size\":7494,\"mobile\":0,\"satellite\":0,\"tor\":0,\"tor_exit_nodes\":0,\"vpn\":138,\"relay\":0,\"proxy\":0,\"hosting\":352,\"service\":0}","uploaders":"{\"size\":74,\"mobile\":0,\"satellite\":0,\"tor\":0,\"tor_exit_nodes\":0,\"vpn\":0,\"relay\":0,\"proxy\":0,\"hosting\":0,\"service\":0}"},"geometry":{"type":"Point","coordinates":[121.54945,29.87819]}},{"type":"Feature","properties":{"country_code":"RUS","city":"Bryansk","geoname_id":"571476","downloaders":"{\"size\":7429,\"mobile\":9,\"satellite\":0,\"tor\":0,\"tor_exit_nodes\":0,\"vpn\":42,\"relay\":0,\"proxy\":0,\"hosting\":0,\"service\":0}","uploaders":"{\"size\":3,\"mobile\":0,\"satellite\":0,\"tor\":0,\"tor_exit_nodes\":0,\"vpn\":0,\"relay\":0,\"proxy\":0,\"hosting\":0,\"service\":0}"},"geometry":{"type":"Point","coordinates":[34.32143,53.27096]}},{"type":"Feature","properties":{"country_code":"LTU","city":"Vilnius","geoname_id":"593116","downloaders":"{\"size\":7185,\"mobile\":535,\"satellite\":8,\"tor\":0,\"tor_exit_nodes\":0,\"vpn\":336,\"relay\":0,\"proxy\":4,\"hosting\":523,\"service\":225}","uploaders":"{\"size\":73,\"mobile\":20,\"satellite\":0,\"tor\":0,\"tor_exit_nodes\":0,\"vpn\":15,\"relay\":0,\"proxy\":0,\"hosting\":15,\"service\":15}"},"geometry":{"type":"Point","coordinates":[25.2798,54.68916]}},{"type":"Feature","properties":{"country_code":"KOR","city":"Pyeongtaek","geoname_id":"1838343","downloaders":"{\"size\":7062,\"mobile\":2,\"satellite\":0,\"tor\":0,\"tor_exit_nodes\":0,\"vpn\":46,\"relay\":0,\"proxy\":0,\"hosting\":0,\"service\":8}","uploaders":"{\"size\":3,\"mobile\":0,\"satellite\":0,\"tor\":0,\"tor_exit_nodes\":0,\"vpn\":0,\"relay\":0,\"proxy\":0,\"hosting\":0,\"service\":0}"},"geometry":{"type":"Point","coordinates":[127.08889,36.99472]}},{"type":"Feature","properties":{"country_code":"NOR","city":"Oslo","geoname_id":"3143244","downloaders":"{\"size\":6811,\"mobile\":448,\"satellite\":70,\"tor\":1,\"tor_exit_nodes\":1,\"vpn\":2364,\"relay\":0,\"proxy\":2,\"hosting\":2041,\"service\":2230}","uploaders":"{\"size\":309,\"mobile\":15,\"satellite\":3,\"tor\":0,\"tor_exit_nodes\":0,\"vpn\":159,\"relay\":0,\"proxy\":0,\"hosting\":159,\"service\":159}"},"geometry":{"type":"Point","coordinates":[10.74609,59.91273]}},{"type":"Feature","properties":{"country_code":"NLD","city":"Haarlem","geoname_id":"2755003","downloaders":"{\"size\":6625,\"mobile\":0,\"satellite\":0,\"tor\":0,\"tor_exit_nodes\":0,\"vpn\":5191,\"relay\":0,\"proxy\":1,\"hosting\":5970,\"service\":1533}","uploaders":"{\"size\":301,\"mobile\":0,\"satellite\":0,\"tor\":0,\"tor_exit_nodes\":0,\"vpn\":290,\"relay\":0,\"proxy\":0,\"hosting\":291,\"service\":260}"},"geometry":{"type":"Point","coordinates":[4.63683,52.38084]}},{"type":"Feature","properties":{"country_code":"ESP","city":"Barcelona","geoname_id":"3128760","downloaders":"{\"size\":6497,\"mobile\":2258,\"satellite\":0,\"tor\":0,\"tor_exit_nodes\":0,\"vpn\":902,\"relay\":0,\"proxy\":0,\"hosting\":886,\"service\":865}","uploaders":"{\"size\":236,\"mobile\":40,\"satellite\":0,\"tor\":0,\"tor_exit_nodes\":0,\"vpn\":98,\"relay\":0,\"proxy\":0,\"hosting\":99,\"service\":91}"},"geometry":{"type":"Point","coordinates":[2.15899,41.38879]}},{"type":"Feature","properties":{"country_code":"THA","city":"Bangkok","geoname_id":"1609350","downloaders":"{\"size\":6391,\"mobile\":2110,\"satellite\":0,\"tor\":0,\"tor_exit_nodes\":0,\"vpn\":345,\"relay\":0,\"proxy\":18,\"hosting\":672,\"service\":262}","uploaders":"{\"size\":776,\"mobile\":292,\"satellite\":0,\"tor\":0,\"tor_exit_nodes\":0,\"vpn\":41,\"relay\":0,\"proxy\":0,\"hosting\":58,\"service\":36}"},"geometry":{"type":"Point","coordinates":[100.50144,13.75398]}},{"type":"Feature","properties":{"country_code":"POL","city":"Ursynów","geoname_id":"6545326","downloaders":"{\"size\":6369,\"mobile\":0,\"satellite\":0,\"tor\":0,\"tor_exit_nodes\":0,\"vpn\":248,\"relay\":0,\"proxy\":0,\"hosting\":249,\"service\":248}","uploaders":"{\"size\":27,\"mobile\":0,\"satellite\":0,\"tor\":0,\"tor_exit_nodes\":0,\"vpn\":15,\"relay\":0,\"proxy\":0,\"hosting\":15,\"service\":15}"},"geometry":{"type":"Point","coordinates":[21.0068,52.1552]}},{"type":"Feature","properties":{"country_code":"USA","city":"Santa Clara","geoname_id":"5393015","downloaders":"{\"size\":6244,\"mobile\":21,\"satellite\":0,\"tor\":0,\"tor_exit_nodes\":0,\"vpn\":5044,\"relay\":0,\"proxy\":1,\"hosting\":3500,\"service\":4517}","uploaders":"{\"size\":775,\"mobile\":1,\"satellite\":0,\"tor\":0,\"tor_exit_nodes\":0,\"vpn\":710,\"relay\":0,\"proxy\":0,\"hosting\":402,\"service\":646}"},"geometry":{"type":"Point","coordinates":[-121.95524,37.35411]}},{"type":"Feature","properties":{"country_code":"JPN","city":"Osaka","geoname_id":"1853909","downloaders":"{\"size\":6228,\"mobile\":484,\"satellite\":0,\"tor\":0,\"tor_exit_nodes\":0,\"vpn\":696,\"relay\":0,\"proxy\":1,\"hosting\":757,\"service\":594}","uploaders":"{\"size\":50,\"mobile\":4,\"satellite\":0,\"tor\":0,\"tor_exit_nodes\":0,\"vpn\":26,\"relay\":0,\"proxy\":0,\"hosting\":38,\"service\":26}"},"geometry":{"type":"Point","coordinates":[135.50107,34.69379]}},{"type":"Feature","properties":{"country_code":"KOR","city":"Cheonan","geoname_id":"1845759","downloaders":"{\"size\":6208,\"mobile\":0,\"satellite\":0,\"tor\":0,\"tor_exit_nodes\":0,\"vpn\":34,\"relay\":0,\"proxy\":0,\"hosting\":0,\"service\":0}","uploaders":"{\"size\":4,\"mobile\":0,\"satellite\":0,\"tor\":0,\"tor_exit_nodes\":0,\"vpn\":0,\"relay\":0,\"proxy\":0,\"hosting\":0,\"service\":0}"},"geometry":{"type":"Point","coordinates":[127.1522,36.8065]}},{"type":"Feature","properties":{"country_code":"CHN","city":"Quanzhou","geoname_id":"1797353","downloaders":"{\"size\":6206,\"mobile\":1,\"satellite\":0,\"tor\":0,\"tor_exit_nodes\":0,\"vpn\":54,\"relay\":0,\"proxy\":0,\"hosting\":0,\"service\":0}","uploaders":"{\"size\":6,\"mobile\":0,\"satellite\":0,\"tor\":0,\"tor_exit_nodes\":0,\"vpn\":0,\"relay\":0,\"proxy\":0,\"hosting\":0,\"service\":0}"},"geometry":{"type":"Point","coordinates":[118.58583,24.91389]}},{"type":"Feature","properties":{"country_code":"HRV","city":"Zagreb","geoname_id":"3186886","downloaders":"{\"size\":6173,\"mobile\":607,\"satellite\":2,\"tor\":0,\"tor_exit_nodes\":0,\"vpn\":607,\"relay\":0,\"proxy\":0,\"hosting\":639,\"service\":484}","uploaders":"{\"size\":587,\"mobile\":110,\"satellite\":0,\"tor\":0,\"tor_exit_nodes\":0,\"vpn\":74,\"relay\":0,\"proxy\":0,\"hosting\":75,\"service\":49}"},"geometry":{"type":"Point","coordinates":[15.97798,45.81444]}},{"type":"Feature","properties":{"country_code":"RUS","city":"Tolyatti","geoname_id":"482283","downloaders":"{\"size\":6116,\"mobile\":1,\"satellite\":0,\"tor\":0,\"tor_exit_nodes\":0,\"vpn\":41,\"relay\":0,\"proxy\":0,\"hosting\":0,\"service\":5}","uploaders":"{\"size\":7,\"mobile\":0,\"satellite\":0,\"tor\":0,\"tor_exit_nodes\":0,\"vpn\":0,\"relay\":0,\"proxy\":0,\"hosting\":0,\"service\":0}"},"geometry":{"type":"Point","coordinates":[49.3461,53.5303]}},{"type":"Feature","properties":{"country_code":"EST","city":"Tallinn","geoname_id":"588409","downloaders":"{\"size\":6030,\"mobile\":332,\"satellite\":6,\"tor\":0,\"tor_exit_nodes\":0,\"vpn\":588,\"relay\":0,\"proxy\":0,\"hosting\":1900,\"service\":502}","uploaders":"{\"size\":142,\"mobile\":19,\"satellite\":0,\"tor\":0,\"tor_exit_nodes\":0,\"vpn\":37,\"relay\":0,\"proxy\":0,\"hosting\":39,\"service\":36}"},"geometry":{"type":"Point","coordinates":[24.75353,59.43696]}},{"type":"Feature","properties":{"country_code":"RUS","city":"Korolev","geoname_id":"554233","downloaders":"{\"size\":5927,\"mobile\":0,\"satellite\":0,\"tor\":0,\"tor_exit_nodes\":0,\"vpn\":157,\"relay\":0,\"proxy\":0,\"hosting\":289,\"service\":7}","uploaders":"{\"size\":9,\"mobile\":0,\"satellite\":0,\"tor\":0,\"tor_exit_nodes\":0,\"vpn\":0,\"relay\":0,\"proxy\":0,\"hosting\":0,\"service\":0}"},"geometry":{"type":"Point","coordinates":[37.82556,55.91417]}},{"type":"Feature","properties":{"country_code":"NLD","city":"Soest","geoname_id":"2747034","downloaders":"{\"size\":5849,\"mobile\":0,\"satellite\":0,\"tor\":0,\"tor_exit_nodes\":0,\"vpn\":680,\"relay\":0,\"proxy\":4,\"hosting\":5785,\"service\":486}","uploaders":"{\"size\":44,\"mobile\":0,\"satellite\":0,\"tor\":0,\"tor_exit_nodes\":0,\"vpn\":6,\"relay\":0,\"proxy\":0,\"hosting\":44,\"service\":6}"},"geometry":{"type":"Point","coordinates":[5.29167,52.17333]}},{"type":"Feature","properties":{"country_code":"CHN","city":"Chengdu","geoname_id":"1815286","downloaders":"{\"size\":5824,\"mobile\":4,\"satellite\":0,\"tor\":0,\"tor_exit_nodes\":0,\"vpn\":333,\"relay\":0,\"proxy\":0,\"hosting\":201,\"service\":0}","uploaders":"{\"size\":144,\"mobile\":0,\"satellite\":0,\"tor\":0,\"tor_exit_nodes\":0,\"vpn\":2,\"relay\":0,\"proxy\":0,\"hosting\":0,\"service\":0}"},"geometry":{"type":"Point","coordinates":[104.06667,30.66667]}},{"type":"Feature","properties":{"country_code":"AUS","city":"Perth","geoname_id":"2063523","downloaders":"{\"size\":5756,\"mobile\":211,\"satellite\":37,\"tor\":0,\"tor_exit_nodes\":0,\"vpn\":1846,\"relay\":0,\"proxy\":15,\"hosting\":1982,\"service\":1766}","uploaders":"{\"size\":631,\"mobile\":33,\"satellite\":2,\"tor\":0,\"tor_exit_nodes\":0,\"vpn\":222,\"relay\":0,\"proxy\":1,\"hosting\":232,\"service\":221}"},"geometry":{"type":"Point","coordinates":[115.8614,-31.95224]}},{"type":"Feature","properties":{"country_code":"FRA","city":"Marseille","geoname_id":"2995469","downloaders":"{\"size\":5743,\"mobile\":810,\"satellite\":0,\"tor\":0,\"tor_exit_nodes\":0,\"vpn\":2362,\"relay\":1,\"proxy\":0,\"hosting\":2518,\"service\":2357}","uploaders":"{\"size\":208,\"mobile\":1,\"satellite\":0,\"tor\":0,\"tor_exit_nodes\":0,\"vpn\":195,\"relay\":0,\"proxy\":0,\"hosting\":198,\"service\":195}"},"geometry":{"type":"Point","coordinates":[5.38107,43.29695]}},{"type":"Feature","properties":{"country_code":"AUT","city":"Vienna","geoname_id":"2761369","downloaders":"{\"size\":5741,\"mobile\":808,\"satellite\":11,\"tor\":0,\"tor_exit_nodes\":0,\"vpn\":1810,\"relay\":0,\"proxy\":15,\"hosting\":2016,\"service\":1734}","uploaders":"{\"size\":286,\"mobile\":60,\"satellite\":0,\"tor\":0,\"tor_exit_nodes\":0,\"vpn\":171,\"relay\":0,\"proxy\":0,\"hosting\":174,\"service\":171}"},"geometry":{"type":"Point","coordinates":[16.37208,48.20849]}},{"type":"Feature","properties":{"country_code":"GBR","city":"Manchester","geoname_id":"2643123","downloaders":"{\"size\":5560,\"mobile\":323,\"satellite\":0,\"tor\":0,\"tor_exit_nodes\":0,\"vpn\":3644,\"relay\":2,\"proxy\":0,\"hosting\":3251,\"service\":3482}","uploaders":"{\"size\":792,\"mobile\":7,\"satellite\":0,\"tor\":0,\"tor_exit_nodes\":0,\"vpn\":712,\"relay\":0,\"proxy\":0,\"hosting\":672,\"service\":702}"},"geometry":{"type":"Point","coordinates":[-2.23743,53.48095]}},{"type":"Feature","properties":{"country_code":"BRA","city":"Rio de Janeiro","geoname_id":"3451190","downloaders":"{\"size\":5545,\"mobile\":456,\"satellite\":0,\"tor\":0,\"tor_exit_nodes\":0,\"vpn\":11,\"relay\":0,\"proxy\":0,\"hosting\":36,\"service\":1}","uploaders":"{\"size\":127,\"mobile\":31,\"satellite\":0,\"tor\":0,\"tor_exit_nodes\":0,\"vpn\":0,\"relay\":0,\"proxy\":0,\"hosting\":0,\"service\":0}"},"geometry":{"type":"Point","coordinates":[-43.18223,-22.90642]}},{"type":"Feature","properties":{"country_code":"SVK","city":"Bratislava","geoname_id":"3060972","downloaders":"{\"size\":5525,\"mobile\":442,\"satellite\":3,\"tor\":0,\"tor_exit_nodes\":0,\"vpn\":764,\"relay\":0,\"proxy\":8,\"hosting\":810,\"service\":647}","uploaders":"{\"size\":129,\"mobile\":7,\"satellite\":0,\"tor\":0,\"tor_exit_nodes\":0,\"vpn\":53,\"relay\":0,\"proxy\":0,\"hosting\":61,\"service\":53}"},"geometry":{"type":"Point","coordinates":[17.10674,48.14816]}},{"type":"Feature","properties":{"country_code":"TUR","city":"Adana","geoname_id":"325363","downloaders":"{\"size\":5515,\"mobile\":561,\"satellite\":0,\"tor\":0,\"tor_exit_nodes\":0,\"vpn\":0,\"relay\":0,\"proxy\":0,\"hosting\":0,\"service\":0}","uploaders":"{\"size\":5,\"mobile\":0,\"satellite\":0,\"tor\":0,\"tor_exit_nodes\":0,\"vpn\":0,\"relay\":0,\"proxy\":0,\"hosting\":0,\"service\":0}"},"geometry":{"type":"Point","coordinates":[35.32531,36.98615]}},{"type":"Feature","properties":{"country_code":"JPN","city":"Yokohama","geoname_id":"1848354","downloaders":"{\"size\":5425,\"mobile\":260,\"satellite\":0,\"tor\":0,\"tor_exit_nodes\":0,\"vpn\":290,\"relay\":0,\"proxy\":3,\"hosting\":53,\"service\":181}","uploaders":"{\"size\":20,\"mobile\":2,\"satellite\":0,\"tor\":0,\"tor_exit_nodes\":0,\"vpn\":0,\"relay\":0,\"proxy\":0,\"hosting\":0,\"service\":0}"},"geometry":{"type":"Point","coordinates":[139.65,35.43333]}},{"type":"Feature","properties":{"country_code":"ARG","city":"Buenos Aires","geoname_id":"3435910","downloaders":"{\"size\":5410,\"mobile\":568,\"satellite\":104,\"tor\":0,\"tor_exit_nodes\":0,\"vpn\":181,\"relay\":0,\"proxy\":0,\"hosting\":231,\"service\":148}","uploaders":"{\"size\":154,\"mobile\":3,\"satellite\":4,\"tor\":0,\"tor_exit_nodes\":0,\"vpn\":15,\"relay\":0,\"proxy\":0,\"hosting\":18,\"service\":15}"},"geometry":{"type":"Point","coordinates":[-58.37723,-34.61315]}},{"type":"Feature","properties":{"country_code":"TWN","city":"Banqiao","geoname_id":"1670029","downloaders":"{\"size\":5355,\"mobile\":31,\"satellite\":0,\"tor\":0,\"tor_exit_nodes\":0,\"vpn\":337,\"relay\":0,\"proxy\":0,\"hosting\":7,\"service\":0}","uploaders":"{\"size\":70,\"mobile\":2,\"satellite\":0,\"tor\":0,\"tor_exit_nodes\":0,\"vpn\":6,\"relay\":0,\"proxy\":0,\"hosting\":0,\"service\":0}"},"geometry":{"type":"Point","coordinates":[121.46719,25.01427]}},{"type":"Feature","properties":{"country_code":"SWE","city":"Göteborg","geoname_id":"2711537","downloaders":"{\"size\":5310,\"mobile\":523,\"satellite\":0,\"tor\":0,\"tor_exit_nodes\":0,\"vpn\":1399,\"relay\":0,\"proxy\":0,\"hosting\":1039,\"service\":1337}","uploaders":"{\"size\":208,\"mobile\":44,\"satellite\":0,\"tor\":0,\"tor_exit_nodes\":0,\"vpn\":112,\"relay\":0,\"proxy\":0,\"hosting\":108,\"service\":112}"},"geometry":{"type":"Point","coordinates":[11.96679,57.70716]}},{"type":"Feature","properties":{"country_code":"USA","city":"Leesburg","geoname_id":"4769125","downloaders":"{\"size\":5237,\"mobile\":7,\"satellite\":0,\"tor\":0,\"tor_exit_nodes\":0,\"vpn\":514,\"relay\":0,\"proxy\":0,\"hosting\":5003,\"service\":10}","uploaders":"{\"size\":319,\"mobile\":0,\"satellite\":0,\"tor\":0,\"tor_exit_nodes\":0,\"vpn\":94,\"relay\":0,\"proxy\":0,\"hosting\":316,\"service\":1}"},"geometry":{"type":"Point","coordinates":[-77.5636,39.11566]}},{"type":"Feature","properties":{"country_code":"KOR","city":"Uijeongbu-si","geoname_id":"1833788","downloaders":"{\"size\":5140,\"mobile\":10,\"satellite\":0,\"tor\":0,\"tor_exit_nodes\":0,\"vpn\":25,\"relay\":0,\"proxy\":1,\"hosting\":0,\"service\":7}","uploaders":"{\"size\":10,\"mobile\":0,\"satellite\":0,\"tor\":0,\"tor_exit_nodes\":0,\"vpn\":0,\"relay\":0,\"proxy\":0,\"hosting\":0,\"service\":0}"},"geometry":{"type":"Point","coordinates":[127.0474,37.7415]}},{"type":"Feature","properties":{"country_code":"USA","city":"San Francisco","geoname_id":"5391959","downloaders":"{\"size\":5099,\"mobile\":217,\"satellite\":0,\"tor\":0,\"tor_exit_nodes\":0,\"vpn\":3056,\"relay\":0,\"proxy\":0,\"hosting\":3101,\"service\":3016}","uploaders":"{\"size\":358,\"mobile\":25,\"satellite\":0,\"tor\":0,\"tor_exit_nodes\":0,\"vpn\":201,\"relay\":0,\"proxy\":0,\"hosting\":206,\"service\":200}"},"geometry":{"type":"Point","coordinates":[-122.41942,37.77493]}},{"type":"Feature","properties":{"country_code":"USA","city":"Houston","geoname_id":"4699066","downloaders":"{\"size\":5013,\"mobile\":276,\"satellite\":0,\"tor\":0,\"tor_exit_nodes\":0,\"vpn\":1935,\"relay\":0,\"proxy\":0,\"hosting\":2167,\"service\":1726}","uploaders":"{\"size\":566,\"mobile\":21,\"satellite\":0,\"tor\":0,\"tor_exit_nodes\":0,\"vpn\":419,\"relay\":0,\"proxy\":0,\"hosting\":465,\"service\":372}"},"geometry":{"type":"Point","coordinates":[-95.4854,29.6518]}},{"type":"Feature","properties":{"country_code":"KOR","city":"Jeju City","geoname_id":"1846266","downloaders":"{\"size\":4977,\"mobile\":1,\"satellite\":0,\"tor\":0,\"tor_exit_nodes\":0,\"vpn\":18,\"relay\":0,\"proxy\":0,\"hosting\":0,\"service\":5}","uploaders":"{\"size\":7,\"mobile\":0,\"satellite\":0,\"tor\":0,\"tor_exit_nodes\":0,\"vpn\":0,\"relay\":0,\"proxy\":0,\"hosting\":0,\"service\":0}"},"geometry":{"type":"Point","coordinates":[126.52194,33.50972]}},{"type":"Feature","properties":{"country_code":"PAK","city":"Lahore","geoname_id":"1172451","downloaders":"{\"size\":4950,\"mobile\":55,\"satellite\":0,\"tor\":0,\"tor_exit_nodes\":0,\"vpn\":25,\"relay\":0,\"proxy\":0,\"hosting\":16,\"service\":0}","uploaders":"{\"size\":53,\"mobile\":6,\"satellite\":0,\"tor\":0,\"tor_exit_nodes\":0,\"vpn\":0,\"relay\":0,\"proxy\":0,\"hosting\":0,\"service\":0}"},"geometry":{"type":"Point","coordinates":[74.35071,31.558]}},{"type":"Feature","properties":{"country_code":"DNK","city":"Copenhagen","geoname_id":"2618425","downloaders":"{\"size\":4941,\"mobile\":267,\"satellite\":0,\"tor\":1,\"tor_exit_nodes\":1,\"vpn\":1438,\"relay\":0,\"proxy\":0,\"hosting\":1413,\"service\":1048}","uploaders":"{\"size\":259,\"mobile\":47,\"satellite\":0,\"tor\":0,\"tor_exit_nodes\":0,\"vpn\":128,\"relay\":0,\"proxy\":0,\"hosting\":115,\"service\":111}"},"geometry":{"type":"Point","coordinates":[12.56553,55.67594]}},{"type":"Feature","properties":{"country_code":"CHN","city":"Wuhan","geoname_id":"1791247","downloaders":"{\"size\":4809,\"mobile\":7,\"satellite\":0,\"tor\":0,\"tor_exit_nodes\":0,\"vpn\":277,\"relay\":0,\"proxy\":0,\"hosting\":75,\"service\":0}","uploaders":"{\"size\":21,\"mobile\":0,\"satellite\":0,\"tor\":0,\"tor_exit_nodes\":0,\"vpn\":0,\"relay\":0,\"proxy\":0,\"hosting\":0,\"service\":0}"},"geometry":{"type":"Point","coordinates":[114.26667,30.58333]}},{"type":"Feature","properties":{"country_code":"KOR","city":"Chinju","geoname_id":"1846052","downloaders":"{\"size\":4694,\"mobile\":0,\"satellite\":0,\"tor\":0,\"tor_exit_nodes\":0,\"vpn\":29,\"relay\":0,\"proxy\":0,\"hosting\":0,\"service\":1}","uploaders":"{\"size\":8,\"mobile\":0,\"satellite\":0,\"tor\":0,\"tor_exit_nodes\":0,\"vpn\":0,\"relay\":0,\"proxy\":0,\"hosting\":0,\"service\":0}"},"geometry":{"type":"Point","coordinates":[128.08472,35.19278]}},{"type":"Feature","properties":{"country_code":"NLD","city":"Rotterdam","geoname_id":"2747891","downloaders":"{\"size\":4679,\"mobile\":175,\"satellite\":0,\"tor\":0,\"tor_exit_nodes\":0,\"vpn\":418,\"relay\":0,\"proxy\":0,\"hosting\":494,\"service\":350}","uploaders":"{\"size\":172,\"mobile\":26,\"satellite\":0,\"tor\":0,\"tor_exit_nodes\":0,\"vpn\":46,\"relay\":0,\"proxy\":0,\"hosting\":41,\"service\":41}"},"geometry":{"type":"Point","coordinates":[4.47917,51.9225]}},{"type":"Feature","properties":{"country_code":"CHN","city":"Shaoxing","geoname_id":"1795855","downloaders":"{\"size\":4659,\"mobile\":0,\"satellite\":0,\"tor\":0,\"tor_exit_nodes\":0,\"vpn\":9,\"relay\":0,\"proxy\":0,\"hosting\":4063,\"service\":0}","uploaders":"{\"size\":3,\"mobile\":0,\"satellite\":0,\"tor\":0,\"tor_exit_nodes\":0,\"vpn\":0,\"relay\":0,\"proxy\":0,\"hosting\":0,\"service\":0}"},"geometry":{"type":"Point","coordinates":[120.57864,30.00237]}},{"type":"Feature","properties":{"country_code":"USA","city":"Boston","geoname_id":"4930956","downloaders":"{\"size\":4641,\"mobile\":135,\"satellite\":0,\"tor\":0,\"tor_exit_nodes\":0,\"vpn\":3492,\"relay\":0,\"proxy\":0,\"hosting\":3510,\"service\":2843}","uploaders":"{\"size\":618,\"mobile\":23,\"satellite\":0,\"tor\":0,\"tor_exit_nodes\":0,\"vpn\":546,\"relay\":0,\"proxy\":0,\"hosting\":546,\"service\":474}"},"geometry":{"type":"Point","coordinates":[-71.05977,42.35843]}},{"type":"Feature","properties":{"country_code":"FRA","city":"Lauterbourg","geoname_id":"3005948","downloaders":"{\"size\":4500,\"mobile\":0,\"satellite\":0,\"tor\":0,\"tor_exit_nodes\":0,\"vpn\":81,\"relay\":0,\"proxy\":13,\"hosting\":4366,\"service\":5}","uploaders":"{\"size\":34,\"mobile\":0,\"satellite\":0,\"tor\":0,\"tor_exit_nodes\":0,\"vpn\":1,\"relay\":0,\"proxy\":0,\"hosting\":32,\"service\":0}"},"geometry":{"type":"Point","coordinates":[8.17846,48.97515]}},{"type":"Feature","properties":{"country_code":"TUR","city":"Çankaya","geoname_id":"6955677","downloaders":"{\"size\":4484,\"mobile\":14,\"satellite\":0,\"tor\":0,\"tor_exit_nodes\":0,\"vpn\":11,\"relay\":0,\"proxy\":0,\"hosting\":11,\"service\":11}","uploaders":"{\"size\":12,\"mobile\":0,\"satellite\":0,\"tor\":0,\"tor_exit_nodes\":0,\"vpn\":3,\"relay\":0,\"proxy\":0,\"hosting\":3,\"service\":3}"},"geometry":{"type":"Point","coordinates":[32.86268,39.9179]}},{"type":"Feature","properties":{"country_code":"MEX","city":"Guadalajara","geoname_id":"4005539","downloaders":"{\"size\":4462,\"mobile\":16,\"satellite\":0,\"tor\":0,\"tor_exit_nodes\":0,\"vpn\":5,\"relay\":0,\"proxy\":0,\"hosting\":1,\"service\":0}","uploaders":"{\"size\":29,\"mobile\":0,\"satellite\":0,\"tor\":0,\"tor_exit_nodes\":0,\"vpn\":0,\"relay\":0,\"proxy\":0,\"hosting\":0,\"service\":0}"},"geometry":{"type":"Point","coordinates":[-103.34749,20.67738]}},{"type":"Feature","properties":{"country_code":"PRT","city":"Lisbon","geoname_id":"2267057","downloaders":"{\"size\":4400,\"mobile\":499,\"satellite\":7,\"tor\":0,\"tor_exit_nodes\":0,\"vpn\":747,\"relay\":0,\"proxy\":0,\"hosting\":760,\"service\":661}","uploaders":"{\"size\":281,\"mobile\":41,\"satellite\":0,\"tor\":0,\"tor_exit_nodes\":0,\"vpn\":83,\"relay\":0,\"proxy\":0,\"hosting\":83,\"service\":83}"},"geometry":{"type":"Point","coordinates":[-9.1498,38.72509]}},{"type":"Feature","properties":{"country_code":"BGR","city":"Plovdiv","geoname_id":"728193","downloaders":"{\"size\":4393,\"mobile\":97,\"satellite\":0,\"tor\":0,\"tor_exit_nodes\":0,\"vpn\":76,\"relay\":0,\"proxy\":0,\"hosting\":50,\"service\":0}","uploaders":"{\"size\":4,\"mobile\":0,\"satellite\":0,\"tor\":0,\"tor_exit_nodes\":0,\"vpn\":0,\"relay\":0,\"proxy\":0,\"hosting\":0,\"service\":0}"},"geometry":{"type":"Point","coordinates":[24.75001,42.15387]}},{"type":"Feature","properties":{"country_code":"CHL","city":"Santiago","geoname_id":"3871336","downloaders":"{\"size\":4387,\"mobile\":680,\"satellite\":37,\"tor\":0,\"tor_exit_nodes\":0,\"vpn\":314,\"relay\":0,\"proxy\":0,\"hosting\":543,\"service\":308}","uploaders":"{\"size\":143,\"mobile\":21,\"satellite\":2,\"tor\":0,\"tor_exit_nodes\":0,\"vpn\":15,\"relay\":0,\"proxy\":0,\"hosting\":21,\"service\":15}"},"geometry":{"type":"Point","coordinates":[-70.64827,-33.45694]}},{"type":"Feature","properties":{"country_code":"RUS","city":"Tambov","geoname_id":"484646","downloaders":"{\"size\":4372,\"mobile\":1,\"satellite\":0,\"tor\":0,\"tor_exit_nodes\":0,\"vpn\":30,\"relay\":0,\"proxy\":0,\"hosting\":0,\"service\":0}","uploaders":"{\"size\":3,\"mobile\":0,\"satellite\":0,\"tor\":0,\"tor_exit_nodes\":0,\"vpn\":0,\"relay\":0,\"proxy\":0,\"hosting\":0,\"service\":0}"},"geometry":{"type":"Point","coordinates":[41.44102,52.73632]}},{"type":"Feature","properties":{"country_code":"CHN","city":"Hefei","geoname_id":"1808722","downloaders":"{\"size\":4322,\"mobile\":0,\"satellite\":0,\"tor\":0,\"tor_exit_nodes\":0,\"vpn\":209,\"relay\":0,\"proxy\":0,\"hosting\":0,\"service\":0}","uploaders":"{\"size\":7,\"mobile\":0,\"satellite\":0,\"tor\":0,\"tor_exit_nodes\":0,\"vpn\":0,\"relay\":0,\"proxy\":0,\"hosting\":0,\"service\":0}"},"geometry":{"type":"Point","coordinates":[117.28083,31.86389]}},{"type":"Feature","properties":{"country_code":"COL","city":"Bogotá","geoname_id":"3688689","downloaders":"{\"size\":4258,\"mobile\":1538,\"satellite\":57,\"tor\":0,\"tor_exit_nodes\":0,\"vpn\":459,\"relay\":0,\"proxy\":0,\"hosting\":507,\"service\":443}","uploaders":"{\"size\":107,\"mobile\":3,\"satellite\":10,\"tor\":0,\"tor_exit_nodes\":0,\"vpn\":59,\"relay\":0,\"proxy\":0,\"hosting\":60,\"service\":59}"},"geometry":{"type":"Point","coordinates":[-74.08175,4.60971]}},{"type":"Feature","properties":{"country_code":"RUS","city":"Mytishchi","geoname_id":"523812","downloaders":"{\"size\":4194,\"mobile\":19,\"satellite\":0,\"tor\":0,\"tor_exit_nodes\":0,\"vpn\":209,\"relay\":0,\"proxy\":0,\"hosting\":276,\"service\":5}","uploaders":"{\"size\":8,\"mobile\":0,\"satellite\":0,\"tor\":0,\"tor_exit_nodes\":0,\"vpn\":0,\"relay\":0,\"proxy\":0,\"hosting\":0,\"service\":0}"},"geometry":{"type":"Point","coordinates":[37.72964,55.91099]}},{"type":"Feature","properties":{"country_code":"NLD","city":"Naaldwijk","geoname_id":"2750523","downloaders":"{\"size\":4166,\"mobile\":0,\"satellite\":0,\"tor\":0,\"tor_exit_nodes\":0,\"vpn\":1567,\"relay\":0,\"proxy\":0,\"hosting\":4104,\"service\":1398}","uploaders":"{\"size\":102,\"mobile\":0,\"satellite\":0,\"tor\":0,\"tor_exit_nodes\":0,\"vpn\":75,\"relay\":0,\"proxy\":0,\"hosting\":101,\"service\":75}"},"geometry":{"type":"Point","coordinates":[4.20972,51.99417]}},{"type":"Feature","properties":{"country_code":"CAN","city":"Willowdale","geoname_id":"8558534","downloaders":"{\"size\":4157,\"mobile\":884,\"satellite\":0,\"tor\":0,\"tor_exit_nodes\":0,\"vpn\":11,\"relay\":0,\"proxy\":1,\"hosting\":0,\"service\":0}","uploaders":"{\"size\":247,\"mobile\":52,\"satellite\":0,\"tor\":0,\"tor_exit_nodes\":0,\"vpn\":0,\"relay\":0,\"proxy\":0,\"hosting\":0,\"service\":0}"},"geometry":{"type":"Point","coordinates":[-79.39909,43.76672]}},{"type":"Feature","properties":{"country_code":"KOR","city":"Chuncheon","geoname_id":"1845136","downloaders":"{\"size\":4115,\"mobile\":4,\"satellite\":0,\"tor\":0,\"tor_exit_nodes\":0,\"vpn\":19,\"relay\":0,\"proxy\":1,\"hosting\":889,\"service\":1}","uploaders":"{\"size\":4,\"mobile\":0,\"satellite\":0,\"tor\":0,\"tor_exit_nodes\":0,\"vpn\":0,\"relay\":0,\"proxy\":0,\"hosting\":0,\"service\":0}"},"geometry":{"type":"Point","coordinates":[127.73417,37.87472]}},{"type":"Feature","properties":{"country_code":"AUS","city":"Adelaide","geoname_id":"2078025","downloaders":"{\"size\":4079,\"mobile\":316,\"satellite\":0,\"tor\":0,\"tor_exit_nodes\":0,\"vpn\":1019,\"relay\":0,\"proxy\":4,\"hosting\":1041,\"service\":937}","uploaders":"{\"size\":464,\"mobile\":52,\"satellite\":0,\"tor\":0,\"tor_exit_nodes\":0,\"vpn\":130,\"relay\":0,\"proxy\":0,\"hosting\":134,\"service\":130}"},"geometry":{"type":"Point","coordinates":[138.59863000000002,-34.92866]}},{"type":"Feature","properties":{"country_code":"UZB","city":"Tashkent","geoname_id":"1512569","downloaders":"{\"size\":4049,\"mobile\":65,\"satellite\":0,\"tor\":0,\"tor_exit_nodes\":0,\"vpn\":345,\"relay\":0,\"proxy\":0,\"hosting\":3246,\"service\":300}","uploaders":"{\"size\":29,\"mobile\":0,\"satellite\":0,\"tor\":0,\"tor_exit_nodes\":0,\"vpn\":3,\"relay\":0,\"proxy\":0,\"hosting\":29,\"service\":3}"},"geometry":{"type":"Point","coordinates":[69.21627,41.26465]}},{"type":"Feature","properties":{"country_code":"TWN","city":"Taichung","geoname_id":"1668399","downloaders":"{\"size\":4038,\"mobile\":100,\"satellite\":0,\"tor\":0,\"tor_exit_nodes\":0,\"vpn\":167,\"relay\":0,\"proxy\":0,\"hosting\":0,\"service\":4}","uploaders":"{\"size\":11,\"mobile\":1,\"satellite\":0,\"tor\":0,\"tor_exit_nodes\":0,\"vpn\":0,\"relay\":0,\"proxy\":0,\"hosting\":0,\"service\":0}"},"geometry":{"type":"Point","coordinates":[120.6839,24.1469]}},{"type":"Feature","properties":{"country_code":"USA","city":"Philadelphia","geoname_id":"4560349","downloaders":"{\"size\":4001,\"mobile\":332,\"satellite\":0,\"tor\":0,\"tor_exit_nodes\":0,\"vpn\":390,\"relay\":1,\"proxy\":0,\"hosting\":379,\"service\":363}","uploaders":"{\"size\":236,\"mobile\":40,\"satellite\":0,\"tor\":0,\"tor_exit_nodes\":0,\"vpn\":45,\"relay\":0,\"proxy\":0,\"hosting\":46,\"service\":45}"},"geometry":{"type":"Point","coordinates":[-75.16362,39.95238]}},{"type":"Feature","properties":{"country_code":"USA","city":"Washington","geoname_id":"4140963","downloaders":"{\"size\":3994,\"mobile\":49,\"satellite\":0,\"tor\":0,\"tor_exit_nodes\":0,\"vpn\":2478,\"relay\":2,\"proxy\":0,\"hosting\":2157,\"service\":2018}","uploaders":"{\"size\":418,\"mobile\":18,\"satellite\":0,\"tor\":0,\"tor_exit_nodes\":0,\"vpn\":329,\"relay\":0,\"proxy\":0,\"hosting\":271,\"service\":274}"},"geometry":{"type":"Point","coordinates":[-77.03637,38.89511]}},{"type":"Feature","properties":{"country_code":"USA","city":"Salt Lake City","geoname_id":"5780993","downloaders":"{\"size\":3928,\"mobile\":29,\"satellite\":8,\"tor\":0,\"tor_exit_nodes\":0,\"vpn\":2227,\"relay\":0,\"proxy\":0,\"hosting\":2529,\"service\":2213}","uploaders":"{\"size\":628,\"mobile\":3,\"satellite\":0,\"tor\":0,\"tor_exit_nodes\":0,\"vpn\":454,\"relay\":0,\"proxy\":0,\"hosting\":549,\"service\":454}"},"geometry":{"type":"Point","coordinates":[-111.89105,40.76078]}},{"type":"Feature","properties":{"country_code":"ZAF","city":"Johannesburg","geoname_id":"993800","downloaders":"{\"size\":3926,\"mobile\":523,\"satellite\":1,\"tor\":0,\"tor_exit_nodes\":0,\"vpn\":446,\"relay\":0,\"proxy\":0,\"hosting\":1532,\"service\":404}","uploaders":"{\"size\":350,\"mobile\":58,\"satellite\":0,\"tor\":0,\"tor_exit_nodes\":0,\"vpn\":34,\"relay\":0,\"proxy\":0,\"hosting\":115,\"service\":34}"},"geometry":{"type":"Point","coordinates":[28.04363,-26.20227]}},{"type":"Feature","properties":{"country_code":"GRC","city":"Athens","geoname_id":"264371","downloaders":"{\"size\":3917,\"mobile\":1149,\"satellite\":11,\"tor\":0,\"tor_exit_nodes\":0,\"vpn\":668,\"relay\":0,\"proxy\":0,\"hosting\":779,\"service\":649}","uploaders":"{\"size\":427,\"mobile\":122,\"satellite\":3,\"tor\":0,\"tor_exit_nodes\":0,\"vpn\":125,\"relay\":0,\"proxy\":0,\"hosting\":137,\"service\":125}"},"geometry":{"type":"Point","coordinates":[23.72784,37.98376]}},{"type":"Feature","properties":{"country_code":"POL","city":"Gdańsk","geoname_id":"3099434","downloaders":"{\"size\":3787,\"mobile\":93,\"satellite\":0,\"tor\":0,\"tor_exit_nodes\":0,\"vpn\":67,\"relay\":0,\"proxy\":4,\"hosting\":68,\"service\":48}","uploaders":"{\"size\":14,\"mobile\":0,\"satellite\":0,\"tor\":0,\"tor_exit_nodes\":0,\"vpn\":5,\"relay\":0,\"proxy\":0,\"hosting\":5,\"service\":5}"},"geometry":{"type":"Point","coordinates":[18.64912,54.35227]}},{"type":"Feature","properties":{"country_code":"DEU","city":"Nürnberg","geoname_id":"2861650","downloaders":"{\"size\":3717,\"mobile\":102,\"satellite\":0,\"tor\":4,\"tor_exit_nodes\":4,\"vpn\":58,\"relay\":0,\"proxy\":0,\"hosting\":3376,\"service\":20}","uploaders":"{\"size\":81,\"mobile\":0,\"satellite\":0,\"tor\":0,\"tor_exit_nodes\":0,\"vpn\":0,\"relay\":0,\"proxy\":0,\"hosting\":81,\"service\":0}"},"geometry":{"type":"Point","coordinates":[11.0222,49.4453]}},{"type":"Feature","properties":{"country_code":"USA","city":"Jersey City","geoname_id":"5099836","downloaders":"{\"size\":3713,\"mobile\":0,\"satellite\":0,\"tor\":0,\"tor_exit_nodes\":0,\"vpn\":3120,\"relay\":0,\"proxy\":0,\"hosting\":1598,\"service\":3111}","uploaders":"{\"size\":502,\"mobile\":0,\"satellite\":0,\"tor\":0,\"tor_exit_nodes\":0,\"vpn\":494,\"relay\":0,\"proxy\":0,\"hosting\":261,\"service\":494}"},"geometry":{"type":"Point","coordinates":[-74.07764,40.72816]}},{"type":"Feature","properties":{"country_code":"CAN","city":"Calgary","geoname_id":"5913490","downloaders":"{\"size\":3694,\"mobile\":1035,\"satellite\":72,\"tor\":0,\"tor_exit_nodes\":0,\"vpn\":366,\"relay\":1,\"proxy\":1,\"hosting\":144,\"service\":315}","uploaders":"{\"size\":282,\"mobile\":61,\"satellite\":11,\"tor\":0,\"tor_exit_nodes\":0,\"vpn\":58,\"relay\":0,\"proxy\":0,\"hosting\":37,\"service\":57}"},"geometry":{"type":"Point","coordinates":[-114.08529,51.05011]}},{"type":"Feature","properties":{"country_code":"MYS","city":"Kuala Lumpur","geoname_id":"1735161","downloaders":"{\"size\":3694,\"mobile\":1130,\"satellite\":7,\"tor\":0,\"tor_exit_nodes\":0,\"vpn\":377,\"relay\":0,\"proxy\":0,\"hosting\":428,\"service\":355}","uploaders":"{\"size\":172,\"mobile\":10,\"satellite\":0,\"tor\":0,\"tor_exit_nodes\":0,\"vpn\":87,\"relay\":0,\"proxy\":0,\"hosting\":84,\"service\":84}"},"geometry":{"type":"Point","coordinates":[101.68653,3.1412]}},{"type":"Feature","properties":{"country_code":"CHN","city":"Suzhou","geoname_id":"1886760","downloaders":"{\"size\":3628,\"mobile\":0,\"satellite\":0,\"tor\":0,\"tor_exit_nodes\":0,\"vpn\":6,\"relay\":0,\"proxy\":0,\"hosting\":0,\"service\":0}","uploaders":"{\"size\":6,\"mobile\":0,\"satellite\":0,\"tor\":0,\"tor_exit_nodes\":0,\"vpn\":0,\"relay\":0,\"proxy\":0,\"hosting\":0,\"service\":0}"},"geometry":{"type":"Point","coordinates":[120.59538,31.30408]}},{"type":"Feature","properties":{"country_code":"SAU","city":"Riyadh","geoname_id":"108410","downloaders":"{\"size\":3621,\"mobile\":908,\"satellite\":0,\"tor\":0,\"tor_exit_nodes\":0,\"vpn\":22,\"relay\":0,\"proxy\":1,\"hosting\":17,\"service\":10}","uploaders":"{\"size\":76,\"mobile\":35,\"satellite\":0,\"tor\":0,\"tor_exit_nodes\":0,\"vpn\":1,\"relay\":0,\"proxy\":0,\"hosting\":1,\"service\":1}"},"geometry":{"type":"Point","coordinates":[46.72185,24.68773]}},{"type":"Feature","properties":{"country_code":"USA","city":"Secaucus","geoname_id":"5104504","downloaders":"{\"size\":3620,\"mobile\":0,\"satellite\":0,\"tor\":0,\"tor_exit_nodes\":0,\"vpn\":3322,\"relay\":0,\"proxy\":1,\"hosting\":3529,\"service\":3320}","uploaders":"{\"size\":559,\"mobile\":0,\"satellite\":0,\"tor\":0,\"tor_exit_nodes\":0,\"vpn\":539,\"relay\":0,\"proxy\":0,\"hosting\":556,\"service\":539}"},"geometry":{"type":"Point","coordinates":[-74.05653,40.78955]}},{"type":"Feature","properties":{"country_code":"UKR","city":"Lviv","geoname_id":"702550","downloaders":"{\"size\":3507,\"mobile\":119,\"satellite\":0,\"tor\":0,\"tor_exit_nodes\":0,\"vpn\":51,\"relay\":0,\"proxy\":0,\"hosting\":3,\"service\":0}","uploaders":"{\"size\":3,\"mobile\":1,\"satellite\":0,\"tor\":0,\"tor_exit_nodes\":0,\"vpn\":0,\"relay\":0,\"proxy\":0,\"hosting\":0,\"service\":0}"},"geometry":{"type":"Point","coordinates":[24.02324,49.83826]}},{"type":"Feature","properties":{"country_code":"PRT","city":"Almada","geoname_id":"2271961","downloaders":"{\"size\":3406,\"mobile\":243,\"satellite\":0,\"tor\":0,\"tor_exit_nodes\":0,\"vpn\":25,\"relay\":0,\"proxy\":0,\"hosting\":0,\"service\":0}","uploaders":"{\"size\":96,\"mobile\":9,\"satellite\":0,\"tor\":0,\"tor_exit_nodes\":0,\"vpn\":1,\"relay\":0,\"proxy\":0,\"hosting\":0,\"service\":0}"},"geometry":{"type":"Point","coordinates":[-9.1569,38.67902]}},{"type":"Feature","properties":{"country_code":"CHN","city":"Zhanjiang","geoname_id":"1784990","downloaders":"{\"size\":3320,\"mobile\":1,\"satellite\":0,\"tor\":0,\"tor_exit_nodes\":0,\"vpn\":0,\"relay\":0,\"proxy\":0,\"hosting\":0,\"service\":0}","uploaders":"{\"size\":7,\"mobile\":0,\"satellite\":0,\"tor\":0,\"tor_exit_nodes\":0,\"vpn\":0,\"relay\":0,\"proxy\":0,\"hosting\":0,\"service\":0}"},"geometry":{"type":"Point","coordinates":[110.38749,21.23391]}},{"type":"Feature","properties":{"country_code":"SWE","city":"Malmö","geoname_id":"2692969","downloaders":"{\"size\":3306,\"mobile\":82,\"satellite\":0,\"tor\":0,\"tor_exit_nodes\":0,\"vpn\":1480,\"relay\":0,\"proxy\":0,\"hosting\":1392,\"service\":1427}","uploaders":"{\"size\":254,\"mobile\":8,\"satellite\":0,\"tor\":0,\"tor_exit_nodes\":0,\"vpn\":206,\"relay\":0,\"proxy\":0,\"hosting\":193,\"service\":206}"},"geometry":{"type":"Point","coordinates":[13.00073,55.60587]}},{"type":"Feature","properties":{"country_code":"RUS","city":"Murino","geoname_id":"524311","downloaders":"{\"size\":3298,\"mobile\":0,\"satellite\":0,\"tor\":0,\"tor_exit_nodes\":0,\"vpn\":12,\"relay\":0,\"proxy\":0,\"hosting\":0,\"service\":0}","uploaders":"{\"size\":3,\"mobile\":0,\"satellite\":0,\"tor\":0,\"tor_exit_nodes\":0,\"vpn\":0,\"relay\":0,\"proxy\":0,\"hosting\":0,\"service\":0}"},"geometry":{"type":"Point","coordinates":[30.45204,60.04796]}},{"type":"Feature","properties":{"country_code":"SAU","city":"Jeddah","geoname_id":"105343","downloaders":"{\"size\":3294,\"mobile\":604,\"satellite\":0,\"tor\":0,\"tor_exit_nodes\":0,\"vpn\":11,\"relay\":0,\"proxy\":0,\"hosting\":11,\"service\":4}","uploaders":"{\"size\":49,\"mobile\":1,\"satellite\":0,\"tor\":0,\"tor_exit_nodes\":0,\"vpn\":0,\"relay\":0,\"proxy\":0,\"hosting\":0,\"service\":0}"},"geometry":{"type":"Point","coordinates":[39.18624,21.49012]}},{"type":"Feature","properties":{"country_code":"EGY","city":"Cairo","geoname_id":"360630","downloaders":"{\"size\":3289,\"mobile\":199,\"satellite\":0,\"tor\":0,\"tor_exit_nodes\":0,\"vpn\":4,\"relay\":0,\"proxy\":0,\"hosting\":9,\"service\":4}","uploaders":"{\"size\":50,\"mobile\":3,\"satellite\":0,\"tor\":0,\"tor_exit_nodes\":0,\"vpn\":1,\"relay\":0,\"proxy\":0,\"hosting\":1,\"service\":1}"},"geometry":{"type":"Point","coordinates":[31.24967,30.06263]}},{"type":"Feature","properties":{"country_code":"FRA","city":"Strasbourg","geoname_id":"2973783","downloaders":"{\"size\":3284,\"mobile\":292,\"satellite\":0,\"tor\":0,\"tor_exit_nodes\":0,\"vpn\":174,\"relay\":1,\"proxy\":0,\"hosting\":2151,\"service\":147}","uploaders":"{\"size\":24,\"mobile\":1,\"satellite\":0,\"tor\":0,\"tor_exit_nodes\":0,\"vpn\":15,\"relay\":0,\"proxy\":0,\"hosting\":21,\"service\":15}"},"geometry":{"type":"Point","coordinates":[7.74553,48.58392]}},{"type":"Feature","properties":{"country_code":"CHN","city":"Changsha","geoname_id":"1815577","downloaders":"{\"size\":3259,\"mobile\":0,\"satellite\":0,\"tor\":0,\"tor_exit_nodes\":0,\"vpn\":111,\"relay\":0,\"proxy\":0,\"hosting\":0,\"service\":0}","uploaders":"{\"size\":12,\"mobile\":0,\"satellite\":0,\"tor\":0,\"tor_exit_nodes\":0,\"vpn\":0,\"relay\":0,\"proxy\":0,\"hosting\":0,\"service\":0}"},"geometry":{"type":"Point","coordinates":[112.97087,28.19874]}},{"type":"Feature","properties":{"country_code":"USA","city":"Buffalo","geoname_id":"5110629","downloaders":"{\"size\":3257,\"mobile\":0,\"satellite\":0,\"tor\":0,\"tor_exit_nodes\":0,\"vpn\":2041,\"relay\":0,\"proxy\":3,\"hosting\":2946,\"service\":2033}","uploaders":"{\"size\":455,\"mobile\":0,\"satellite\":0,\"tor\":0,\"tor_exit_nodes\":0,\"vpn\":346,\"relay\":0,\"proxy\":0,\"hosting\":437,\"service\":346}"},"geometry":{"type":"Point","coordinates":[-78.87837,42.88645]}},{"type":"Feature","properties":{"country_code":"CHN","city":"Guangzhou","geoname_id":"1809858","downloaders":"{\"size\":3254,\"mobile\":50,\"satellite\":0,\"tor\":0,\"tor_exit_nodes\":0,\"vpn\":113,\"relay\":0,\"proxy\":0,\"hosting\":1232,\"service\":0}","uploaders":"{\"size\":15,\"mobile\":0,\"satellite\":0,\"tor\":0,\"tor_exit_nodes\":0,\"vpn\":0,\"relay\":0,\"proxy\":0,\"hosting\":2,\"service\":0}"},"geometry":{"type":"Point","coordinates":[113.25,23.11667]}},{"type":"Feature","properties":{"country_code":"RUS","city":"Istra","geoname_id":"555746","downloaders":"{\"size\":3250,\"mobile\":1,\"satellite\":0,\"tor\":0,\"tor_exit_nodes\":0,\"vpn\":359,\"relay\":0,\"proxy\":0,\"hosting\":0,\"service\":211}","uploaders":"{\"size\":3,\"mobile\":0,\"satellite\":0,\"tor\":0,\"tor_exit_nodes\":0,\"vpn\":0,\"relay\":0,\"proxy\":0,\"hosting\":0,\"service\":0}"},"geometry":{"type":"Point","coordinates":[36.86876,55.91979]}},{"type":"Feature","properties":{"country_code":"CHN","city":"Nanning","geoname_id":"1799869","downloaders":"{\"size\":3224,\"mobile\":1,\"satellite\":0,\"tor\":0,\"tor_exit_nodes\":0,\"vpn\":103,\"relay\":0,\"proxy\":0,\"hosting\":0,\"service\":0}","uploaders":"{\"size\":15,\"mobile\":0,\"satellite\":0,\"tor\":0,\"tor_exit_nodes\":0,\"vpn\":0,\"relay\":0,\"proxy\":0,\"hosting\":0,\"service\":0}"},"geometry":{"type":"Point","coordinates":[108.31667,22.81667]}},{"type":"Feature","properties":{"country_code":"CAN","city":"Vaughan","geoname_id":"6173577","downloaders":"{\"size\":3153,\"mobile\":778,\"satellite\":0,\"tor\":0,\"tor_exit_nodes\":0,\"vpn\":21,\"relay\":1,\"proxy\":0,\"hosting\":2,\"service\":1}","uploaders":"{\"size\":208,\"mobile\":48,\"satellite\":0,\"tor\":0,\"tor_exit_nodes\":0,\"vpn\":1,\"relay\":0,\"proxy\":0,\"hosting\":0,\"service\":0}"},"geometry":{"type":"Point","coordinates":[-79.49827,43.8361]}},{"type":"Feature","properties":{"country_code":"MAR","city":"Casablanca","geoname_id":"2553604","downloaders":"{\"size\":3139,\"mobile\":1597,\"satellite\":0,\"tor\":0,\"tor_exit_nodes\":0,\"vpn\":3,\"relay\":0,\"proxy\":0,\"hosting\":1,\"service\":0}","uploaders":"{\"size\":31,\"mobile\":10,\"satellite\":0,\"tor\":0,\"tor_exit_nodes\":0,\"vpn\":0,\"relay\":0,\"proxy\":0,\"hosting\":0,\"service\":0}"},"geometry":{"type":"Point","coordinates":[-7.61138,33.58831]}},{"type":"Feature","properties":{"country_code":"USA","city":"Portland","geoname_id":"5746545","downloaders":"{\"size\":3135,\"mobile\":177,\"satellite\":0,\"tor\":0,\"tor_exit_nodes\":0,\"vpn\":417,\"relay\":0,\"proxy\":0,\"hosting\":561,\"service\":362}","uploaders":"{\"size\":209,\"mobile\":21,\"satellite\":0,\"tor\":0,\"tor_exit_nodes\":0,\"vpn\":60,\"relay\":0,\"proxy\":0,\"hosting\":61,\"service\":60}"},"geometry":{"type":"Point","coordinates":[-122.67621,45.52345]}},{"type":"Feature","properties":{"country_code":"CHN","city":"Chongqing","geoname_id":"1814906","downloaders":"{\"size\":3130,\"mobile\":0,\"satellite\":0,\"tor\":0,\"tor_exit_nodes\":0,\"vpn\":109,\"relay\":0,\"proxy\":0,\"hosting\":3,\"service\":0}","uploaders":"{\"size\":14,\"mobile\":0,\"satellite\":0,\"tor\":0,\"tor_exit_nodes\":0,\"vpn\":0,\"relay\":0,\"proxy\":0,\"hosting\":0,\"service\":0}"},"geometry":{"type":"Point","coordinates":[106.55771,29.56026]}},{"type":"Feature","properties":{"country_code":"TUR","city":"Eskişehir","geoname_id":"315202","downloaders":"{\"size\":3130,\"mobile\":1213,\"satellite\":0,\"tor\":0,\"tor_exit_nodes\":0,\"vpn\":0,\"relay\":0,\"proxy\":0,\"hosting\":0,\"service\":0}","uploaders":"{\"size\":5,\"mobile\":5,\"satellite\":0,\"tor\":0,\"tor_exit_nodes\":0,\"vpn\":0,\"relay\":0,\"proxy\":0,\"hosting\":0,\"service\":0}"},"geometry":{"type":"Point","coordinates":[30.52056,39.77667]}},{"type":"Feature","properties":{"country_code":"NLD","city":"The Hague","geoname_id":"2747373","downloaders":"{\"size\":3110,\"mobile\":3,\"satellite\":0,\"tor\":0,\"tor_exit_nodes\":0,\"vpn\":290,\"relay\":0,\"proxy\":0,\"hosting\":242,\"service\":237}","uploaders":"{\"size\":142,\"mobile\":1,\"satellite\":0,\"tor\":0,\"tor_exit_nodes\":0,\"vpn\":40,\"relay\":0,\"proxy\":0,\"hosting\":38,\"service\":38}"},"geometry":{"type":"Point","coordinates":[4.29861,52.07667]}},{"type":"Feature","properties":{"country_code":"ZAF","city":"Cape Town","geoname_id":"3369157","downloaders":"{\"size\":3096,\"mobile\":308,\"satellite\":0,\"tor\":0,\"tor_exit_nodes\":0,\"vpn\":52,\"relay\":0,\"proxy\":1,\"hosting\":1132,\"service\":0}","uploaders":"{\"size\":221,\"mobile\":31,\"satellite\":0,\"tor\":0,\"tor_exit_nodes\":0,\"vpn\":8,\"relay\":0,\"proxy\":0,\"hosting\":80,\"service\":0}"},"geometry":{"type":"Point","coordinates":[18.42322,-33.92584]}},{"type":"Feature","properties":{"country_code":"TWN","city":"Kaohsiung","geoname_id":"1673820","downloaders":"{\"size\":3078,\"mobile\":117,\"satellite\":0,\"tor\":0,\"tor_exit_nodes\":0,\"vpn\":70,\"relay\":0,\"proxy\":0,\"hosting\":0,\"service\":3}","uploaders":"{\"size\":26,\"mobile\":0,\"satellite\":0,\"tor\":0,\"tor_exit_nodes\":0,\"vpn\":1,\"relay\":0,\"proxy\":0,\"hosting\":0,\"service\":0}"},"geometry":{"type":"Point","coordinates":[120.31333,22.61626]}},{"type":"Feature","properties":{"country_code":"PRT","city":"Queluz","geoname_id":"2264268","downloaders":"{\"size\":3032,\"mobile\":147,\"satellite\":0,\"tor\":0,\"tor_exit_nodes\":0,\"vpn\":27,\"relay\":0,\"proxy\":0,\"hosting\":0,\"service\":0}","uploaders":"{\"size\":69,\"mobile\":0,\"satellite\":0,\"tor\":0,\"tor_exit_nodes\":0,\"vpn\":1,\"relay\":0,\"proxy\":0,\"hosting\":0,\"service\":0}"},"geometry":{"type":"Point","coordinates":[-9.25451,38.75657]}},{"type":"Feature","properties":{"country_code":"USA","city":"Las Vegas","geoname_id":"5506956","downloaders":"{\"size\":2999,\"mobile\":125,\"satellite\":0,\"tor\":1,\"tor_exit_nodes\":1,\"vpn\":1002,\"relay\":1,\"proxy\":3,\"hosting\":1194,\"service\":852}","uploaders":"{\"size\":127,\"mobile\":7,\"satellite\":0,\"tor\":0,\"tor_exit_nodes\":0,\"vpn\":52,\"relay\":0,\"proxy\":0,\"hosting\":83,\"service\":45}"},"geometry":{"type":"Point","coordinates":[-115.13722,36.17497]}},{"type":"Feature","properties":{"country_code":"TUR","city":"Gebze","geoname_id":"747014","downloaders":"{\"size\":2986,\"mobile\":239,\"satellite\":0,\"tor\":0,\"tor_exit_nodes\":0,\"vpn\":0,\"relay\":0,\"proxy\":0,\"hosting\":1,\"service\":0}","uploaders":"{\"size\":4,\"mobile\":0,\"satellite\":0,\"tor\":0,\"tor_exit_nodes\":0,\"vpn\":0,\"relay\":0,\"proxy\":0,\"hosting\":0,\"service\":0}"},"geometry":{"type":"Point","coordinates":[29.43068,40.80276]}},{"type":"Feature","properties":{"country_code":"MDA","city":"Chisinau","geoname_id":"618426","downloaders":"{\"size\":2928,\"mobile\":62,\"satellite\":0,\"tor\":0,\"tor_exit_nodes\":0,\"vpn\":170,\"relay\":0,\"proxy\":1,\"hosting\":429,\"service\":117}","uploaders":"{\"size\":19,\"mobile\":0,\"satellite\":0,\"tor\":0,\"tor_exit_nodes\":0,\"vpn\":11,\"relay\":0,\"proxy\":0,\"hosting\":19,\"service\":11}"},"geometry":{"type":"Point","coordinates":[28.85938,47.00902]}},{"type":"Feature","properties":{"country_code":"CAN","city":"Beauharnois","geoname_id":"5896495","downloaders":"{\"size\":2925,\"mobile\":0,\"satellite\":0,\"tor\":0,\"tor_exit_nodes\":0,\"vpn\":152,\"relay\":0,\"proxy\":5,\"hosting\":2914,\"service\":139}","uploaders":"{\"size\":120,\"mobile\":0,\"satellite\":0,\"tor\":0,\"tor_exit_nodes\":0,\"vpn\":1,\"relay\":0,\"proxy\":0,\"hosting\":120,\"service\":1}"},"geometry":{"type":"Point","coordinates":[-73.8725,45.31341]}},{"type":"Feature","properties":{"country_code":"USA","city":"Minneapolis","geoname_id":"5037649","downloaders":"{\"size\":2901,\"mobile\":219,\"satellite\":16,\"tor\":0,\"tor_exit_nodes\":0,\"vpn\":346,\"relay\":0,\"proxy\":0,\"hosting\":266,\"service\":264}","uploaders":"{\"size\":214,\"mobile\":19,\"satellite\":0,\"tor\":0,\"tor_exit_nodes\":0,\"vpn\":35,\"relay\":0,\"proxy\":0,\"hosting\":35,\"service\":35}"},"geometry":{"type":"Point","coordinates":[-93.26384,44.97997]}},{"type":"Feature","properties":{"country_code":"JPN","city":"Nagoya","geoname_id":"1856057","downloaders":"{\"size\":2901,\"mobile\":193,\"satellite\":0,\"tor\":0,\"tor_exit_nodes\":0,\"vpn\":169,\"relay\":0,\"proxy\":0,\"hosting\":0,\"service\":118}","uploaders":"{\"size\":3,\"mobile\":0,\"satellite\":0,\"tor\":0,\"tor_exit_nodes\":0,\"vpn\":1,\"relay\":0,\"proxy\":0,\"hosting\":0,\"service\":1}"},"geometry":{"type":"Point","coordinates":[136.90641,35.18147]}},{"type":"Feature","properties":{"country_code":"CHN","city":"Dongguan","geoname_id":"1812545","downloaders":"{\"size\":2880,\"mobile\":8,\"satellite\":0,\"tor\":0,\"tor_exit_nodes\":0,\"vpn\":22,\"relay\":0,\"proxy\":0,\"hosting\":0,\"service\":0}","uploaders":"{\"size\":10,\"mobile\":0,\"satellite\":0,\"tor\":0,\"tor_exit_nodes\":0,\"vpn\":0,\"relay\":0,\"proxy\":0,\"hosting\":0,\"service\":0}"},"geometry":{"type":"Point","coordinates":[113.74866,23.01797]}},{"type":"Feature","properties":{"country_code":"TWN","city":"Taoyuan City","geoname_id":"6696918","downloaders":"{\"size\":2871,\"mobile\":26,\"satellite\":0,\"tor\":0,\"tor_exit_nodes\":0,\"vpn\":131,\"relay\":0,\"proxy\":2,\"hosting\":0,\"service\":4}","uploaders":"{\"size\":16,\"mobile\":2,\"satellite\":0,\"tor\":0,\"tor_exit_nodes\":0,\"vpn\":0,\"relay\":0,\"proxy\":0,\"hosting\":0,\"service\":0}"},"geometry":{"type":"Point","coordinates":[121.29696,24.99368]}},{"type":"Feature","properties":{"country_code":"ESP","city":"Valencia","geoname_id":"2509954","downloaders":"{\"size\":2861,\"mobile\":1038,\"satellite\":0,\"tor\":0,\"tor_exit_nodes\":0,\"vpn\":140,\"relay\":1,\"proxy\":1,\"hosting\":160,\"service\":128}","uploaders":"{\"size\":28,\"mobile\":13,\"satellite\":0,\"tor\":0,\"tor_exit_nodes\":0,\"vpn\":9,\"relay\":0,\"proxy\":0,\"hosting\":9,\"service\":9}"},"geometry":{"type":"Point","coordinates":[-0.37966,39.47391]}},{"type":"Feature","properties":{"country_code":"ISL","city":"Reykjavík","geoname_id":"3413829","downloaders":"{\"size\":2823,\"mobile\":42,\"satellite\":0,\"tor\":0,\"tor_exit_nodes\":0,\"vpn\":601,\"relay\":0,\"proxy\":0,\"hosting\":588,\"service\":567}","uploaders":"{\"size\":173,\"mobile\":5,\"satellite\":0,\"tor\":0,\"tor_exit_nodes\":0,\"vpn\":101,\"relay\":0,\"proxy\":0,\"hosting\":96,\"service\":100}"},"geometry":{"type":"Point","coordinates":[-21.89541,64.13548]}},{"type":"Feature","properties":{"country_code":"HUN","city":"Szeged","geoname_id":"715429","downloaders":"{\"size\":2797,\"mobile\":8,\"satellite\":0,\"tor\":0,\"tor_exit_nodes\":0,\"vpn\":52,\"relay\":0,\"proxy\":0,\"hosting\":63,\"service\":0}","uploaders":"{\"size\":28,\"mobile\":0,\"satellite\":0,\"tor\":0,\"tor_exit_nodes\":0,\"vpn\":3,\"relay\":0,\"proxy\":0,\"hosting\":0,\"service\":0}"},"geometry":{"type":"Point","coordinates":[20.14824,46.253]}},{"type":"Feature","properties":{"country_code":"ITA","city":"Turin","geoname_id":"3165524","downloaders":"{\"size\":2790,\"mobile\":1104,\"satellite\":1,\"tor\":0,\"tor_exit_nodes\":1,\"vpn\":167,\"relay\":0,\"proxy\":0,\"hosting\":314,\"service\":113}","uploaders":"{\"size\":30,\"mobile\":2,\"satellite\":0,\"tor\":0,\"tor_exit_nodes\":0,\"vpn\":0,\"relay\":0,\"proxy\":0,\"hosting\":5,\"service\":0}"},"geometry":{"type":"Point","coordinates":[7.68682,45.07049]}},{"type":"Feature","properties":{"country_code":"CZE","city":"Ostrava","geoname_id":"3068799","downloaders":"{\"size\":2727,\"mobile\":72,\"satellite\":0,\"tor\":0,\"tor_exit_nodes\":0,\"vpn\":30,\"relay\":0,\"proxy\":1,\"hosting\":7,\"service\":0}","uploaders":"{\"size\":23,\"mobile\":2,\"satellite\":0,\"tor\":0,\"tor_exit_nodes\":0,\"vpn\":1,\"relay\":0,\"proxy\":0,\"hosting\":0,\"service\":0}"},"geometry":{"type":"Point","coordinates":[18.28204,49.83465]}},{"type":"Feature","properties":{"country_code":"CAN","city":"Saint-Eustache","geoname_id":"6138175","downloaders":"{\"size\":2691,\"mobile\":197,\"satellite\":0,\"tor\":0,\"tor_exit_nodes\":0,\"vpn\":45,\"relay\":0,\"proxy\":0,\"hosting\":0,\"service\":0}","uploaders":"{\"size\":74,\"mobile\":2,\"satellite\":0,\"tor\":0,\"tor_exit_nodes\":0,\"vpn\":7,\"relay\":0,\"proxy\":0,\"hosting\":0,\"service\":0}"},"geometry":{"type":"Point","coordinates":[-73.90554,45.565]}},{"type":"Feature","properties":{"country_code":"BRA","city":"Curitiba","geoname_id":"3464975","downloaders":"{\"size\":2659,\"mobile\":127,\"satellite\":0,\"tor\":0,\"tor_exit_nodes\":0,\"vpn\":6,\"relay\":0,\"proxy\":0,\"hosting\":2,\"service\":0}","uploaders":"{\"size\":40,\"mobile\":10,\"satellite\":0,\"tor\":0,\"tor_exit_nodes\":0,\"vpn\":0,\"relay\":0,\"proxy\":0,\"hosting\":0,\"service\":0}"},"geometry":{"type":"Point","coordinates":[-49.27306,-25.42778]}},{"type":"Feature","properties":{"country_code":"ITA","city":"Naples","geoname_id":"3172394","downloaders":"{\"size\":2641,\"mobile\":470,\"satellite\":0,\"tor\":0,\"tor_exit_nodes\":0,\"vpn\":8,\"relay\":0,\"proxy\":0,\"hosting\":1,\"service\":0}","uploaders":"{\"size\":7,\"mobile\":6,\"satellite\":0,\"tor\":0,\"tor_exit_nodes\":0,\"vpn\":0,\"relay\":0,\"proxy\":0,\"hosting\":0,\"service\":0}"},"geometry":{"type":"Point","coordinates":[14.26811,40.85216]}},{"type":"Feature","properties":{"country_code":"USA","city":"Kansas City","geoname_id":"4393217","downloaders":"{\"size\":2636,\"mobile\":144,\"satellite\":10,\"tor\":0,\"tor_exit_nodes\":0,\"vpn\":909,\"relay\":0,\"proxy\":0,\"hosting\":1764,\"service\":857}","uploaders":"{\"size\":256,\"mobile\":14,\"satellite\":0,\"tor\":0,\"tor_exit_nodes\":0,\"vpn\":149,\"relay\":0,\"proxy\":0,\"hosting\":198,\"service\":141}"},"geometry":{"type":"Point","coordinates":[-94.57857,39.09973]}},