{"type":"FeatureCollection","id":"Archer","swarm_features":81,"features":[{"type":"Feature","properties":{"country_code":"RUS","city":"Moscow","geoname_id":"524901","downloaders":"{\"size\":249464,\"mobile\":8487,\"satellite\":4,\"tor\":0,\"tor_exit_nodes\":4,\"vpn\":12050,\"relay\":0,\"proxy\":22,\"hosting\":28005,\"service\":2658}","uploaders":"{\"size\":1048,\"mobile\":20,\"satellite\":0,\"tor\":0,\"tor_exit_nodes\":0,\"vpn\":68,\"relay\":0,\"proxy\":0,\"hosting\":161,\"service\":26}"},"geometry":{"type":"Point","coordinates":[37.61556,55.75222]}},{"type":"Feature","properties":{"country_code":"KOR","city":"Seoul","geoname_id":"1835848","downloaders":"{\"size\":181715,\"mobile\":253,\"satellite\":0,\"tor\":0,\"tor_exit_nodes\":0,\"vpn\":3136,\"relay\":19,\"proxy\":0,\"hosting\":1873,\"service\":666}","uploaders":"{\"size\":534,\"mobile\":1,\"satellite\":0,\"tor\":0,\"tor_exit_nodes\":0,\"vpn\":44,\"relay\":0,\"proxy\":0,\"hosting\":50,\"service\":37}"},"geometry":{"type":"Point","coordinates":[126.9784,37.566]}},{"type":"Feature","properties":{"country_code":"USA","city":"Ashburn","geoname_id":"4744870","downloaders":"{\"size\":151472,\"mobile\":152,\"satellite\":19,\"tor\":0,\"tor_exit_nodes\":0,\"vpn\":2946,\"relay\":1,\"proxy\":0,\"hosting\":150226,\"service\":2752}","uploaders":"{\"size\":95977,\"mobile\":38,\"satellite\":6,\"tor\":0,\"tor_exit_nodes\":0,\"vpn\":1240,\"relay\":0,\"proxy\":0,\"hosting\":95737,\"service\":1184}"},"geometry":{"type":"Point","coordinates":[-77.48749,39.04372]}},{"type":"Feature","properties":{"country_code":"RUS","city":"Saint Petersburg","geoname_id":"498817","downloaders":"{\"size\":115819,\"mobile\":3560,\"satellite\":0,\"tor\":0,\"tor_exit_nodes\":0,\"vpn\":2386,\"relay\":0,\"proxy\":10,\"hosting\":4326,\"service\":92}","uploaders":"{\"size\":472,\"mobile\":10,\"satellite\":0,\"tor\":0,\"tor_exit_nodes\":0,\"vpn\":3,\"relay\":0,\"proxy\":0,\"hosting\":54,\"service\":0}"},"geometry":{"type":"Point","coordinates":[30.31413,59.93863]}},{"type":"Feature","properties":{"country_code":"TUR","city":"Istanbul","geoname_id":"745044","downloaders":"{\"size\":109627,\"mobile\":8489,\"satellite\":0,\"tor\":0,\"tor_exit_nodes\":0,\"vpn\":146,\"relay\":0,\"proxy\":0,\"hosting\":299,\"service\":84}","uploaders":"{\"size\":473,\"mobile\":64,\"satellite\":0,\"tor\":0,\"tor_exit_nodes\":0,\"vpn\":20,\"relay\":0,\"proxy\":0,\"hosting\":28,\"service\":20}"},"geometry":{"type":"Point","coordinates":[28.94966,41.01384]}},{"type":"Feature","properties":{"country_code":"NLD","city":"Amsterdam","geoname_id":"2759794","downloaders":"{\"size\":100103,\"mobile\":110,\"satellite\":3,\"tor\":46,\"tor_exit_nodes\":73,\"vpn\":30491,\"relay\":66,\"proxy\":0,\"hosting\":88800,\"service\":16662}","uploaders":"{\"size\":9483,\"mobile\":23,\"satellite\":0,\"tor\":6,\"tor_exit_nodes\":8,\"vpn\":5922,\"relay\":14,\"proxy\":0,\"hosting\":7600,\"service\":5281}"},"geometry":{"type":"Point","coordinates":[4.88969,52.37403]}},{"type":"Feature","properties":{"country_code":"GBR","city":"London","geoname_id":"2643743","downloaders":"{\"size\":83005,\"mobile\":2552,\"satellite\":101,\"tor\":0,\"tor_exit_nodes\":6,\"vpn\":23021,\"relay\":340,\"proxy\":0,\"hosting\":23549,\"service\":21139}","uploaders":"{\"size\":14084,\"mobile\":700,\"satellite\":46,\"tor\":0,\"tor_exit_nodes\":0,\"vpn\":9290,\"relay\":155,\"proxy\":0,\"hosting\":7669,\"service\":8659}"},"geometry":{"type":"Point","coordinates":[-0.1257,51.5085]}},{"type":"Feature","properties":{"country_code":"CHN","city":"Shanghai","geoname_id":"1796236","downloaders":"{\"size\":64740,\"mobile\":662,\"satellite\":0,\"tor\":0,\"tor_exit_nodes\":0,\"vpn\":670,\"relay\":0,\"proxy\":0,\"hosting\":7133,\"service\":0}","uploaders":"{\"size\":1273,\"mobile\":6,\"satellite\":0,\"tor\":0,\"tor_exit_nodes\":0,\"vpn\":3,\"relay\":0,\"proxy\":0,\"hosting\":299,\"service\":0}"},"geometry":{"type":"Point","coordinates":[121.45806,31.22222]}},{"type":"Feature","properties":{"country_code":"HUN","city":"Budapest","geoname_id":"3054643","downloaders":"{\"size\":58785,\"mobile\":2884,\"satellite\":0,\"tor\":0,\"tor_exit_nodes\":4,\"vpn\":1696,\"relay\":0,\"proxy\":1,\"hosting\":1856,\"service\":609}","uploaders":"{\"size\":1809,\"mobile\":87,\"satellite\":0,\"tor\":0,\"tor_exit_nodes\":1,\"vpn\":286,\"relay\":0,\"proxy\":0,\"hosting\":287,\"service\":277}"},"geometry":{"type":"Point","coordinates":[19.04045,47.49835]}},{"type":"Feature","properties":{"country_code":"DEU","city":"Frankfurt am Main","geoname_id":"2925533","downloaders":"{\"size\":58643,\"mobile\":572,\"satellite\":3,\"tor\":0,\"tor_exit_nodes\":64,\"vpn\":6904,\"relay\":2,\"proxy\":6,\"hosting\":51972,\"service\":6543}","uploaders":"{\"size\":36249,\"mobile\":16,\"satellite\":0,\"tor\":0,\"tor_exit_nodes\":8,\"vpn\":1861,\"relay\":0,\"proxy\":0,\"hosting\":36023,\"service\":1798}"},"geometry":{"type":"Point","coordinates":[8.68417,50.11552]}},{"type":"Feature","properties":{"country_code":"FRA","city":"Paris","geoname_id":"2988507","downloaders":"{\"size\":58018,\"mobile\":9840,\"satellite\":38,\"tor\":13,\"tor_exit_nodes\":28,\"vpn\":7853,\"relay\":36,\"proxy\":1,\"hosting\":17105,\"service\":6017}","uploaders":"{\"size\":2946,\"mobile\":436,\"satellite\":4,\"tor\":0,\"tor_exit_nodes\":5,\"vpn\":1462,\"relay\":15,\"proxy\":0,\"hosting\":1520,\"service\":1317}"},"geometry":{"type":"Point","coordinates":[2.3488,48.85341]}},{"type":"Feature","properties":{"country_code":"MEX","city":"Mexico City","geoname_id":"3530597","downloaders":"{\"size\":57920,\"mobile\":97,\"satellite\":72,\"tor\":0,\"tor_exit_nodes\":0,\"vpn\":148,\"relay\":8,\"proxy\":0,\"hosting\":141,\"service\":125}","uploaders":"{\"size\":1666,\"mobile\":1,\"satellite\":11,\"tor\":0,\"tor_exit_nodes\":0,\"vpn\":63,\"relay\":0,\"proxy\":0,\"hosting\":59,\"service\":57}"},"geometry":{"type":"Point","coordinates":[-99.12766,19.42847]}},{"type":"Feature","properties":{"country_code":"IRL","city":"Dublin","geoname_id":"2964574","downloaders":"{\"size\":53762,\"mobile\":1258,\"satellite\":0,\"tor\":0,\"tor_exit_nodes\":0,\"vpn\":1867,\"relay\":0,\"proxy\":0,\"hosting\":45967,\"service\":1798}","uploaders":"{\"size\":42963,\"mobile\":312,\"satellite\":0,\"tor\":0,\"tor_exit_nodes\":0,\"vpn\":756,\"relay\":0,\"proxy\":0,\"hosting\":41625,\"service\":742}"},"geometry":{"type":"Point","coordinates":[-6.24889,53.33306]}},{"type":"Feature","properties":{"country_code":"RUS","city":"Yekaterinburg","geoname_id":"1486209","downloaders":"{\"size\":52444,\"mobile\":2890,\"satellite\":0,\"tor\":0,\"tor_exit_nodes\":0,\"vpn\":1490,\"relay\":0,\"proxy\":0,\"hosting\":3812,\"service\":188}","uploaders":"{\"size\":158,\"mobile\":8,\"satellite\":0,\"tor\":0,\"tor_exit_nodes\":0,\"vpn\":3,\"relay\":0,\"proxy\":0,\"hosting\":8,\"service\":0}"},"geometry":{"type":"Point","coordinates":[60.6122,56.8519]}},{"type":"Feature","properties":{"country_code":"BRA","city":"São Paulo","geoname_id":"3448439","downloaders":"{\"size\":51008,\"mobile\":5971,\"satellite\":32,\"tor\":0,\"tor_exit_nodes\":0,\"vpn\":1005,\"relay\":0,\"proxy\":0,\"hosting\":2979,\"service\":880}","uploaders":"{\"size\":880,\"mobile\":84,\"satellite\":0,\"tor\":0,\"tor_exit_nodes\":0,\"vpn\":403,\"relay\":0,\"proxy\":0,\"hosting\":443,\"service\":395}"},"geometry":{"type":"Point","coordinates":[-46.63611,-23.5475]}},{"type":"Feature","properties":{"country_code":"POL","city":"Warsaw","geoname_id":"756135","downloaders":"{\"size\":44854,\"mobile\":3251,\"satellite\":18,\"tor\":7,\"tor_exit_nodes\":14,\"vpn\":1382,\"relay\":2,\"proxy\":0,\"hosting\":2925,\"service\":1164}","uploaders":"{\"size\":1178,\"mobile\":101,\"satellite\":8,\"tor\":1,\"tor_exit_nodes\":5,\"vpn\":455,\"relay\":1,\"proxy\":0,\"hosting\":537,\"service\":447}"},"geometry":{"type":"Point","coordinates":[21.01178,52.22977]}},{"type":"Feature","properties":{"country_code":"RUS","city":"Novosibirsk","geoname_id":"1496747","downloaders":"{\"size\":44035,\"mobile\":2739,\"satellite\":2,\"tor\":0,\"tor_exit_nodes\":0,\"vpn\":124,\"relay\":0,\"proxy\":0,\"hosting\":245,\"service\":28}","uploaders":"{\"size\":149,\"mobile\":7,\"satellite\":0,\"tor\":0,\"tor_exit_nodes\":0,\"vpn\":1,\"relay\":0,\"proxy\":0,\"hosting\":9,\"service\":0}"},"geometry":{"type":"Point","coordinates":[82.94339,55.03442]}},{"type":"Feature","properties":{"country_code":"USA","city":"New York City","geoname_id":"5128581","downloaders":"{\"size\":42211,\"mobile\":695,\"satellite\":13,\"tor\":7,\"tor_exit_nodes\":23,\"vpn\":20844,\"relay\":273,\"proxy\":78,\"hosting\":24009,\"service\":19913}","uploaders":"{\"size\":7943,\"mobile\":144,\"satellite\":8,\"tor\":1,\"tor_exit_nodes\":1,\"vpn\":6695,\"relay\":35,\"proxy\":2,\"hosting\":7128,\"service\":6499}"},"geometry":{"type":"Point","coordinates":[-74.00597,40.71427]}},{"type":"Feature","properties":{"country_code":"CAN","city":"Toronto","geoname_id":"6167865","downloaders":"{\"size\":37775,\"mobile\":1478,\"satellite\":48,\"tor\":34,\"tor_exit_nodes\":209,\"vpn\":16235,\"relay\":138,\"proxy\":44,\"hosting\":22451,\"service\":15284}","uploaders":"{\"size\":11347,\"mobile\":225,\"satellite\":13,\"tor\":12,\"tor_exit_nodes\":70,\"vpn\":6774,\"relay\":54,\"proxy\":0,\"hosting\":8872,\"service\":6363}"},"geometry":{"type":"Point","coordinates":[-79.39864,43.70643]}},{"type":"Feature","properties":{"country_code":"ESP","city":"Madrid","geoname_id":"3117735","downloaders":"{\"size\":34354,\"mobile\":12860,\"satellite\":28,\"tor\":0,\"tor_exit_nodes\":0,\"vpn\":3280,\"relay\":16,\"proxy\":1,\"hosting\":3477,\"service\":3111}","uploaders":"{\"size\":1651,\"mobile\":237,\"satellite\":5,\"tor\":0,\"tor_exit_nodes\":0,\"vpn\":994,\"relay\":0,\"proxy\":0,\"hosting\":1022,\"service\":950}"},"geometry":{"type":"Point","coordinates":[-3.70256,40.4165]}},{"type":"Feature","properties":{"country_code":"USA","city":"Boardman","geoname_id":"5714964","downloaders":"{\"size\":33757,\"mobile\":0,\"satellite\":0,\"tor\":0,\"tor_exit_nodes\":0,\"vpn\":1,\"relay\":0,\"proxy\":0,\"hosting\":33757,\"service\":0}","uploaders":"{\"size\":32334,\"mobile\":0,\"satellite\":0,\"tor\":0,\"tor_exit_nodes\":0,\"vpn\":0,\"relay\":0,\"proxy\":0,\"hosting\":32334,\"service\":0}"},"geometry":{"type":"Point","coordinates":[-119.70058,45.83986]}},{"type":"Feature","properties":{"country_code":"BEL","city":"Brussels","geoname_id":"2800866","downloaders":"{\"size\":33566,\"mobile\":657,\"satellite\":0,\"tor\":0,\"tor_exit_nodes\":4,\"vpn\":1361,\"relay\":5,\"proxy\":0,\"hosting\":755,\"service\":1252}","uploaders":"{\"size\":1368,\"mobile\":206,\"satellite\":0,\"tor\":0,\"tor_exit_nodes\":4,\"vpn\":385,\"relay\":2,\"proxy\":0,\"hosting\":220,\"service\":372}"},"geometry":{"type":"Point","coordinates":[4.34878,50.85045]}},{"type":"Feature","properties":{"country_code":"BGR","city":"Sofia","geoname_id":"727011","downloaders":"{\"size\":33154,\"mobile\":5055,\"satellite\":18,\"tor\":0,\"tor_exit_nodes\":5,\"vpn\":1489,\"relay\":0,\"proxy\":0,\"hosting\":3470,\"service\":770}","uploaders":"{\"size\":705,\"mobile\":160,\"satellite\":1,\"tor\":0,\"tor_exit_nodes\":0,\"vpn\":177,\"relay\":0,\"proxy\":0,\"hosting\":245,\"service\":168}"},"geometry":{"type":"Point","coordinates":[23.32415,42.69751]}},{"type":"Feature","properties":{"country_code":"TUR","city":"Ankara","geoname_id":"323786","downloaders":"{\"size\":31988,\"mobile\":1936,\"satellite\":2,\"tor\":0,\"tor_exit_nodes\":0,\"vpn\":9,\"relay\":0,\"proxy\":0,\"hosting\":8,\"service\":3}","uploaders":"{\"size\":191,\"mobile\":34,\"satellite\":0,\"tor\":0,\"tor_exit_nodes\":0,\"vpn\":2,\"relay\":0,\"proxy\":0,\"hosting\":5,\"service\":2}"},"geometry":{"type":"Point","coordinates":[32.85427,39.91987]}},{"type":"Feature","properties":{"country_code":"RUS","city":"Krasnodar","geoname_id":"542420","downloaders":"{\"size\":31749,\"mobile\":4869,\"satellite\":0,\"tor\":0,\"tor_exit_nodes\":0,\"vpn\":735,\"relay\":0,\"proxy\":1,\"hosting\":1817,\"service\":404}","uploaders":"{\"size\":94,\"mobile\":15,\"satellite\":0,\"tor\":0,\"tor_exit_nodes\":0,\"vpn\":1,\"relay\":0,\"proxy\":0,\"hosting\":1,\"service\":0}"},"geometry":{"type":"Point","coordinates":[38.97603,45.04484]}},{"type":"Feature","properties":{"country_code":"KOR","city":"Incheon","geoname_id":"1843564","downloaders":"{\"size\":31592,\"mobile\":10,\"satellite\":0,\"tor\":0,\"tor_exit_nodes\":0,\"vpn\":375,\"relay\":0,\"proxy\":0,\"hosting\":180,\"service\":69}","uploaders":"{\"size\":54,\"mobile\":0,\"satellite\":0,\"tor\":0,\"tor_exit_nodes\":0,\"vpn\":0,\"relay\":0,\"proxy\":0,\"hosting\":0,\"service\":0}"},"geometry":{"type":"Point","coordinates":[126.70515,37.45646]}},{"type":"Feature","properties":{"country_code":"RUS","city":"Nizhniy Novgorod","geoname_id":"520555","downloaders":"{\"size\":30925,\"mobile\":4950,\"satellite\":0,\"tor\":0,\"tor_exit_nodes\":0,\"vpn\":294,\"relay\":0,\"proxy\":1,\"hosting\":19,\"service\":41}","uploaders":"{\"size\":112,\"mobile\":25,\"satellite\":0,\"tor\":0,\"tor_exit_nodes\":0,\"vpn\":0,\"relay\":0,\"proxy\":0,\"hosting\":0,\"service\":0}"},"geometry":{"type":"Point","coordinates":[44.00205,56.32867]}},{"type":"Feature","properties":{"country_code":"CAN","city":"Montréal","geoname_id":"6077243","downloaders":"{\"size\":28895,\"mobile\":1872,\"satellite\":0,\"tor\":0,\"tor_exit_nodes\":18,\"vpn\":9804,\"relay\":0,\"proxy\":0,\"hosting\":13018,\"service\":9641}","uploaders":"{\"size\":4816,\"mobile\":101,\"satellite\":0,\"tor\":0,\"tor_exit_nodes\":10,\"vpn\":3625,\"relay\":0,\"proxy\":0,\"hosting\":2973,\"service\":3621}"},"geometry":{"type":"Point","coordinates":[-73.58781,45.50884]}},{"type":"Feature","properties":{"country_code":"RUS","city":"Chelyabinsk","geoname_id":"1508291","downloaders":"{\"size\":28091,\"mobile\":1554,\"satellite\":0,\"tor\":0,\"tor_exit_nodes\":0,\"vpn\":79,\"relay\":0,\"proxy\":0,\"hosting\":0,\"service\":13}","uploaders":"{\"size\":92,\"mobile\":7,\"satellite\":0,\"tor\":0,\"tor_exit_nodes\":0,\"vpn\":0,\"relay\":0,\"proxy\":0,\"hosting\":0,\"service\":0}"},"geometry":{"type":"Point","coordinates":[61.42915,55.15402]}},{"type":"Feature","properties":{"country_code":"RUS","city":"Samara","geoname_id":"499099","downloaders":"{\"size\":27861,\"mobile\":2366,\"satellite\":0,\"tor\":0,\"tor_exit_nodes\":0,\"vpn\":564,\"relay\":0,\"proxy\":0,\"hosting\":9,\"service\":266}","uploaders":"{\"size\":76,\"mobile\":4,\"satellite\":0,\"tor\":0,\"tor_exit_nodes\":0,\"vpn\":3,\"relay\":0,\"proxy\":0,\"hosting\":0,\"service\":1}"},"geometry":{"type":"Point","coordinates":[50.15,53.20007]}},{"type":"Feature","properties":{"country_code":"NLD","city":"Lelystad","geoname_id":"2751738","downloaders":"{\"size\":25960,\"mobile\":0,\"satellite\":0,\"tor\":5,\"tor_exit_nodes\":16,\"vpn\":3348,\"relay\":0,\"proxy\":0,\"hosting\":25067,\"service\":1398}","uploaders":"{\"size\":1129,\"mobile\":0,\"satellite\":0,\"tor\":0,\"tor_exit_nodes\":2,\"vpn\":313,\"relay\":0,\"proxy\":0,\"hosting\":1074,\"service\":266}"},"geometry":{"type":"Point","coordinates":[5.475,52.50833]}},{"type":"Feature","properties":{"country_code":"RUS","city":"Voronezh","geoname_id":"472045","downloaders":"{\"size\":24763,\"mobile\":261,\"satellite\":0,\"tor\":0,\"tor_exit_nodes\":0,\"vpn\":312,\"relay\":0,\"proxy\":0,\"hosting\":223,\"service\":1}","uploaders":"{\"size\":102,\"mobile\":4,\"satellite\":0,\"tor\":0,\"tor_exit_nodes\":0,\"vpn\":1,\"relay\":0,\"proxy\":0,\"hosting\":0,\"service\":0}"},"geometry":{"type":"Point","coordinates":[39.1843,51.67204]}},{"type":"Feature","properties":{"country_code":"RUS","city":"Perm","geoname_id":"511196","downloaders":"{\"size\":24451,\"mobile\":1170,\"satellite\":0,\"tor\":0,\"tor_exit_nodes\":0,\"vpn\":203,\"relay\":0,\"proxy\":0,\"hosting\":6,\"service\":6}","uploaders":"{\"size\":57,\"mobile\":1,\"satellite\":0,\"tor\":0,\"tor_exit_nodes\":0,\"vpn\":0,\"relay\":0,\"proxy\":0,\"hosting\":0,\"service\":0}"},"geometry":{"type":"Point","coordinates":[56.25017,58.01046]}},{"type":"Feature","properties":{"country_code":"RUS","city":"Tyumen","geoname_id":"1488754","downloaders":"{\"size\":24039,\"mobile\":4710,\"satellite\":0,\"tor\":0,\"tor_exit_nodes\":0,\"vpn\":139,\"relay\":0,\"proxy\":0,\"hosting\":0,\"service\":7}","uploaders":"{\"size\":68,\"mobile\":15,\"satellite\":0,\"tor\":0,\"tor_exit_nodes\":0,\"vpn\":0,\"relay\":0,\"proxy\":0,\"hosting\":0,\"service\":0}"},"geometry":{"type":"Point","coordinates":[65.52722,57.15222]}},{"type":"Feature","properties":{"country_code":"RUS","city":"Ufa","geoname_id":"479561","downloaders":"{\"size\":23743,\"mobile\":599,\"satellite\":0,\"tor\":0,\"tor_exit_nodes\":0,\"vpn\":141,\"relay\":0,\"proxy\":0,\"hosting\":0,\"service\":37}","uploaders":"{\"size\":69,\"mobile\":3,\"satellite\":0,\"tor\":0,\"tor_exit_nodes\":0,\"vpn\":0,\"relay\":0,\"proxy\":0,\"hosting\":0,\"service\":0}"},"geometry":{"type":"Point","coordinates":[55.96779,54.74306]}},{"type":"Feature","properties":{"country_code":"AUS","city":"Sydney","geoname_id":"2147714","downloaders":"{\"size\":23624,\"mobile\":1975,\"satellite\":286,\"tor\":0,\"tor_exit_nodes\":0,\"vpn\":8312,\"relay\":119,\"proxy\":0,\"hosting\":9849,\"service\":7845}","uploaders":"{\"size\":6957,\"mobile\":669,\"satellite\":142,\"tor\":0,\"tor_exit_nodes\":0,\"vpn\":2652,\"relay\":45,\"proxy\":0,\"hosting\":2890,\"service\":2568}"},"geometry":{"type":"Point","coordinates":[151.20732,-33.86785]}},{"type":"Feature","properties":{"country_code":"UKR","city":"Kyiv","geoname_id":"703448","downloaders":"{\"size\":23404,\"mobile\":79,\"satellite\":68,\"tor\":3,\"tor_exit_nodes\":4,\"vpn\":679,\"relay\":0,\"proxy\":0,\"hosting\":3993,\"service\":278}","uploaders":"{\"size\":252,\"mobile\":1,\"satellite\":11,\"tor\":1,\"tor_exit_nodes\":1,\"vpn\":87,\"relay\":0,\"proxy\":0,\"hosting\":142,\"service\":85}"},"geometry":{"type":"Point","coordinates":[30.5238,50.45466]}},{"type":"Feature","properties":{"country_code":"CHN","city":"Shenzhen","geoname_id":"1795565","downloaders":"{\"size\":23074,\"mobile\":31,\"satellite\":0,\"tor\":0,\"tor_exit_nodes\":0,\"vpn\":413,\"relay\":0,\"proxy\":0,\"hosting\":569,\"service\":0}","uploaders":"{\"size\":559,\"mobile\":2,\"satellite\":0,\"tor\":0,\"tor_exit_nodes\":0,\"vpn\":19,\"relay\":0,\"proxy\":0,\"hosting\":37,\"service\":0}"},"geometry":{"type":"Point","coordinates":[114.0683,22.54554]}},{"type":"Feature","properties":{"country_code":"RUS","city":"Rostov-na-Donu","geoname_id":"501175","downloaders":"{\"size\":22697,\"mobile\":481,\"satellite\":0,\"tor\":0,\"tor_exit_nodes\":0,\"vpn\":483,\"relay\":0,\"proxy\":1,\"hosting\":0,\"service\":21}","uploaders":"{\"size\":124,\"mobile\":5,\"satellite\":0,\"tor\":0,\"tor_exit_nodes\":0,\"vpn\":1,\"relay\":0,\"proxy\":0,\"hosting\":0,\"service\":0}"},"geometry":{"type":"Point","coordinates":[39.72328,47.23135]}},{"type":"Feature","properties":{"country_code":"FIN","city":"Helsinki","geoname_id":"658225","downloaders":"{\"size\":22552,\"mobile\":700,\"satellite\":0,\"tor\":0,\"tor_exit_nodes\":5,\"vpn\":2870,\"relay\":5,\"proxy\":0,\"hosting\":19181,\"service\":1925}","uploaders":"{\"size\":1044,\"mobile\":244,\"satellite\":0,\"tor\":0,\"tor_exit_nodes\":1,\"vpn\":627,\"relay\":0,\"proxy\":0,\"hosting\":688,\"service\":586}"},"geometry":{"type":"Point","coordinates":[24.93545,60.16952]}},{"type":"Feature","properties":{"country_code":"TUR","city":"İzmir","geoname_id":"311046","downloaders":"{\"size\":21557,\"mobile\":4268,\"satellite\":0,\"tor\":0,\"tor_exit_nodes\":0,\"vpn\":3,\"relay\":0,\"proxy\":0,\"hosting\":5,\"service\":0}","uploaders":"{\"size\":60,\"mobile\":11,\"satellite\":0,\"tor\":0,\"tor_exit_nodes\":0,\"vpn\":0,\"relay\":0,\"proxy\":0,\"hosting\":0,\"service\":0}"},"geometry":{"type":"Point","coordinates":[27.13838,38.41273]}},{"type":"Feature","properties":{"country_code":"RUS","city":"Krasnoyarsk","geoname_id":"1502026","downloaders":"{\"size\":20544,\"mobile\":1151,\"satellite\":1,\"tor\":0,\"tor_exit_nodes\":0,\"vpn\":99,\"relay\":0,\"proxy\":0,\"hosting\":88,\"service\":60}","uploaders":"{\"size\":76,\"mobile\":3,\"satellite\":0,\"tor\":0,\"tor_exit_nodes\":0,\"vpn\":0,\"relay\":0,\"proxy\":0,\"hosting\":0,\"service\":0}"},"geometry":{"type":"Point","coordinates":[92.90765,56.02668]}},{"type":"Feature","properties":{"country_code":"RUS","city":"Omsk","geoname_id":"1496153","downloaders":"{\"size\":20425,\"mobile\":20,\"satellite\":0,\"tor\":0,\"tor_exit_nodes\":0,\"vpn\":30,\"relay\":0,\"proxy\":0,\"hosting\":6,\"service\":11}","uploaders":"{\"size\":56,\"mobile\":0,\"satellite\":0,\"tor\":0,\"tor_exit_nodes\":0,\"vpn\":0,\"relay\":0,\"proxy\":0,\"hosting\":0,\"service\":0}"},"geometry":{"type":"Point","coordinates":[73.36859,54.99244]}},{"type":"Feature","properties":{"country_code":"RUS","city":"Tomsk","geoname_id":"1489425","downloaders":"{\"size\":20409,\"mobile\":16,\"satellite\":0,\"tor\":0,\"tor_exit_nodes\":0,\"vpn\":52,\"relay\":0,\"proxy\":0,\"hosting\":11,\"service\":5}","uploaders":"{\"size\":62,\"mobile\":0,\"satellite\":0,\"tor\":0,\"tor_exit_nodes\":0,\"vpn\":0,\"relay\":0,\"proxy\":0,\"hosting\":0,\"service\":0}"},"geometry":{"type":"Point","coordinates":[84.98204,56.50032]}},{"type":"Feature","properties":{"country_code":"RUS","city":"Barnaul","geoname_id":"1510853","downloaders":"{\"size\":20070,\"mobile\":8,\"satellite\":0,\"tor\":0,\"tor_exit_nodes\":0,\"vpn\":66,\"relay\":0,\"proxy\":0,\"hosting\":0,\"service\":36}","uploaders":"{\"size\":63,\"mobile\":0,\"satellite\":0,\"tor\":0,\"tor_exit_nodes\":0,\"vpn\":0,\"relay\":0,\"proxy\":0,\"hosting\":0,\"service\":0}"},"geometry":{"type":"Point","coordinates":[83.7456,53.3598]}},{"type":"Feature","properties":{"country_code":"USA","city":"Los Angeles","geoname_id":"5368361","downloaders":"{\"size\":19976,\"mobile\":262,\"satellite\":44,\"tor\":0,\"tor_exit_nodes\":0,\"vpn\":12939,\"relay\":1,\"proxy\":4,\"hosting\":14838,\"service\":12121}","uploaders":"{\"size\":5031,\"mobile\":107,\"satellite\":16,\"tor\":0,\"tor_exit_nodes\":0,\"vpn\":4098,\"relay\":0,\"proxy\":4,\"hosting\":4519,\"service\":3877}"},"geometry":{"type":"Point","coordinates":[-118.2509,34.0443]}},{"type":"Feature","properties":{"country_code":"CHN","city":"Qingdao","geoname_id":"1797929","downloaders":"{\"size\":19387,\"mobile\":0,\"satellite\":0,\"tor\":0,\"tor_exit_nodes\":0,\"vpn\":254,\"relay\":0,\"proxy\":0,\"hosting\":173,\"service\":0}","uploaders":"{\"size\":130,\"mobile\":0,\"satellite\":0,\"tor\":0,\"tor_exit_nodes\":0,\"vpn\":5,\"relay\":0,\"proxy\":0,\"hosting\":0,\"service\":0}"},"geometry":{"type":"Point","coordinates":[120.38042,36.06488]}},{"type":"Feature","properties":{"country_code":"KOR","city":"Busan","geoname_id":"1838524","downloaders":"{\"size\":19284,\"mobile\":25,\"satellite\":0,\"tor\":0,\"tor_exit_nodes\":0,\"vpn\":115,\"relay\":0,\"proxy\":0,\"hosting\":0,\"service\":29}","uploaders":"{\"size\":52,\"mobile\":1,\"satellite\":0,\"tor\":0,\"tor_exit_nodes\":0,\"vpn\":0,\"relay\":0,\"proxy\":0,\"hosting\":0,\"service\":0}"},"geometry":{"type":"Point","coordinates":[129.03004,35.10168]}},{"type":"Feature","properties":{"country_code":"CHN","city":"Nanjing","geoname_id":"1799962","downloaders":"{\"size\":19074,\"mobile\":0,\"satellite\":0,\"tor\":0,\"tor_exit_nodes\":0,\"vpn\":343,\"relay\":0,\"proxy\":0,\"hosting\":324,\"service\":0}","uploaders":"{\"size\":236,\"mobile\":0,\"satellite\":0,\"tor\":0,\"tor_exit_nodes\":0,\"vpn\":5,\"relay\":0,\"proxy\":0,\"hosting\":36,\"service\":0}"},"geometry":{"type":"Point","coordinates":[118.77778,32.06167]}},{"type":"Feature","properties":{"country_code":"BRA","city":"Rio de Janeiro","geoname_id":"3451190","downloaders":"{\"size\":18879,\"mobile\":917,\"satellite\":0,\"tor\":0,\"tor_exit_nodes\":0,\"vpn\":28,\"relay\":0,\"proxy\":0,\"hosting\":66,\"service\":0}","uploaders":"{\"size\":168,\"mobile\":13,\"satellite\":0,\"tor\":0,\"tor_exit_nodes\":0,\"vpn\":0,\"relay\":0,\"proxy\":0,\"hosting\":0,\"service\":0}"},"geometry":{"type":"Point","coordinates":[-43.18223,-22.90642]}},{"type":"Feature","properties":{"country_code":"ARG","city":"Buenos Aires","geoname_id":"3435910","downloaders":"{\"size\":18435,\"mobile\":3045,\"satellite\":13,\"tor\":0,\"tor_exit_nodes\":0,\"vpn\":100,\"relay\":0,\"proxy\":0,\"hosting\":239,\"service\":62}","uploaders":"{\"size\":633,\"mobile\":278,\"satellite\":0,\"tor\":0,\"tor_exit_nodes\":0,\"vpn\":20,\"relay\":0,\"proxy\":0,\"hosting\":68,\"service\":20}"},"geometry":{"type":"Point","coordinates":[-58.37723,-34.61315]}},{"type":"Feature","properties":{"country_code":"SWE","city":"Stockholm","geoname_id":"2673730","downloaders":"{\"size\":18243,\"mobile\":604,\"satellite\":3,\"tor\":9,\"tor_exit_nodes\":22,\"vpn\":9160,\"relay\":15,\"proxy\":5,\"hosting\":7715,\"service\":8910}","uploaders":"{\"size\":3593,\"mobile\":83,\"satellite\":0,\"tor\":0,\"tor_exit_nodes\":1,\"vpn\":2940,\"relay\":2,\"proxy\":2,\"hosting\":2524,\"service\":2938}"},"geometry":{"type":"Point","coordinates":[18.06871,59.32938]}},{"type":"Feature","properties":{"country_code":"USA","city":"Dallas","geoname_id":"4684888","downloaders":"{\"size\":18208,\"mobile\":915,\"satellite\":68,\"tor\":0,\"tor_exit_nodes\":0,\"vpn\":8610,\"relay\":0,\"proxy\":2,\"hosting\":14553,\"service\":8075}","uploaders":"{\"size\":6888,\"mobile\":305,\"satellite\":17,\"tor\":0,\"tor_exit_nodes\":0,\"vpn\":3082,\"relay\":0,\"proxy\":1,\"hosting\":6328,\"service\":2954}"},"geometry":{"type":"Point","coordinates":[-96.708,32.877]}},{"type":"Feature","properties":{"country_code":"RUS","city":"Saratov","geoname_id":"498677","downloaders":"{\"size\":17744,\"mobile\":349,\"satellite\":0,\"tor\":0,\"tor_exit_nodes\":0,\"vpn\":105,\"relay\":0,\"proxy\":0,\"hosting\":2,\"service\":8}","uploaders":"{\"size\":58,\"mobile\":2,\"satellite\":0,\"tor\":0,\"tor_exit_nodes\":0,\"vpn\":0,\"relay\":0,\"proxy\":0,\"hosting\":0,\"service\":0}"},"geometry":{"type":"Point","coordinates":[46.00861,51.54056]}},{"type":"Feature","properties":{"country_code":"CHN","city":"Beijing","geoname_id":"1816670","downloaders":"{\"size\":17273,\"mobile\":0,\"satellite\":0,\"tor\":0,\"tor_exit_nodes\":0,\"vpn\":249,\"relay\":0,\"proxy\":0,\"hosting\":3388,\"service\":0}","uploaders":"{\"size\":212,\"mobile\":0,\"satellite\":0,\"tor\":0,\"tor_exit_nodes\":0,\"vpn\":1,\"relay\":0,\"proxy\":0,\"hosting\":37,\"service\":0}"},"geometry":{"type":"Point","coordinates":[116.39723,39.9075]}},{"type":"Feature","properties":{"country_code":"POL","city":"Ursynów","geoname_id":"6545326","downloaders":"{\"size\":17237,\"mobile\":0,\"satellite\":0,\"tor\":0,\"tor_exit_nodes\":0,\"vpn\":250,\"relay\":0,\"proxy\":0,\"hosting\":254,\"service\":250}","uploaders":"{\"size\":186,\"mobile\":0,\"satellite\":0,\"tor\":0,\"tor_exit_nodes\":0,\"vpn\":91,\"relay\":0,\"proxy\":0,\"hosting\":91,\"service\":91}"},"geometry":{"type":"Point","coordinates":[21.0068,52.1552]}},{"type":"Feature","properties":{"country_code":"AUS","city":"Melbourne","geoname_id":"2158177","downloaders":"{\"size\":17038,\"mobile\":1423,\"satellite\":9,\"tor\":0,\"tor_exit_nodes\":0,\"vpn\":4284,\"relay\":0,\"proxy\":0,\"hosting\":5839,\"service\":3691}","uploaders":"{\"size\":5498,\"mobile\":498,\"satellite\":4,\"tor\":0,\"tor_exit_nodes\":0,\"vpn\":1714,\"relay\":0,\"proxy\":0,\"hosting\":2109,\"service\":1538}"},"geometry":{"type":"Point","coordinates":[144.96332,-37.814]}},{"type":"Feature","properties":{"country_code":"TUR","city":"Bursa","geoname_id":"750269","downloaders":"{\"size\":16983,\"mobile\":1501,\"satellite\":0,\"tor\":0,\"tor_exit_nodes\":0,\"vpn\":3,\"relay\":0,\"proxy\":0,\"hosting\":134,\"service\":0}","uploaders":"{\"size\":16,\"mobile\":0,\"satellite\":0,\"tor\":0,\"tor_exit_nodes\":0,\"vpn\":0,\"relay\":0,\"proxy\":0,\"hosting\":2,\"service\":0}"},"geometry":{"type":"Point","coordinates":[29.06013,40.19559]}},{"type":"Feature","properties":{"country_code":"RUS","city":"Kemerovo","geoname_id":"1503901","downloaders":"{\"size\":16489,\"mobile\":5,\"satellite\":0,\"tor\":0,\"tor_exit_nodes\":0,\"vpn\":94,\"relay\":0,\"proxy\":0,\"hosting\":19,\"service\":0}","uploaders":"{\"size\":47,\"mobile\":0,\"satellite\":0,\"tor\":0,\"tor_exit_nodes\":0,\"vpn\":1,\"relay\":0,\"proxy\":0,\"hosting\":0,\"service\":0}"},"geometry":{"type":"Point","coordinates":[86.08333,55.33333]}},{"type":"Feature","properties":{"country_code":"MEX","city":"Guadalajara","geoname_id":"4005539","downloaders":"{\"size\":16346,\"mobile\":25,\"satellite\":0,\"tor\":0,\"tor_exit_nodes\":0,\"vpn\":20,\"relay\":0,\"proxy\":0,\"hosting\":18,\"service\":0}","uploaders":"{\"size\":32,\"mobile\":0,\"satellite\":0,\"tor\":0,\"tor_exit_nodes\":0,\"vpn\":4,\"relay\":0,\"proxy\":0,\"hosting\":1,\"service\":0}"},"geometry":{"type":"Point","coordinates":[-103.34749,20.67738]}},{"type":"Feature","properties":{"country_code":"ITA","city":"Milan","geoname_id":"3173435","downloaders":"{\"size\":16081,\"mobile\":3245,\"satellite\":3,\"tor\":0,\"tor_exit_nodes\":0,\"vpn\":1118,\"relay\":0,\"proxy\":0,\"hosting\":1440,\"service\":1027}","uploaders":"{\"size\":705,\"mobile\":86,\"satellite\":1,\"tor\":0,\"tor_exit_nodes\":0,\"vpn\":299,\"relay\":0,\"proxy\":0,\"hosting\":312,\"service\":297}"},"geometry":{"type":"Point","coordinates":[9.18951,45.46427]}},{"type":"Feature","properties":{"country_code":"FRA","city":"Dunkerque","geoname_id":"3020686","downloaders":"{\"size\":16011,\"mobile\":237,\"satellite\":0,\"tor\":0,\"tor_exit_nodes\":1,\"vpn\":257,\"relay\":0,\"proxy\":0,\"hosting\":15049,\"service\":88}","uploaders":"{\"size\":178,\"mobile\":0,\"satellite\":0,\"tor\":0,\"tor_exit_nodes\":0,\"vpn\":0,\"relay\":0,\"proxy\":0,\"hosting\":178,\"service\":0}"},"geometry":{"type":"Point","coordinates":[2.37681,51.0344]}},{"type":"Feature","properties":{"country_code":"USA","city":"Chicago","geoname_id":"4887398","downloaders":"{\"size\":15974,\"mobile\":589,\"satellite\":118,\"tor\":0,\"tor_exit_nodes\":1,\"vpn\":8330,\"relay\":8,\"proxy\":0,\"hosting\":9416,\"service\":7108}","uploaders":"{\"size\":3449,\"mobile\":129,\"satellite\":28,\"tor\":0,\"tor_exit_nodes\":0,\"vpn\":2552,\"relay\":3,\"proxy\":0,\"hosting\":2730,\"service\":2338}"},"geometry":{"type":"Point","coordinates":[-87.65005,41.85003]}},{"type":"Feature","properties":{"country_code":"KOR","city":"Daegu","geoname_id":"1835329","downloaders":"{\"size\":15968,\"mobile\":22,\"satellite\":0,\"tor\":0,\"tor_exit_nodes\":0,\"vpn\":125,\"relay\":0,\"proxy\":0,\"hosting\":331,\"service\":20}","uploaders":"{\"size\":52,\"mobile\":2,\"satellite\":0,\"tor\":0,\"tor_exit_nodes\":0,\"vpn\":0,\"relay\":0,\"proxy\":0,\"hosting\":0,\"service\":0}"},"geometry":{"type":"Point","coordinates":[128.59111,35.87028]}},{"type":"Feature","properties":{"country_code":"DEU","city":"Falkenstein","geoname_id":"2927913","downloaders":"{\"size\":15738,\"mobile\":0,\"satellite\":0,\"tor\":0,\"tor_exit_nodes\":0,\"vpn\":0,\"relay\":0,\"proxy\":9,\"hosting\":15735,\"service\":0}","uploaders":"{\"size\":151,\"mobile\":0,\"satellite\":0,\"tor\":0,\"tor_exit_nodes\":0,\"vpn\":0,\"relay\":0,\"proxy\":0,\"hosting\":151,\"service\":0}"},"geometry":{"type":"Point","coordinates":[12.37129,50.47788]}},{"type":"Feature","properties":{"country_code":"HKG","city":"Hong Kong","geoname_id":"1819729","downloaders":"{\"size\":15665,\"mobile\":109,\"satellite\":0,\"tor\":0,\"tor_exit_nodes\":0,\"vpn\":1221,\"relay\":0,\"proxy\":1,\"hosting\":2685,\"service\":881}","uploaders":"{\"size\":750,\"mobile\":8,\"satellite\":0,\"tor\":0,\"tor_exit_nodes\":0,\"vpn\":272,\"relay\":0,\"proxy\":0,\"hosting\":410,\"service\":265}"},"geometry":{"type":"Point","coordinates":[114.17469,22.27832]}},{"type":"Feature","properties":{"country_code":"USA","city":"Seattle","geoname_id":"5809844","downloaders":"{\"size\":15644,\"mobile\":417,\"satellite\":81,\"tor\":0,\"tor_exit_nodes\":1,\"vpn\":9637,\"relay\":21,\"proxy\":1,\"hosting\":11954,\"service\":9069}","uploaders":"{\"size\":3756,\"mobile\":115,\"satellite\":34,\"tor\":0,\"tor_exit_nodes\":0,\"vpn\":3241,\"relay\":6,\"proxy\":0,\"hosting\":3031,\"service\":3080}"},"geometry":{"type":"Point","coordinates":[-122.3129,47.5413]}},{"type":"Feature","properties":{"country_code":"ITA","city":"Rome","geoname_id":"3169070","downloaders":"{\"size\":15526,\"mobile\":4125,\"satellite\":0,\"tor\":0,\"tor_exit_nodes\":0,\"vpn\":190,\"relay\":27,\"proxy\":0,\"hosting\":235,\"service\":188}","uploaders":"{\"size\":798,\"mobile\":526,\"satellite\":0,\"tor\":0,\"tor_exit_nodes\":0,\"vpn\":70,\"relay\":0,\"proxy\":0,\"hosting\":71,\"service\":68}"},"geometry":{"type":"Point","coordinates":[12.51133,41.89193]}},{"type":"Feature","properties":{"country_code":"LVA","city":"Riga","geoname_id":"456172","downloaders":"{\"size\":15190,\"mobile\":389,\"satellite\":0,\"tor\":0,\"tor_exit_nodes\":0,\"vpn\":633,\"relay\":0,\"proxy\":0,\"hosting\":1231,\"service\":375}","uploaders":"{\"size\":755,\"mobile\":99,\"satellite\":0,\"tor\":0,\"tor_exit_nodes\":0,\"vpn\":105,\"relay\":0,\"proxy\":0,\"hosting\":142,\"service\":100}"},"geometry":{"type":"Point","coordinates":[24.10589,56.946]}},{"type":"Feature","properties":{"country_code":"CHL","city":"Santiago","geoname_id":"3871336","downloaders":"{\"size\":14708,\"mobile\":3152,\"satellite\":36,\"tor\":0,\"tor_exit_nodes\":0,\"vpn\":49,\"relay\":0,\"proxy\":0,\"hosting\":1190,\"service\":32}","uploaders":"{\"size\":351,\"mobile\":160,\"satellite\":14,\"tor\":0,\"tor_exit_nodes\":0,\"vpn\":13,\"relay\":0,\"proxy\":0,\"hosting\":30,\"service\":11}"},"geometry":{"type":"Point","coordinates":[-70.64827,-33.45694]}},{"type":"Feature","properties":{"country_code":"KOR","city":"Suwon","geoname_id":"1835553","downloaders":"{\"size\":14680,\"mobile\":16,\"satellite\":0,\"tor\":0,\"tor_exit_nodes\":0,\"vpn\":186,\"relay\":0,\"proxy\":0,\"hosting\":0,\"service\":7}","uploaders":"{\"size\":35,\"mobile\":0,\"satellite\":0,\"tor\":0,\"tor_exit_nodes\":0,\"vpn\":0,\"relay\":0,\"proxy\":0,\"hosting\":0,\"service\":0}"},"geometry":{"type":"Point","coordinates":[127.00889,37.29111]}},{"type":"Feature","properties":{"country_code":"RUS","city":"Volgograd","geoname_id":"472757","downloaders":"{\"size\":14611,\"mobile\":611,\"satellite\":0,\"tor\":0,\"tor_exit_nodes\":0,\"vpn\":162,\"relay\":0,\"proxy\":0,\"hosting\":0,\"service\":1}","uploaders":"{\"size\":54,\"mobile\":0,\"satellite\":0,\"tor\":0,\"tor_exit_nodes\":0,\"vpn\":0,\"relay\":0,\"proxy\":0,\"hosting\":0,\"service\":0}"},"geometry":{"type":"Point","coordinates":[44.50183,48.71939]}},{"type":"Feature","properties":{"country_code":"BLR","city":"Minsk","geoname_id":"625144","downloaders":"{\"size\":14421,\"mobile\":159,\"satellite\":0,\"tor\":0,\"tor_exit_nodes\":0,\"vpn\":255,\"relay\":0,\"proxy\":0,\"hosting\":451,\"service\":34}","uploaders":"{\"size\":68,\"mobile\":0,\"satellite\":0,\"tor\":0,\"tor_exit_nodes\":0,\"vpn\":1,\"relay\":0,\"proxy\":0,\"hosting\":0,\"service\":0}"},"geometry":{"type":"Point","coordinates":[27.56653,53.90019]}},{"type":"Feature","properties":{"country_code":"JPN","city":"Tokyo","geoname_id":"1850147","downloaders":"{\"size\":14271,\"mobile\":779,\"satellite\":4,\"tor\":0,\"tor_exit_nodes\":0,\"vpn\":2582,\"relay\":19,\"proxy\":4,\"hosting\":4140,\"service\":2361}","uploaders":"{\"size\":711,\"mobile\":18,\"satellite\":4,\"tor\":0,\"tor_exit_nodes\":0,\"vpn\":523,\"relay\":0,\"proxy\":4,\"hosting\":547,\"service\":516}"},"geometry":{"type":"Point","coordinates":[139.69171,35.6895]}},{"type":"Feature","properties":{"country_code":"CHE","city":"Zürich","geoname_id":"2657896","downloaders":"{\"size\":14159,\"mobile\":959,\"satellite\":0,\"tor\":29,\"tor_exit_nodes\":6,\"vpn\":9589,\"relay\":9,\"proxy\":9,\"hosting\":8128,\"service\":9185}","uploaders":"{\"size\":4876,\"mobile\":217,\"satellite\":0,\"tor\":12,\"tor_exit_nodes\":3,\"vpn\":4317,\"relay\":4,\"proxy\":0,\"hosting\":3284,\"service\":4170}"},"geometry":{"type":"Point","coordinates":[8.55,47.36667]}},{"type":"Feature","properties":{"country_code":"RUS","city":"Kazan","geoname_id":"551487","downloaders":"{\"size\":14133,\"mobile\":1195,\"satellite\":0,\"tor\":0,\"tor_exit_nodes\":0,\"vpn\":214,\"relay\":0,\"proxy\":0,\"hosting\":57,\"service\":3}","uploaders":"{\"size\":32,\"mobile\":2,\"satellite\":0,\"tor\":0,\"tor_exit_nodes\":0,\"vpn\":0,\"relay\":0,\"proxy\":0,\"hosting\":0,\"service\":0}"},"geometry":{"type":"Point","coordinates":[49.12214,55.78874]}},{"type":"Feature","properties":{"country_code":"RUS","city":"Tula","geoname_id":"480562","downloaders":"{\"size\":13971,\"mobile\":2709,\"satellite\":0,\"tor\":0,\"tor_exit_nodes\":0,\"vpn\":92,\"relay\":0,\"proxy\":0,\"hosting\":128,\"service\":0}","uploaders":"{\"size\":53,\"mobile\":9,\"satellite\":0,\"tor\":0,\"tor_exit_nodes\":0,\"vpn\":1,\"relay\":0,\"proxy\":0,\"hosting\":0,\"service\":0}"},"geometry":{"type":"Point","coordinates":[37.61822,54.19609]}},{"type":"Feature","properties":{"country_code":"ESP","city":"Barcelona","geoname_id":"3128760","downloaders":"{\"size\":13877,\"mobile\":4835,\"satellite\":0,\"tor\":0,\"tor_exit_nodes\":0,\"vpn\":364,\"relay\":0,\"proxy\":0,\"hosting\":356,\"service\":344}","uploaders":"{\"size\":336,\"mobile\":61,\"satellite\":0,\"tor\":0,\"tor_exit_nodes\":0,\"vpn\":112,\"relay\":0,\"proxy\":0,\"hosting\":111,\"service\":111}"},"geometry":{"type":"Point","coordinates":[2.15899,41.38879]}},{"type":"Feature","properties":{"country_code":"RUS","city":"Khimki","geoname_id":"550280","downloaders":"{\"size\":13740,\"mobile\":4,\"satellite\":0,\"tor\":0,\"tor_exit_nodes\":0,\"vpn\":948,\"relay\":0,\"proxy\":0,\"hosting\":2816,\"service\":222}","uploaders":"{\"size\":59,\"mobile\":0,\"satellite\":0,\"tor\":0,\"tor_exit_nodes\":0,\"vpn\":4,\"relay\":0,\"proxy\":0,\"hosting\":7,\"service\":0}"},"geometry":{"type":"Point","coordinates":[37.42848,55.9001]}},{"type":"Feature","properties":{"country_code":"ROU","city":"Bucharest","geoname_id":"683506","downloaders":"{\"size\":13680,\"mobile\":2438,\"satellite\":0,\"tor\":12,\"tor_exit_nodes\":16,\"vpn\":1571,\"relay\":55,\"proxy\":0,\"hosting\":1794,\"service\":1455}","uploaders":"{\"size\":1141,\"mobile\":71,\"satellite\":0,\"tor\":2,\"tor_exit_nodes\":3,\"vpn\":509,\"relay\":8,\"proxy\":0,\"hosting\":541,\"service\":505}"},"geometry":{"type":"Point","coordinates":[26.10626,44.43225]}},{"type":"Feature","properties":{"country_code":"LTU","city":"Vilnius","geoname_id":"593116","downloaders":"{\"size\":13344,\"mobile\":475,\"satellite\":0,\"tor\":0,\"tor_exit_nodes\":0,\"vpn\":375,\"relay\":15,\"proxy\":0,\"hosting\":929,\"service\":316}","uploaders":"{\"size\":327,\"mobile\":57,\"satellite\":0,\"tor\":0,\"tor_exit_nodes\":0,\"vpn\":94,\"relay\":4,\"proxy\":0,\"hosting\":99,\"service\":98}"},"geometry":{"type":"Point","coordinates":[25.2798,54.68916]}},{"type":"Feature","properties":{"country_code":"RUS","city":"Irkutsk","geoname_id":"2023469","downloaders":"{\"size\":13292,\"mobile\":858,\"satellite\":0,\"tor\":0,\"tor_exit_nodes\":0,\"vpn\":12,\"relay\":0,\"proxy\":0,\"hosting\":1,\"service\":1}","uploaders":"{\"size\":40,\"mobile\":0,\"satellite\":0,\"tor\":0,\"tor_exit_nodes\":0,\"vpn\":0,\"relay\":0,\"proxy\":0,\"hosting\":0,\"service\":0}"},"geometry":{"type":"Point","coordinates":[104.29585,52.29795]}},{"type":"Feature","properties":{"country_code":"RUS","city":"Lipetsk","geoname_id":"535121","downloaders":"{\"size\":13169,\"mobile\":1657,\"satellite\":0,\"tor\":0,\"tor_exit_nodes\":0,\"vpn\":108,\"relay\":0,\"proxy\":0,\"hosting\":0,\"service\":18}","uploaders":"{\"size\":84,\"mobile\":22,\"satellite\":0,\"tor\":0,\"tor_exit_nodes\":0,\"vpn\":0,\"relay\":0,\"proxy\":0,\"hosting\":0,\"service\":0}"},"geometry":{"type":"Point","coordinates":[39.57076,52.60311]}},{"type":"Feature","properties":{"country_code":"DEU","city":"Berlin","geoname_id":"2950159","downloaders":"{\"size\":12272,\"mobile\":4126,\"satellite\":19,\"tor\":228,\"tor_exit_nodes\":241,\"vpn\":1416,\"relay\":0,\"proxy\":0,\"hosting\":1688,\"service\":1186}","uploaders":"{\"size\":575,\"mobile\":21,\"satellite\":0,\"tor\":40,\"tor_exit_nodes\":40,\"vpn\":442,\"relay\":0,\"proxy\":0,\"hosting\":463,\"service\":387}"},"geometry":{"type":"Point","coordinates":[13.41053,52.52437]}},{"type":"Feature","properties":{"country_code":"CAN","city":"Vancouver","geoname_id":"6173331","downloaders":"{\"size\":12114,\"mobile\":711,\"satellite\":11,\"tor\":0,\"tor_exit_nodes\":0,\"vpn\":7061,\"relay\":0,\"proxy\":0,\"hosting\":5613,\"service\":6454}","uploaders":"{\"size\":3604,\"mobile\":96,\"satellite\":4,\"tor\":0,\"tor_exit_nodes\":0,\"vpn\":2577,\"relay\":0,\"proxy\":0,\"hosting\":2082,\"service\":2403}"},"geometry":{"type":"Point","coordinates":[-123.11934,49.24966]}},{"type":"Feature","properties":{"country_code":"POL","city":"Poznań","geoname_id":"3088171","downloaders":"{\"size\":12033,\"mobile\":427,\"satellite\":0,\"tor\":2,\"tor_exit_nodes\":2,\"vpn\":64,\"relay\":0,\"proxy\":0,\"hosting\":20,\"service\":0}","uploaders":"{\"size\":131,\"mobile\":19,\"satellite\":0,\"tor\":1,\"tor_exit_nodes\":1,\"vpn\":2,\"relay\":0,\"proxy\":0,\"hosting\":5,\"service\":0}"},"geometry":{"type":"Point","coordinates":[16.92993,52.40692]}},{"type":"Feature","properties":{"country_code":"RUS","city":"Tolyatti","geoname_id":"482283","downloaders":"{\"size\":12001,\"mobile\":5,\"satellite\":0,\"tor\":0,\"tor_exit_nodes\":0,\"vpn\":67,\"relay\":0,\"proxy\":0,\"hosting\":0,\"service\":1}","uploaders":"{\"size\":28,\"mobile\":0,\"satellite\":0,\"tor\":0,\"tor_exit_nodes\":0,\"vpn\":0,\"relay\":0,\"proxy\":0,\"hosting\":0,\"service\":0}"},"geometry":{"type":"Point","coordinates":[49.3461,53.5303]}},{"type":"Feature","properties":{"country_code":"CZE","city":"Prague","geoname_id":"3067696","downloaders":"{\"size\":11953,\"mobile\":956,\"satellite\":1,\"tor\":0,\"tor_exit_nodes\":1,\"vpn\":1595,\"relay\":0,\"proxy\":0,\"hosting\":2396,\"service\":1407}","uploaders":"{\"size\":812,\"mobile\":82,\"satellite\":0,\"tor\":0,\"tor_exit_nodes\":0,\"vpn\":403,\"relay\":0,\"proxy\":0,\"hosting\":409,\"service\":399}"},"geometry":{"type":"Point","coordinates":[14.42076,50.08804]}},{"type":"Feature","properties":{"country_code":"SVN","city":"Ljubljana","geoname_id":"3196359","downloaders":"{\"size\":11713,\"mobile\":456,\"satellite\":0,\"tor\":0,\"tor_exit_nodes\":0,\"vpn\":315,\"relay\":0,\"proxy\":0,\"hosting\":198,\"service\":156}","uploaders":"{\"size\":745,\"mobile\":205,\"satellite\":0,\"tor\":0,\"tor_exit_nodes\":0,\"vpn\":64,\"relay\":0,\"proxy\":0,\"hosting\":65,\"service\":61}"},"geometry":{"type":"Point","coordinates":[14.50513,46.05108]}},{"type":"Feature","properties":{"country_code":"RUS","city":"Yaroslavl","geoname_id":"468902","downloaders":"{\"size\":11630,\"mobile\":828,\"satellite\":0,\"tor\":0,\"tor_exit_nodes\":0,\"vpn\":108,\"relay\":0,\"proxy\":0,\"hosting\":0,\"service\":2}","uploaders":"{\"size\":45,\"mobile\":5,\"satellite\":0,\"tor\":0,\"tor_exit_nodes\":0,\"vpn\":0,\"relay\":0,\"proxy\":0,\"hosting\":0,\"service\":0}"},"geometry":{"type":"Point","coordinates":[39.87368,57.62987]}},{"type":"Feature","properties":{"country_code":"USA","city":"Atlanta","geoname_id":"4180439","downloaders":"{\"size\":11518,\"mobile\":344,\"satellite\":16,\"tor\":0,\"tor_exit_nodes\":0,\"vpn\":4754,\"relay\":24,\"proxy\":0,\"hosting\":6455,\"service\":4561}","uploaders":"{\"size\":2169,\"mobile\":137,\"satellite\":8,\"tor\":0,\"tor_exit_nodes\":0,\"vpn\":1400,\"relay\":0,\"proxy\":0,\"hosting\":1856,\"service\":1360}"},"geometry":{"type":"Point","coordinates":[-84.38798,33.749]}},{"type":"Feature","properties":{"country_code":"SGP","city":"Singapore","geoname_id":"1880252","downloaders":"{\"size\":11510,\"mobile\":574,\"satellite\":0,\"tor\":0,\"tor_exit_nodes\":0,\"vpn\":4679,\"relay\":0,\"proxy\":0,\"hosting\":7210,\"service\":4627}","uploaders":"{\"size\":1925,\"mobile\":62,\"satellite\":0,\"tor\":0,\"tor_exit_nodes\":0,\"vpn\":1575,\"relay\":0,\"proxy\":0,\"hosting\":1668,\"service\":1574}"},"geometry":{"type":"Point","coordinates":[103.85007,1.28967]}},{"type":"Feature","properties":{"country_code":"USA","city":"Phoenix","geoname_id":"5308655","downloaders":"{\"size\":11427,\"mobile\":349,\"satellite\":17,\"tor\":0,\"tor_exit_nodes\":1,\"vpn\":2359,\"relay\":0,\"proxy\":0,\"hosting\":7102,\"service\":2256}","uploaders":"{\"size\":1577,\"mobile\":109,\"satellite\":1,\"tor\":0,\"tor_exit_nodes\":0,\"vpn\":1041,\"relay\":0,\"proxy\":0,\"hosting\":1314,\"service\":998}"},"geometry":{"type":"Point","coordinates":[-112.07404,33.44838]}},{"type":"Feature","properties":{"country_code":"RUS","city":"Balashikha","geoname_id":"579464","downloaders":"{\"size\":11406,\"mobile\":226,\"satellite\":0,\"tor\":0,\"tor_exit_nodes\":0,\"vpn\":473,\"relay\":0,\"proxy\":0,\"hosting\":437,\"service\":47}","uploaders":"{\"size\":41,\"mobile\":0,\"satellite\":0,\"tor\":0,\"tor_exit_nodes\":0,\"vpn\":0,\"relay\":0,\"proxy\":0,\"hosting\":2,\"service\":0}"},"geometry":{"type":"Point","coordinates":[37.94794,55.79479]}},{"type":"Feature","properties":{"country_code":"KOR","city":"Daejeon","geoname_id":"1835235","downloaders":"{\"size\":11191,\"mobile\":4,\"satellite\":0,\"tor\":0,\"tor_exit_nodes\":0,\"vpn\":196,\"relay\":0,\"proxy\":0,\"hosting\":0,\"service\":35}","uploaders":"{\"size\":31,\"mobile\":0,\"satellite\":0,\"tor\":0,\"tor_exit_nodes\":0,\"vpn\":0,\"relay\":0,\"proxy\":0,\"hosting\":0,\"service\":0}"},"geometry":{"type":"Point","coordinates":[127.38493,36.34913]}},{"type":"Feature","properties":{"country_code":"IRQ","city":"Baghdad","geoname_id":"98182","downloaders":"{\"size\":11123,\"mobile\":65,\"satellite\":0,\"tor\":0,\"tor_exit_nodes\":0,\"vpn\":10,\"relay\":0,\"proxy\":0,\"hosting\":5,\"service\":0}","uploaders":"{\"size\":46,\"mobile\":29,\"satellite\":0,\"tor\":0,\"tor_exit_nodes\":0,\"vpn\":0,\"relay\":0,\"proxy\":0,\"hosting\":0,\"service\":0}"},"geometry":{"type":"Point","coordinates":[44.40088,33.34058]}},{"type":"Feature","properties":{"country_code":"RUS","city":"Tver","geoname_id":"480060","downloaders":"{\"size\":10968,\"mobile\":105,\"satellite\":0,\"tor\":0,\"tor_exit_nodes\":0,\"vpn\":137,\"relay\":0,\"proxy\":0,\"hosting\":60,\"service\":18}","uploaders":"{\"size\":46,\"mobile\":0,\"satellite\":0,\"tor\":0,\"tor_exit_nodes\":0,\"vpn\":0,\"relay\":0,\"proxy\":0,\"hosting\":0,\"service\":0}"},"geometry":{"type":"Point","coordinates":[35.90057,56.85836]}},{"type":"Feature","properties":{"country_code":"HRV","city":"Zagreb","geoname_id":"3186886","downloaders":"{\"size\":10926,\"mobile\":1160,\"satellite\":0,\"tor\":0,\"tor_exit_nodes\":0,\"vpn\":429,\"relay\":3,\"proxy\":0,\"hosting\":405,\"service\":385}","uploaders":"{\"size\":1195,\"mobile\":267,\"satellite\":0,\"tor\":0,\"tor_exit_nodes\":0,\"vpn\":146,\"relay\":2,\"proxy\":0,\"hosting\":147,\"service\":146}"},"geometry":{"type":"Point","coordinates":[15.97798,45.81444]}},{"type":"Feature","properties":{"country_code":"RUS","city":"Penza","geoname_id":"511565","downloaders":"{\"size\":10886,\"mobile\":887,\"satellite\":0,\"tor\":0,\"tor_exit_nodes\":0,\"vpn\":63,\"relay\":0,\"proxy\":0,\"hosting\":0,\"service\":7}","uploaders":"{\"size\":38,\"mobile\":0,\"satellite\":0,\"tor\":0,\"tor_exit_nodes\":0,\"vpn\":0,\"relay\":0,\"proxy\":0,\"hosting\":0,\"service\":0}"},"geometry":{"type":"Point","coordinates":[45.00464,53.20066]}},{"type":"Feature","properties":{"country_code":"RUS","city":"Kirov","geoname_id":"548408","downloaders":"{\"size\":10473,\"mobile\":14,\"satellite\":0,\"tor\":0,\"tor_exit_nodes\":0,\"vpn\":729,\"relay\":0,\"proxy\":0,\"hosting\":0,\"service\":650}","uploaders":"{\"size\":106,\"mobile\":0,\"satellite\":0,\"tor\":0,\"tor_exit_nodes\":0,\"vpn\":5,\"relay\":0,\"proxy\":0,\"hosting\":0,\"service\":0}"},"geometry":{"type":"Point","coordinates":[49.66007,58.59665]}},{"type":"Feature","properties":{"country_code":"KOR","city":"Hwaseong-si","geoname_id":"1843847","downloaders":"{\"size\":10453,\"mobile\":5,\"satellite\":0,\"tor\":0,\"tor_exit_nodes\":0,\"vpn\":160,\"relay\":0,\"proxy\":0,\"hosting\":0,\"service\":14}","uploaders":"{\"size\":21,\"mobile\":0,\"satellite\":0,\"tor\":0,\"tor_exit_nodes\":0,\"vpn\":1,\"relay\":0,\"proxy\":0,\"hosting\":0,\"service\":0}"},"geometry":{"type":"Point","coordinates":[126.8169,37.20682]}},{"type":"Feature","properties":{"country_code":"RUS","city":"Bryansk","geoname_id":"571476","downloaders":"{\"size\":10369,\"mobile\":2,\"satellite\":0,\"tor\":0,\"tor_exit_nodes\":0,\"vpn\":40,\"relay\":0,\"proxy\":0,\"hosting\":0,\"service\":7}","uploaders":"{\"size\":29,\"mobile\":0,\"satellite\":0,\"tor\":0,\"tor_exit_nodes\":0,\"vpn\":0,\"relay\":0,\"proxy\":0,\"hosting\":0,\"service\":0}"},"geometry":{"type":"Point","coordinates":[34.37167,53.25209]}},{"type":"Feature","properties":{"country_code":"USA","city":"Miami","geoname_id":"4164138","downloaders":"{\"size\":10365,\"mobile\":166,\"satellite\":35,\"tor\":1,\"tor_exit_nodes\":3,\"vpn\":7998,\"relay\":0,\"proxy\":1,\"hosting\":8255,\"service\":7944}","uploaders":"{\"size\":2458,\"mobile\":37,\"satellite\":14,\"tor\":0,\"tor_exit_nodes\":2,\"vpn\":2212,\"relay\":0,\"proxy\":0,\"hosting\":2243,\"service\":2194}"},"geometry":{"type":"Point","coordinates":[-80.19366,25.77427]}},{"type":"Feature","properties":{"country_code":"RUS","city":"Ulyanovsk","geoname_id":"479123","downloaders":"{\"size\":10228,\"mobile\":504,\"satellite\":0,\"tor\":0,\"tor_exit_nodes\":0,\"vpn\":57,\"relay\":0,\"proxy\":0,\"hosting\":0,\"service\":6}","uploaders":"{\"size\":40,\"mobile\":2,\"satellite\":0,\"tor\":0,\"tor_exit_nodes\":0,\"vpn\":0,\"relay\":0,\"proxy\":0,\"hosting\":0,\"service\":0}"},"geometry":{"type":"Point","coordinates":[48.38657,54.32824]}},{"type":"Feature","properties":{"country_code":"KOR","city":"Seongnam-si","geoname_id":"1897000","downloaders":"{\"size\":9963,\"mobile\":5,\"satellite\":0,\"tor\":0,\"tor_exit_nodes\":0,\"vpn\":153,\"relay\":0,\"proxy\":0,\"hosting\":0,\"service\":26}","uploaders":"{\"size\":22,\"mobile\":0,\"satellite\":0,\"tor\":0,\"tor_exit_nodes\":0,\"vpn\":0,\"relay\":0,\"proxy\":0,\"hosting\":0,\"service\":0}"},"geometry":{"type":"Point","coordinates":[127.13778,37.43861]}},{"type":"Feature","properties":{"country_code":"FRA","city":"Calais","geoname_id":"3029162","downloaders":"{\"size\":9905,\"mobile\":253,\"satellite\":0,\"tor\":11,\"tor_exit_nodes\":12,\"vpn\":234,\"relay\":0,\"proxy\":5,\"hosting\":9368,\"service\":30}","uploaders":"{\"size\":55,\"mobile\":0,\"satellite\":0,\"tor\":0,\"tor_exit_nodes\":0,\"vpn\":0,\"relay\":0,\"proxy\":0,\"hosting\":55,\"service\":0}"},"geometry":{"type":"Point","coordinates":[1.85635,50.95194]}},{"type":"Feature","properties":{"country_code":"RUS","city":"Orenburg","geoname_id":"515003","downloaders":"{\"size\":9818,\"mobile\":14,\"satellite\":0,\"tor\":0,\"tor_exit_nodes\":0,\"vpn\":304,\"relay\":0,\"proxy\":0,\"hosting\":0,\"service\":247}","uploaders":"{\"size\":13,\"mobile\":0,\"satellite\":0,\"tor\":0,\"tor_exit_nodes\":0,\"vpn\":0,\"relay\":0,\"proxy\":0,\"hosting\":0,\"service\":0}"},"geometry":{"type":"Point","coordinates":[55.0988,51.7727]}},{"type":"Feature","properties":{"country_code":"KOR","city":"Goyang-si","geoname_id":"1842485","downloaders":"{\"size\":9485,\"mobile\":0,\"satellite\":0,\"tor\":0,\"tor_exit_nodes\":0,\"vpn\":95,\"relay\":0,\"proxy\":0,\"hosting\":0,\"service\":7}","uploaders":"{\"size\":15,\"mobile\":0,\"satellite\":0,\"tor\":0,\"tor_exit_nodes\":0,\"vpn\":0,\"relay\":0,\"proxy\":0,\"hosting\":0,\"service\":0}"},"geometry":{"type":"Point","coordinates":[126.835,37.65639]}},{"type":"Feature","properties":{"country_code":"RUS","city":"Izhevsk","geoname_id":"554840","downloaders":"{\"size\":9349,\"mobile\":583,\"satellite\":0,\"tor\":0,\"tor_exit_nodes\":0,\"vpn\":65,\"relay\":0,\"proxy\":0,\"hosting\":5,\"service\":5}","uploaders":"{\"size\":25,\"mobile\":2,\"satellite\":0,\"tor\":0,\"tor_exit_nodes\":0,\"vpn\":0,\"relay\":0,\"proxy\":0,\"hosting\":0,\"service\":0}"},"geometry":{"type":"Point","coordinates":[53.20448,56.84976]}},{"type":"Feature","properties":{"country_code":"AUS","city":"Brisbane","geoname_id":"2174003","downloaders":"{\"size\":9319,\"mobile\":844,\"satellite\":87,\"tor\":0,\"tor_exit_nodes\":0,\"vpn\":2181,\"relay\":0,\"proxy\":0,\"hosting\":2310,\"service\":1664}","uploaders":"{\"size\":3319,\"mobile\":335,\"satellite\":44,\"tor\":0,\"tor_exit_nodes\":0,\"vpn\":899,\"relay\":0,\"proxy\":0,\"hosting\":951,\"service\":799}"},"geometry":{"type":"Point","coordinates":[153.02809,-27.46794]}},{"type":"Feature","properties":{"country_code":"RUS","city":"Cheboksary","geoname_id":"569696","downloaders":"{\"size\":9234,\"mobile\":965,\"satellite\":0,\"tor\":0,\"tor_exit_nodes\":0,\"vpn\":89,\"relay\":0,\"proxy\":0,\"hosting\":0,\"service\":2}","uploaders":"{\"size\":27,\"mobile\":1,\"satellite\":0,\"tor\":0,\"tor_exit_nodes\":0,\"vpn\":1,\"relay\":0,\"proxy\":0,\"hosting\":0,\"service\":0}"},"geometry":{"type":"Point","coordinates":[47.25194,56.13222]}},{"type":"Feature","properties":{"country_code":"RUS","city":"Kamensk-Ural’skiy","geoname_id":"1504826","downloaders":"{\"size\":9195,\"mobile\":0,\"satellite\":0,\"tor\":0,\"tor_exit_nodes\":0,\"vpn\":13,\"relay\":0,\"proxy\":0,\"hosting\":0,\"service\":2}","uploaders":"{\"size\":14,\"mobile\":0,\"satellite\":0,\"tor\":0,\"tor_exit_nodes\":0,\"vpn\":0,\"relay\":0,\"proxy\":0,\"hosting\":0,\"service\":0}"},"geometry":{"type":"Point","coordinates":[61.93347,56.40626]}},{"type":"Feature","properties":{"country_code":"KOR","city":"Gwangju","geoname_id":"1841811","downloaders":"{\"size\":9166,\"mobile\":2,\"satellite\":0,\"tor\":0,\"tor_exit_nodes\":0,\"vpn\":35,\"relay\":0,\"proxy\":0,\"hosting\":1,\"service\":2}","uploaders":"{\"size\":17,\"mobile\":0,\"satellite\":0,\"tor\":0,\"tor_exit_nodes\":0,\"vpn\":0,\"relay\":0,\"proxy\":0,\"hosting\":0,\"service\":0}"},"geometry":{"type":"Point","coordinates":[126.91556,35.15472]}},{"type":"Feature","properties":{"country_code":"COL","city":"Bogotá","geoname_id":"3688689","downloaders":"{\"size\":9116,\"mobile\":3992,\"satellite\":15,\"tor\":0,\"tor_exit_nodes\":0,\"vpn\":339,\"relay\":0,\"proxy\":0,\"hosting\":436,\"service\":264}","uploaders":"{\"size\":305,\"mobile\":87,\"satellite\":4,\"tor\":0,\"tor_exit_nodes\":0,\"vpn\":102,\"relay\":0,\"proxy\":0,\"hosting\":97,\"service\":88}"},"geometry":{"type":"Point","coordinates":[-74.08175,4.60971]}},{"type":"Feature","properties":{"country_code":"TUR","city":"Antalya","geoname_id":"323777","downloaders":"{\"size\":9020,\"mobile\":4353,\"satellite\":0,\"tor\":0,\"tor_exit_nodes\":0,\"vpn\":2,\"relay\":0,\"proxy\":0,\"hosting\":0,\"service\":0}","uploaders":"{\"size\":25,\"mobile\":7,\"satellite\":0,\"tor\":0,\"tor_exit_nodes\":0,\"vpn\":0,\"relay\":0,\"proxy\":0,\"hosting\":0,\"service\":0}"},"geometry":{"type":"Point","coordinates":[30.69556,36.90812]}},{"type":"Feature","properties":{"country_code":"TUR","city":"Gaziantep","geoname_id":"314830","downloaders":"{\"size\":9000,\"mobile\":541,\"satellite\":0,\"tor\":0,\"tor_exit_nodes\":0,\"vpn\":1,\"relay\":0,\"proxy\":0,\"hosting\":0,\"service\":0}","uploaders":"{\"size\":10,\"mobile\":2,\"satellite\":0,\"tor\":0,\"tor_exit_nodes\":0,\"vpn\":0,\"relay\":0,\"proxy\":0,\"hosting\":0,\"service\":0}"},"geometry":{"type":"Point","coordinates":[37.3825,37.05944]}},{"type":"Feature","properties":{"country_code":"GRC","city":"Thessaloníki","geoname_id":"734077","downloaders":"{\"size\":8956,\"mobile\":404,\"satellite\":0,\"tor\":0,\"tor_exit_nodes\":0,\"vpn\":19,\"relay\":0,\"proxy\":0,\"hosting\":114,\"service\":3}","uploaders":"{\"size\":1872,\"mobile\":223,\"satellite\":0,\"tor\":0,\"tor_exit_nodes\":0,\"vpn\":1,\"relay\":0,\"proxy\":0,\"hosting\":13,\"service\":0}"},"geometry":{"type":"Point","coordinates":[22.93086,40.64361]}},{"type":"Feature","properties":{"country_code":"ITA","city":"Naples","geoname_id":"3172394","downloaders":"{\"size\":8928,\"mobile\":1930,\"satellite\":0,\"tor\":0,\"tor_exit_nodes\":0,\"vpn\":16,\"relay\":0,\"proxy\":0,\"hosting\":3,\"service\":0}","uploaders":"{\"size\":74,\"mobile\":14,\"satellite\":0,\"tor\":0,\"tor_exit_nodes\":0,\"vpn\":0,\"relay\":0,\"proxy\":0,\"hosting\":0,\"service\":0}"},"geometry":{"type":"Point","coordinates":[14.26811,40.85216]}},{"type":"Feature","properties":{"country_code":"AUT","city":"Vienna","geoname_id":"2761369","downloaders":"{\"size\":8901,\"mobile\":1002,\"satellite\":0,\"tor\":4,\"tor_exit_nodes\":4,\"vpn\":1105,\"relay\":1,\"proxy\":9,\"hosting\":1234,\"service\":1054}","uploaders":"{\"size\":835,\"mobile\":177,\"satellite\":0,\"tor\":0,\"tor_exit_nodes\":0,\"vpn\":387,\"relay\":0,\"proxy\":0,\"hosting\":398,\"service\":387}"},"geometry":{"type":"Point","coordinates":[16.37208,48.20849]}},{"type":"Feature","properties":{"country_code":"ISR","city":"Tel Aviv","geoname_id":"293397","downloaders":"{\"size\":8856,\"mobile\":1783,\"satellite\":0,\"tor\":0,\"tor_exit_nodes\":0,\"vpn\":523,\"relay\":0,\"proxy\":0,\"hosting\":695,\"service\":462}","uploaders":"{\"size\":1531,\"mobile\":324,\"satellite\":0,\"tor\":0,\"tor_exit_nodes\":0,\"vpn\":201,\"relay\":0,\"proxy\":0,\"hosting\":273,\"service\":194}"},"geometry":{"type":"Point","coordinates":[34.78057,32.08088]}},{"type":"Feature","properties":{"country_code":"KOR","city":"Ansan-si","geoname_id":"1846918","downloaders":"{\"size\":8685,\"mobile\":2,\"satellite\":0,\"tor\":0,\"tor_exit_nodes\":0,\"vpn\":147,\"relay\":0,\"proxy\":0,\"hosting\":0,\"service\":8}","uploaders":"{\"size\":17,\"mobile\":0,\"satellite\":0,\"tor\":0,\"tor_exit_nodes\":0,\"vpn\":0,\"relay\":0,\"proxy\":0,\"hosting\":0,\"service\":0}"},"geometry":{"type":"Point","coordinates":[126.82194,37.32361]}},{"type":"Feature","properties":{"country_code":"POL","city":"Mokotów","geoname_id":"764484","downloaders":"{\"size\":8490,\"mobile\":76,\"satellite\":0,\"tor\":0,\"tor_exit_nodes\":0,\"vpn\":0,\"relay\":0,\"proxy\":0,\"hosting\":9,\"service\":0}","uploaders":"{\"size\":125,\"mobile\":9,\"satellite\":0,\"tor\":0,\"tor_exit_nodes\":0,\"vpn\":0,\"relay\":0,\"proxy\":0,\"hosting\":0,\"service\":0}"},"geometry":{"type":"Point","coordinates":[20.9944,52.177]}},{"type":"Feature","properties":{"country_code":"RUS","city":"Surgut","geoname_id":"1490624","downloaders":"{\"size\":8422,\"mobile\":732,\"satellite\":0,\"tor\":0,\"tor_exit_nodes\":0,\"vpn\":38,\"relay\":0,\"proxy\":0,\"hosting\":16,\"service\":11}","uploaders":"{\"size\":17,\"mobile\":0,\"satellite\":0,\"tor\":0,\"tor_exit_nodes\":0,\"vpn\":1,\"relay\":0,\"proxy\":0,\"hosting\":0,\"service\":0}"},"geometry":{"type":"Point","coordinates":[73.41775,61.25757]}},{"type":"Feature","properties":{"country_code":"ZAF","city":"Johannesburg","geoname_id":"993800","downloaders":"{\"size\":8308,\"mobile\":3092,\"satellite\":3,\"tor\":0,\"tor_exit_nodes\":0,\"vpn\":365,\"relay\":0,\"proxy\":0,\"hosting\":1795,\"service\":310}","uploaders":"{\"size\":2923,\"mobile\":1299,\"satellite\":0,\"tor\":0,\"tor_exit_nodes\":0,\"vpn\":112,\"relay\":0,\"proxy\":0,\"hosting\":600,\"service\":98}"},"geometry":{"type":"Point","coordinates":[28.04363,-26.20227]}},{"type":"Feature","properties":{"country_code":"BRA","city":"Guarulhos","geoname_id":"3461786","downloaders":"{\"size\":8279,\"mobile\":180,\"satellite\":0,\"tor\":0,\"tor_exit_nodes\":0,\"vpn\":26,\"relay\":0,\"proxy\":0,\"hosting\":0,\"service\":1}","uploaders":"{\"size\":11,\"mobile\":0,\"satellite\":0,\"tor\":0,\"tor_exit_nodes\":0,\"vpn\":0,\"relay\":0,\"proxy\":0,\"hosting\":0,\"service\":0}"},"geometry":{"type":"Point","coordinates":[-46.53333,-23.46278]}},{"type":"Feature","properties":{"country_code":"BRA","city":"Colombo","geoname_id":"3465927","downloaders":"{\"size\":8271,\"mobile\":0,\"satellite\":0,\"tor\":0,\"tor_exit_nodes\":0,\"vpn\":6,\"relay\":0,\"proxy\":0,\"hosting\":0,\"service\":0}","uploaders":"{\"size\":19,\"mobile\":0,\"satellite\":0,\"tor\":0,\"tor_exit_nodes\":0,\"vpn\":0,\"relay\":0,\"proxy\":0,\"hosting\":0,\"service\":0}"},"geometry":{"type":"Point","coordinates":[-49.22417,-25.29167]}},{"type":"Feature","properties":{"country_code":"PRT","city":"Lisbon","geoname_id":"2267057","downloaders":"{\"size\":8197,\"mobile\":578,\"satellite\":0,\"tor\":0,\"tor_exit_nodes\":0,\"vpn\":351,\"relay\":2,\"proxy\":0,\"hosting\":433,\"service\":318}","uploaders":"{\"size\":697,\"mobile\":170,\"satellite\":0,\"tor\":0,\"tor_exit_nodes\":0,\"vpn\":116,\"relay\":0,\"proxy\":0,\"hosting\":142,\"service\":114}"},"geometry":{"type":"Point","coordinates":[-9.1498,38.72509]}},{"type":"Feature","properties":{"country_code":"RUS","city":"Khabarovsk","geoname_id":"2022890","downloaders":"{\"size\":7986,\"mobile\":508,\"satellite\":9,\"tor\":0,\"tor_exit_nodes\":0,\"vpn\":119,\"relay\":0,\"proxy\":0,\"hosting\":59,\"service\":97}","uploaders":"{\"size\":20,\"mobile\":1,\"satellite\":0,\"tor\":0,\"tor_exit_nodes\":0,\"vpn\":0,\"relay\":0,\"proxy\":0,\"hosting\":0,\"service\":0}"},"geometry":{"type":"Point","coordinates":[135.08822,48.48032]}},{"type":"Feature","properties":{"country_code":"RUS","city":"Novokuznetsk","geoname_id":"1496990","downloaders":"{\"size\":7959,\"mobile\":16,\"satellite\":0,\"tor\":0,\"tor_exit_nodes\":0,\"vpn\":13,\"relay\":0,\"proxy\":0,\"hosting\":0,\"service\":0}","uploaders":"{\"size\":27,\"mobile\":0,\"satellite\":0,\"tor\":0,\"tor_exit_nodes\":0,\"vpn\":0,\"relay\":0,\"proxy\":0,\"hosting\":0,\"service\":0}"},"geometry":{"type":"Point","coordinates":[87.13599,53.75752]}},{"type":"Feature","properties":{"country_code":"NOR","city":"Oslo","geoname_id":"3143244","downloaders":"{\"size\":7893,\"mobile\":462,\"satellite\":0,\"tor\":3,\"tor_exit_nodes\":32,\"vpn\":2652,\"relay\":1,\"proxy\":1,\"hosting\":1879,\"service\":2596}","uploaders":"{\"size\":1203,\"mobile\":39,\"satellite\":0,\"tor\":0,\"tor_exit_nodes\":1,\"vpn\":857,\"relay\":0,\"proxy\":1,\"hosting\":642,\"service\":855}"},"geometry":{"type":"Point","coordinates":[10.74609,59.91273]}},{"type":"Feature","properties":{"country_code":"RUS","city":"Kaliningrad","geoname_id":"554234","downloaders":"{\"size\":7889,\"mobile\":29,\"satellite\":0,\"tor\":0,\"tor_exit_nodes\":0,\"vpn\":49,\"relay\":0,\"proxy\":0,\"hosting\":3,\"service\":10}","uploaders":"{\"size\":22,\"mobile\":1,\"satellite\":0,\"tor\":0,\"tor_exit_nodes\":0,\"vpn\":0,\"relay\":0,\"proxy\":0,\"hosting\":0,\"service\":0}"},"geometry":{"type":"Point","coordinates":[20.51095,54.70649]}},{"type":"Feature","properties":{"country_code":"SAU","city":"Riyadh","geoname_id":"108410","downloaders":"{\"size\":7798,\"mobile\":2335,\"satellite\":0,\"tor\":0,\"tor_exit_nodes\":0,\"vpn\":14,\"relay\":0,\"proxy\":0,\"hosting\":12,\"service\":2}","uploaders":"{\"size\":633,\"mobile\":274,\"satellite\":0,\"tor\":0,\"tor_exit_nodes\":0,\"vpn\":4,\"relay\":0,\"proxy\":0,\"hosting\":3,\"service\":0}"},"geometry":{"type":"Point","coordinates":[46.72185,24.68773]}},{"type":"Feature","properties":{"country_code":"MDA","city":"Chisinau","geoname_id":"618426","downloaders":"{\"size\":7775,\"mobile\":123,\"satellite\":0,\"tor\":4,\"tor_exit_nodes\":4,\"vpn\":110,\"relay\":0,\"proxy\":0,\"hosting\":280,\"service\":75}","uploaders":"{\"size\":44,\"mobile\":1,\"satellite\":0,\"tor\":1,\"tor_exit_nodes\":1,\"vpn\":17,\"relay\":0,\"proxy\":0,\"hosting\":26,\"service\":17}"},"geometry":{"type":"Point","coordinates":[28.85938,47.00902]}},{"type":"Feature","properties":{"country_code":"RUS","city":"Ryazan’","geoname_id":"500096","downloaders":"{\"size\":7740,\"mobile\":100,\"satellite\":0,\"tor\":0,\"tor_exit_nodes\":4,\"vpn\":144,\"relay\":0,\"proxy\":0,\"hosting\":15,\"service\":17}","uploaders":"{\"size\":21,\"mobile\":0,\"satellite\":0,\"tor\":0,\"tor_exit_nodes\":1,\"vpn\":0,\"relay\":0,\"proxy\":0,\"hosting\":0,\"service\":0}"},"geometry":{"type":"Point","coordinates":[39.6916,54.6269]}},{"type":"Feature","properties":{"country_code":"MEX","city":"Ciudad General Escobedo","geoname_id":"4005867","downloaders":"{\"size\":7707,\"mobile\":1,\"satellite\":0,\"tor\":0,\"tor_exit_nodes\":0,\"vpn\":10,\"relay\":0,\"proxy\":0,\"hosting\":0,\"service\":3}","uploaders":"{\"size\":42,\"mobile\":0,\"satellite\":0,\"tor\":0,\"tor_exit_nodes\":0,\"vpn\":0,\"relay\":0,\"proxy\":0,\"hosting\":0,\"service\":0}"},"geometry":{"type":"Point","coordinates":[-100.31791,25.79698]}},{"type":"Feature","properties":{"country_code":"RUS","city":"Ivanovo","geoname_id":"555312","downloaders":"{\"size\":7665,\"mobile\":342,\"satellite\":0,\"tor\":0,\"tor_exit_nodes\":0,\"vpn\":136,\"relay\":0,\"proxy\":0,\"hosting\":0,\"service\":28}","uploaders":"{\"size\":26,\"mobile\":0,\"satellite\":0,\"tor\":0,\"tor_exit_nodes\":0,\"vpn\":0,\"relay\":0,\"proxy\":0,\"hosting\":0,\"service\":0}"},"geometry":{"type":"Point","coordinates":[40.97139,56.99719]}},{"type":"Feature","properties":{"country_code":"USA","city":"Houston","geoname_id":"4699066","downloaders":"{\"size\":7604,\"mobile\":69,\"satellite\":0,\"tor\":0,\"tor_exit_nodes\":0,\"vpn\":1228,\"relay\":0,\"proxy\":0,\"hosting\":1553,\"service\":1122}","uploaders":"{\"size\":681,\"mobile\":22,\"satellite\":0,\"tor\":0,\"tor_exit_nodes\":0,\"vpn\":375,\"relay\":0,\"proxy\":0,\"hosting\":525,\"service\":351}"},"geometry":{"type":"Point","coordinates":[-95.4625,29.9796]}},{"type":"Feature","properties":{"country_code":"PRT","city":"Porto","geoname_id":"2735943","downloaders":"{\"size\":7581,\"mobile\":364,\"satellite\":0,\"tor\":0,\"tor_exit_nodes\":0,\"vpn\":40,\"relay\":0,\"proxy\":0,\"hosting\":0,\"service\":0}","uploaders":"{\"size\":356,\"mobile\":41,\"satellite\":0,\"tor\":0,\"tor_exit_nodes\":0,\"vpn\":1,\"relay\":0,\"proxy\":0,\"hosting\":0,\"service\":0}"},"geometry":{"type":"Point","coordinates":[-8.61099,41.14961]}},{"type":"Feature","properties":{"country_code":"EGY","city":"Cairo","geoname_id":"360630","downloaders":"{\"size\":7509,\"mobile\":192,\"satellite\":0,\"tor\":0,\"tor_exit_nodes\":0,\"vpn\":2,\"relay\":0,\"proxy\":0,\"hosting\":0,\"service\":0}","uploaders":"{\"size\":152,\"mobile\":6,\"satellite\":0,\"tor\":0,\"tor_exit_nodes\":0,\"vpn\":0,\"relay\":0,\"proxy\":0,\"hosting\":0,\"service\":0}"},"geometry":{"type":"Point","coordinates":[31.24967,30.06263]}},{"type":"Feature","properties":{"country_code":"RUS","city":"Vladivostok","geoname_id":"2013348","downloaders":"{\"size\":7483,\"mobile\":121,\"satellite\":0,\"tor\":0,\"tor_exit_nodes\":0,\"vpn\":1269,\"relay\":0,\"proxy\":0,\"hosting\":50,\"service\":745}","uploaders":"{\"size\":26,\"mobile\":0,\"satellite\":0,\"tor\":0,\"tor_exit_nodes\":0,\"vpn\":1,\"relay\":0,\"proxy\":0,\"hosting\":0,\"service\":1}"},"geometry":{"type":"Point","coordinates":[131.87353,43.10562]}},{"type":"Feature","properties":{"country_code":"RUS","city":"Korolev","geoname_id":"554233","downloaders":"{\"size\":7482,\"mobile\":3,\"satellite\":0,\"tor\":0,\"tor_exit_nodes\":0,\"vpn\":176,\"relay\":0,\"proxy\":0,\"hosting\":319,\"service\":2}","uploaders":"{\"size\":25,\"mobile\":0,\"satellite\":0,\"tor\":0,\"tor_exit_nodes\":0,\"vpn\":0,\"relay\":0,\"proxy\":0,\"hosting\":2,\"service\":0}"},"geometry":{"type":"Point","coordinates":[37.82556,55.91417]}},{"type":"Feature","properties":{"country_code":"EST","city":"Tallinn","geoname_id":"588409","downloaders":"{\"size\":7481,\"mobile\":376,\"satellite\":0,\"tor\":0,\"tor_exit_nodes\":0,\"vpn\":458,\"relay\":0,\"proxy\":0,\"hosting\":816,\"service\":402}","uploaders":"{\"size\":665,\"mobile\":111,\"satellite\":0,\"tor\":0,\"tor_exit_nodes\":0,\"vpn\":129,\"relay\":0,\"proxy\":0,\"hosting\":206,\"service\":127}"},"geometry":{"type":"Point","coordinates":[24.75353,59.43696]}},{"type":"Feature","properties":{"country_code":"KOR","city":"Cheongju-si","geoname_id":"1845604","downloaders":"{\"size\":7460,\"mobile\":0,\"satellite\":0,\"tor\":0,\"tor_exit_nodes\":0,\"vpn\":56,\"relay\":0,\"proxy\":0,\"hosting\":0,\"service\":4}","uploaders":"{\"size\":16,\"mobile\":0,\"satellite\":0,\"tor\":0,\"tor_exit_nodes\":0,\"vpn\":0,\"relay\":0,\"proxy\":0,\"hosting\":0,\"service\":0}"},"geometry":{"type":"Point","coordinates":[127.48972,36.63722]}},{"type":"Feature","properties":{"country_code":"KEN","city":"Nairobi","geoname_id":"184745","downloaders":"{\"size\":7411,\"mobile\":3860,\"satellite\":43,\"tor\":0,\"tor_exit_nodes\":0,\"vpn\":79,\"relay\":0,\"proxy\":1,\"hosting\":179,\"service\":5}","uploaders":"{\"size\":3146,\"mobile\":1778,\"satellite\":20,\"tor\":0,\"tor_exit_nodes\":0,\"vpn\":24,\"relay\":0,\"proxy\":0,\"hosting\":38,\"service\":0}"},"geometry":{"type":"Point","coordinates":[36.81667,-1.28333]}},{"type":"Feature","properties":{"country_code":"POL","city":"Gdańsk","geoname_id":"3099434","downloaders":"{\"size\":7384,\"mobile\":59,\"satellite\":0,\"tor\":0,\"tor_exit_nodes\":0,\"vpn\":32,\"relay\":0,\"proxy\":0,\"hosting\":31,\"service\":13}","uploaders":"{\"size\":129,\"mobile\":0,\"satellite\":0,\"tor\":0,\"tor_exit_nodes\":0,\"vpn\":8,\"relay\":0,\"proxy\":0,\"hosting\":9,\"service\":8}"},"geometry":{"type":"Point","coordinates":[18.64912,54.35227]}},{"type":"Feature","properties":{"country_code":"KAZ","city":"Almaty","geoname_id":"1526384","downloaders":"{\"size\":7333,\"mobile\":1399,\"satellite\":0,\"tor\":0,\"tor_exit_nodes\":0,\"vpn\":33,\"relay\":0,\"proxy\":0,\"hosting\":955,\"service\":1}","uploaders":"{\"size\":69,\"mobile\":1,\"satellite\":0,\"tor\":0,\"tor_exit_nodes\":0,\"vpn\":0,\"relay\":0,\"proxy\":0,\"hosting\":2,\"service\":0}"},"geometry":{"type":"Point","coordinates":[76.9115,43.25249]}},{"type":"Feature","properties":{"country_code":"RUS","city":"Odintsovo","geoname_id":"516215","downloaders":"{\"size\":7330,\"mobile\":1,\"satellite\":0,\"tor\":0,\"tor_exit_nodes\":0,\"vpn\":217,\"relay\":0,\"proxy\":0,\"hosting\":46,\"service\":0}","uploaders":"{\"size\":18,\"mobile\":0,\"satellite\":0,\"tor\":0,\"tor_exit_nodes\":0,\"vpn\":1,\"relay\":0,\"proxy\":0,\"hosting\":0,\"service\":0}"},"geometry":{"type":"Point","coordinates":[37.27716,55.66977]}},{"type":"Feature","properties":{"country_code":"GRC","city":"Athens","geoname_id":"264371","downloaders":"{\"size\":7300,\"mobile\":728,\"satellite\":3,\"tor\":0,\"tor_exit_nodes\":0,\"vpn\":283,\"relay\":2,\"proxy\":0,\"hosting\":571,\"service\":259}","uploaders":"{\"size\":1161,\"mobile\":303,\"satellite\":2,\"tor\":0,\"tor_exit_nodes\":0,\"vpn\":156,\"relay\":1,\"proxy\":0,\"hosting\":242,\"service\":157}"},"geometry":{"type":"Point","coordinates":[23.72784,37.98376]}},{"type":"Feature","properties":{"country_code":"RUS","city":"Noginsk","geoname_id":"520068","downloaders":"{\"size\":7275,\"mobile\":2,\"satellite\":0,\"tor\":0,\"tor_exit_nodes\":0,\"vpn\":236,\"relay\":0,\"proxy\":0,\"hosting\":0,\"service\":91}","uploaders":"{\"size\":30,\"mobile\":0,\"satellite\":0,\"tor\":0,\"tor_exit_nodes\":0,\"vpn\":0,\"relay\":0,\"proxy\":0,\"hosting\":0,\"service\":0}"},"geometry":{"type":"Point","coordinates":[38.44853,55.86486]}},{"type":"Feature","properties":{"country_code":"BRA","city":"Belo Horizonte","geoname_id":"3470127","downloaders":"{\"size\":7265,\"mobile\":181,\"satellite\":0,\"tor\":0,\"tor_exit_nodes\":0,\"vpn\":5,\"relay\":0,\"proxy\":0,\"hosting\":42,\"service\":1}","uploaders":"{\"size\":105,\"mobile\":17,\"satellite\":0,\"tor\":0,\"tor_exit_nodes\":0,\"vpn\":0,\"relay\":0,\"proxy\":0,\"hosting\":1,\"service\":0}"},"geometry":{"type":"Point","coordinates":[-43.93778,-19.92083]}},{"type":"Feature","properties":{"country_code":"CHN","city":"Zhengzhou","geoname_id":"1784658","downloaders":"{\"size\":7214,\"mobile\":0,\"satellite\":0,\"tor\":0,\"tor_exit_nodes\":0,\"vpn\":66,\"relay\":0,\"proxy\":0,\"hosting\":12,\"service\":1}","uploaders":"{\"size\":52,\"mobile\":0,\"satellite\":0,\"tor\":0,\"tor_exit_nodes\":0,\"vpn\":1,\"relay\":0,\"proxy\":0,\"hosting\":0,\"service\":0}"},"geometry":{"type":"Point","coordinates":[113.64861,34.75778]}},{"type":"Feature","properties":{"country_code":"RUS","city":"Vladimir","geoname_id":"473247","downloaders":"{\"size\":7164,\"mobile\":117,\"satellite\":0,\"tor\":0,\"tor_exit_nodes\":0,\"vpn\":58,\"relay\":0,\"proxy\":0,\"hosting\":0,\"service\":0}","uploaders":"{\"size\":45,\"mobile\":0,\"satellite\":0,\"tor\":0,\"tor_exit_nodes\":0,\"vpn\":0,\"relay\":0,\"proxy\":0,\"hosting\":0,\"service\":0}"},"geometry":{"type":"Point","coordinates":[40.39658,56.13655]}},{"type":"Feature","properties":{"country_code":"RUS","city":"Lyubertsy","geoname_id":"532615","downloaders":"{\"size\":7140,\"mobile\":63,\"satellite\":0,\"tor\":0,\"tor_exit_nodes\":0,\"vpn\":187,\"relay\":0,\"proxy\":0,\"hosting\":842,\"service\":15}","uploaders":"{\"size\":35,\"mobile\":0,\"satellite\":0,\"tor\":0,\"tor_exit_nodes\":0,\"vpn\":1,\"relay\":0,\"proxy\":0,\"hosting\":3,\"service\":0}"},"geometry":{"type":"Point","coordinates":[37.89322,55.67719]}},{"type":"Feature","properties":{"country_code":"AUS","city":"Perth","geoname_id":"2063523","downloaders":"{\"size\":7103,\"mobile\":1155,\"satellite\":57,\"tor\":0,\"tor_exit_nodes\":0,\"vpn\":1960,\"relay\":0,\"proxy\":0,\"hosting\":2024,\"service\":1879}","uploaders":"{\"size\":2063,\"mobile\":205,\"satellite\":28,\"tor\":0,\"tor_exit_nodes\":0,\"vpn\":580,\"relay\":0,\"proxy\":0,\"hosting\":618,\"service\":556}"},"geometry":{"type":"Point","coordinates":[115.8614,-31.95224]}},{"type":"Feature","properties":{"country_code":"KOR","city":"Anyang-si","geoname_id":"1846898","downloaders":"{\"size\":7093,\"mobile\":3,\"satellite\":0,\"tor\":0,\"tor_exit_nodes\":0,\"vpn\":94,\"relay\":0,\"proxy\":0,\"hosting\":0,\"service\":20}","uploaders":"{\"size\":11,\"mobile\":0,\"satellite\":0,\"tor\":0,\"tor_exit_nodes\":0,\"vpn\":0,\"relay\":0,\"proxy\":0,\"hosting\":0,\"service\":0}"},"geometry":{"type":"Point","coordinates":[126.92694,37.3925]}},{"type":"Feature","properties":{"country_code":"MEX","city":"Ciudad Juárez","geoname_id":"4013708","downloaders":"{\"size\":7072,\"mobile\":5,\"satellite\":0,\"tor\":0,\"tor_exit_nodes\":0,\"vpn\":21,\"relay\":0,\"proxy\":0,\"hosting\":0,\"service\":12}","uploaders":"{\"size\":21,\"mobile\":2,\"satellite\":0,\"tor\":0,\"tor_exit_nodes\":0,\"vpn\":1,\"relay\":0,\"proxy\":0,\"hosting\":0,\"service\":1}"},"geometry":{"type":"Point","coordinates":[-106.46084,31.72024]}},{"type":"Feature","properties":{"country_code":"KOR","city":"Bucheon-si","geoname_id":"1838716","downloaders":"{\"size\":7052,\"mobile\":12,\"satellite\":0,\"tor\":0,\"tor_exit_nodes\":0,\"vpn\":100,\"relay\":0,\"proxy\":0,\"hosting\":0,\"service\":2}","uploaders":"{\"size\":8,\"mobile\":0,\"satellite\":0,\"tor\":0,\"tor_exit_nodes\":0,\"vpn\":0,\"relay\":0,\"proxy\":0,\"hosting\":0,\"service\":0}"},"geometry":{"type":"Point","coordinates":[126.78306,37.49889]}},{"type":"Feature","properties":{"country_code":"RUS","city":"Murmansk","geoname_id":"524305","downloaders":"{\"size\":7020,\"mobile\":244,\"satellite\":0,\"tor\":0,\"tor_exit_nodes\":0,\"vpn\":27,\"relay\":0,\"proxy\":0,\"hosting\":0,\"service\":3}","uploaders":"{\"size\":14,\"mobile\":2,\"satellite\":0,\"tor\":0,\"tor_exit_nodes\":0,\"vpn\":0,\"relay\":0,\"proxy\":0,\"hosting\":0,\"service\":0}"},"geometry":{"type":"Point","coordinates":[33.09747,68.97398]}},{"type":"Feature","properties":{"country_code":"TUR","city":"Konya","geoname_id":"306571","downloaders":"{\"size\":6988,\"mobile\":1914,\"satellite\":0,\"tor\":0,\"tor_exit_nodes\":0,\"vpn\":0,\"relay\":0,\"proxy\":0,\"hosting\":1,\"service\":0}","uploaders":"{\"size\":6,\"mobile\":1,\"satellite\":0,\"tor\":0,\"tor_exit_nodes\":0,\"vpn\":0,\"relay\":0,\"proxy\":0,\"hosting\":0,\"service\":0}"},"geometry":{"type":"Point","coordinates":[32.48464,37.87135]}},{"type":"Feature","properties":{"country_code":"COL","city":"Medellín","geoname_id":"3674962","downloaders":"{\"size\":6957,\"mobile\":2015,\"satellite\":0,\"tor\":0,\"tor_exit_nodes\":0,\"vpn\":11,\"relay\":0,\"proxy\":0,\"hosting\":10,\"service\":0}","uploaders":"{\"size\":69,\"mobile\":27,\"satellite\":0,\"tor\":0,\"tor_exit_nodes\":0,\"vpn\":0,\"relay\":0,\"proxy\":0,\"hosting\":0,\"service\":0}"},"geometry":{"type":"Point","coordinates":[-75.57151,6.245]}},{"type":"Feature","properties":{"country_code":"BRA","city":"Campinas","geoname_id":"3467865","downloaders":"{\"size\":6870,\"mobile\":1042,\"satellite\":0,\"tor\":0,\"tor_exit_nodes\":0,\"vpn\":20,\"relay\":0,\"proxy\":0,\"hosting\":4,\"service\":0}","uploaders":"{\"size\":80,\"mobile\":6,\"satellite\":0,\"tor\":0,\"tor_exit_nodes\":0,\"vpn\":0,\"relay\":0,\"proxy\":0,\"hosting\":0,\"service\":0}"},"geometry":{"type":"Point","coordinates":[-47.06083,-22.90556]}},{"type":"Feature","properties":{"country_code":"KOR","city":"Haegok","geoname_id":"6398843","downloaders":"{\"size\":6842,\"mobile\":0,\"satellite\":0,\"tor\":0,\"tor_exit_nodes\":0,\"vpn\":55,\"relay\":0,\"proxy\":0,\"hosting\":0,\"service\":2}","uploaders":"{\"size\":13,\"mobile\":0,\"satellite\":0,\"tor\":0,\"tor_exit_nodes\":0,\"vpn\":0,\"relay\":0,\"proxy\":0,\"hosting\":0,\"service\":0}"},"geometry":{"type":"Point","coordinates":[127.27880999999999,37.19251]}},{"type":"Feature","properties":{"country_code":"NZL","city":"Auckland","geoname_id":"2193733","downloaders":"{\"size\":6834,\"mobile\":2516,\"satellite\":120,\"tor\":0,\"tor_exit_nodes\":0,\"vpn\":1400,\"relay\":5,\"proxy\":0,\"hosting\":1418,\"service\":1350}","uploaders":"{\"size\":2004,\"mobile\":734,\"satellite\":36,\"tor\":0,\"tor_exit_nodes\":0,\"vpn\":505,\"relay\":2,\"proxy\":0,\"hosting\":536,\"service\":506}"},"geometry":{"type":"Point","coordinates":[174.76349,-36.84853]}},{"type":"Feature","properties":{"country_code":"TWN","city":"Taipei","geoname_id":"1668341","downloaders":"{\"size\":6819,\"mobile\":442,\"satellite\":0,\"tor\":4,\"tor_exit_nodes\":6,\"vpn\":362,\"relay\":7,\"proxy\":0,\"hosting\":320,\"service\":177}","uploaders":"{\"size\":334,\"mobile\":72,\"satellite\":0,\"tor\":0,\"tor_exit_nodes\":0,\"vpn\":31,\"relay\":0,\"proxy\":0,\"hosting\":42,\"service\":30}"},"geometry":{"type":"Point","coordinates":[121.52639,25.05306]}},{"type":"Feature","properties":{"country_code":"SAU","city":"Jeddah","geoname_id":"105343","downloaders":"{\"size\":6805,\"mobile\":1444,\"satellite\":0,\"tor\":0,\"tor_exit_nodes\":0,\"vpn\":12,\"relay\":0,\"proxy\":0,\"hosting\":247,\"service\":0}","uploaders":"{\"size\":167,\"mobile\":68,\"satellite\":0,\"tor\":0,\"tor_exit_nodes\":0,\"vpn\":0,\"relay\":0,\"proxy\":0,\"hosting\":0,\"service\":0}"},"geometry":{"type":"Point","coordinates":[39.18624,21.49012]}},{"type":"Feature","properties":{"country_code":"FRA","city":"Marseille","geoname_id":"2995469","downloaders":"{\"size\":6800,\"mobile\":1418,\"satellite\":0,\"tor\":0,\"tor_exit_nodes\":0,\"vpn\":1208,\"relay\":0,\"proxy\":0,\"hosting\":1471,\"service\":1208}","uploaders":"{\"size\":709,\"mobile\":69,\"satellite\":0,\"tor\":0,\"tor_exit_nodes\":0,\"vpn\":560,\"relay\":0,\"proxy\":0,\"hosting\":615,\"service\":560}"},"geometry":{"type":"Point","coordinates":[5.38107,43.29695]}},{"type":"Feature","properties":{"country_code":"RUS","city":"Stavropol’","geoname_id":"487846","downloaders":"{\"size\":6698,\"mobile\":2563,\"satellite\":0,\"tor\":0,\"tor_exit_nodes\":0,\"vpn\":75,\"relay\":0,\"proxy\":0,\"hosting\":0,\"service\":13}","uploaders":"{\"size\":20,\"mobile\":9,\"satellite\":0,\"tor\":0,\"tor_exit_nodes\":0,\"vpn\":0,\"relay\":0,\"proxy\":0,\"hosting\":0,\"service\":0}"},"geometry":{"type":"Point","coordinates":[41.9734,45.0428]}},{"type":"Feature","properties":{"country_code":"PRY","city":"Asunción","geoname_id":"3439389","downloaders":"{\"size\":6562,\"mobile\":2837,\"satellite\":0,\"tor\":0,\"tor_exit_nodes\":0,\"vpn\":5,\"relay\":0,\"proxy\":0,\"hosting\":16,\"service\":1}","uploaders":"{\"size\":37,\"mobile\":9,\"satellite\":0,\"tor\":0,\"tor_exit_nodes\":0,\"vpn\":0,\"relay\":0,\"proxy\":0,\"hosting\":0,\"service\":0}"},"geometry":{"type":"Point","coordinates":[-57.647,-25.28646]}},{"type":"Feature","properties":{"country_code":"DEU","city":"Hamburg","geoname_id":"2911298","downloaders":"{\"size\":6551,\"mobile\":3320,\"satellite\":0,\"tor\":0,\"tor_exit_nodes\":2,\"vpn\":15,\"relay\":0,\"proxy\":0,\"hosting\":2,\"service\":0}","uploaders":"{\"size\":12,\"mobile\":2,\"satellite\":0,\"tor\":0,\"tor_exit_nodes\":0,\"vpn\":0,\"relay\":0,\"proxy\":0,\"hosting\":0,\"service\":0}"},"geometry":{"type":"Point","coordinates":[9.99302,53.55073]}},{"type":"Feature","properties":{"country_code":"RUS","city":"Kaluga","geoname_id":"553915","downloaders":"{\"size\":6528,\"mobile\":18,\"satellite\":0,\"tor\":0,\"tor_exit_nodes\":0,\"vpn\":60,\"relay\":0,\"proxy\":0,\"hosting\":7,\"service\":0}","uploaders":"{\"size\":19,\"mobile\":0,\"satellite\":0,\"tor\":0,\"tor_exit_nodes\":0,\"vpn\":0,\"relay\":0,\"proxy\":0,\"hosting\":0,\"service\":0}"},"geometry":{"type":"Point","coordinates":[36.27542,54.5293]}},{"type":"Feature","properties":{"country_code":"UKR","city":"Lviv","geoname_id":"702550","downloaders":"{\"size\":6523,\"mobile\":177,\"satellite\":0,\"tor\":0,\"tor_exit_nodes\":0,\"vpn\":69,\"relay\":0,\"proxy\":0,\"hosting\":10,\"service\":0}","uploaders":"{\"size\":31,\"mobile\":11,\"satellite\":0,\"tor\":0,\"tor_exit_nodes\":0,\"vpn\":0,\"relay\":0,\"proxy\":0,\"hosting\":0,\"service\":0}"},"geometry":{"type":"Point","coordinates":[24.0232,49.8383]}},{"type":"Feature","properties":{"country_code":"TUR","city":"Adana","geoname_id":"325363","downloaders":"{\"size\":6497,\"mobile\":434,\"satellite\":0,\"tor\":0,\"tor_exit_nodes\":0,\"vpn\":3,\"relay\":0,\"proxy\":0,\"hosting\":0,\"service\":1}","uploaders":"{\"size\":16,\"mobile\":1,\"satellite\":0,\"tor\":0,\"tor_exit_nodes\":0,\"vpn\":0,\"relay\":0,\"proxy\":0,\"hosting\":0,\"service\":0}"},"geometry":{"type":"Point","coordinates":[35.32531,36.98615]}},{"type":"Feature","properties":{"country_code":"CAN","city":"Barrie","geoname_id":"5894171","downloaders":"{\"size\":6485,\"mobile\":38,\"satellite\":0,\"tor\":0,\"tor_exit_nodes\":0,\"vpn\":0,\"relay\":0,\"proxy\":0,\"hosting\":2920,\"service\":0}","uploaders":"{\"size\":2993,\"mobile\":2,\"satellite\":0,\"tor\":0,\"tor_exit_nodes\":0,\"vpn\":0,\"relay\":0,\"proxy\":0,\"hosting\":930,\"service\":0}"},"geometry":{"type":"Point","coordinates":[-79.66634,44.40011]}},{"type":"Feature","properties":{"country_code":"NLD","city":"Haarlem","geoname_id":"2755003","downloaders":"{\"size\":6453,\"mobile\":0,\"satellite\":0,\"tor\":0,\"tor_exit_nodes\":0,\"vpn\":3188,\"relay\":0,\"proxy\":0,\"hosting\":6033,\"service\":694}","uploaders":"{\"size\":174,\"mobile\":0,\"satellite\":0,\"tor\":0,\"tor_exit_nodes\":0,\"vpn\":114,\"relay\":0,\"proxy\":0,\"hosting\":156,\"service\":91}"},"geometry":{"type":"Point","coordinates":[4.6573,52.3904]}},{"type":"Feature","properties":{"country_code":"LTU","city":"Kaunas","geoname_id":"598316","downloaders":"{\"size\":6446,\"mobile\":255,\"satellite\":0,\"tor\":0,\"tor_exit_nodes\":0,\"vpn\":19,\"relay\":0,\"proxy\":0,\"hosting\":151,\"service\":0}","uploaders":"{\"size\":87,\"mobile\":21,\"satellite\":0,\"tor\":0,\"tor_exit_nodes\":0,\"vpn\":0,\"relay\":0,\"proxy\":0,\"hosting\":2,\"service\":0}"},"geometry":{"type":"Point","coordinates":[23.90961,54.90272]}},{"type":"Feature","properties":{"country_code":"RUS","city":"Naberezhnyye Chelny","geoname_id":"523750","downloaders":"{\"size\":6401,\"mobile\":162,\"satellite\":0,\"tor\":0,\"tor_exit_nodes\":0,\"vpn\":48,\"relay\":0,\"proxy\":0,\"hosting\":0,\"service\":0}","uploaders":"{\"size\":20,\"mobile\":0,\"satellite\":0,\"tor\":0,\"tor_exit_nodes\":0,\"vpn\":0,\"relay\":0,\"proxy\":0,\"hosting\":0,\"service\":0}"},"geometry":{"type":"Point","coordinates":[52.41122,55.72545]}},{"type":"Feature","properties":{"country_code":"BRA","city":"Curitiba","geoname_id":"3464975","downloaders":"{\"size\":6339,\"mobile\":202,\"satellite\":0,\"tor\":0,\"tor_exit_nodes\":0,\"vpn\":4,\"relay\":0,\"proxy\":0,\"hosting\":585,\"service\":0}","uploaders":"{\"size\":347,\"mobile\":9,\"satellite\":0,\"tor\":0,\"tor_exit_nodes\":0,\"vpn\":1,\"relay\":0,\"proxy\":0,\"hosting\":146,\"service\":0}"},"geometry":{"type":"Point","coordinates":[-49.27306,-25.42778]}},{"type":"Feature","properties":{"country_code":"MEX","city":"Tijuana","geoname_id":"3981609","downloaders":"{\"size\":6302,\"mobile\":11,\"satellite\":0,\"tor\":0,\"tor_exit_nodes\":0,\"vpn\":11,\"relay\":0,\"proxy\":0,\"hosting\":0,\"service\":0}","uploaders":"{\"size\":39,\"mobile\":1,\"satellite\":0,\"tor\":0,\"tor_exit_nodes\":0,\"vpn\":0,\"relay\":0,\"proxy\":0,\"hosting\":0,\"service\":0}"},"geometry":{"type":"Point","coordinates":[-117.00371,32.5027]}},{"type":"Feature","properties":{"country_code":"MEX","city":"Zapopan","geoname_id":"3979770","downloaders":"{\"size\":6298,\"mobile\":5,\"satellite\":0,\"tor\":0,\"tor_exit_nodes\":0,\"vpn\":1,\"relay\":0,\"proxy\":0,\"hosting\":0,\"service\":0}","uploaders":"{\"size\":17,\"mobile\":0,\"satellite\":0,\"tor\":0,\"tor_exit_nodes\":0,\"vpn\":0,\"relay\":0,\"proxy\":0,\"hosting\":0,\"service\":0}"},"geometry":{"type":"Point","coordinates":[-103.38742,20.72111]}},{"type":"Feature","properties":{"country_code":"UKR","city":"Odesa","geoname_id":"698740","downloaders":"{\"size\":6218,\"mobile\":2,\"satellite\":0,\"tor\":0,\"tor_exit_nodes\":0,\"vpn\":62,\"relay\":0,\"proxy\":0,\"hosting\":21,\"service\":0}","uploaders":"{\"size\":50,\"mobile\":0,\"satellite\":0,\"tor\":0,\"tor_exit_nodes\":0,\"vpn\":6,\"relay\":0,\"proxy\":0,\"hosting\":0,\"service\":0}"},"geometry":{"type":"Point","coordinates":[30.74383,46.48572]}},{"type":"Feature","properties":{"country_code":"RUS","city":"Podolsk","geoname_id":"508101","downloaders":"{\"size\":6215,\"mobile\":43,\"satellite\":0,\"tor\":0,\"tor_exit_nodes\":0,\"vpn\":187,\"relay\":0,\"proxy\":0,\"hosting\":56,\"service\":1}","uploaders":"{\"size\":17,\"mobile\":0,\"satellite\":0,\"tor\":0,\"tor_exit_nodes\":0,\"vpn\":0,\"relay\":0,\"proxy\":0,\"hosting\":0,\"service\":0}"},"geometry":{"type":"Point","coordinates":[37.55472,55.42419]}},{"type":"Feature","properties":{"country_code":"USA","city":"Denver","geoname_id":"5419384","downloaders":"{\"size\":6150,\"mobile\":198,\"satellite\":37,\"tor\":0,\"tor_exit_nodes\":0,\"vpn\":3927,\"relay\":7,\"proxy\":0,\"hosting\":2894,\"service\":3729}","uploaders":"{\"size\":1382,\"mobile\":64,\"satellite\":8,\"tor\":0,\"tor_exit_nodes\":0,\"vpn\":1167,\"relay\":0,\"proxy\":0,\"hosting\":1020,\"service\":1096}"},"geometry":{"type":"Point","coordinates":[-104.9847,39.73915]}},{"type":"Feature","properties":{"country_code":"USA","city":"Fort Lauderdale","geoname_id":"4155966","downloaders":"{\"size\":6143,\"mobile\":0,\"satellite\":0,\"tor\":0,\"tor_exit_nodes\":0,\"vpn\":5,\"relay\":0,\"proxy\":0,\"hosting\":15,\"service\":2}","uploaders":"{\"size\":31,\"mobile\":0,\"satellite\":0,\"tor\":0,\"tor_exit_nodes\":0,\"vpn\":0,\"relay\":0,\"proxy\":0,\"hosting\":0,\"service\":0}"},"geometry":{"type":"Point","coordinates":[-80.1288,26.1216]}},{"type":"Feature","properties":{"country_code":"FRA","city":"Lyon","geoname_id":"2996944","downloaders":"{\"size\":6033,\"mobile\":1259,\"satellite\":0,\"tor\":0,\"tor_exit_nodes\":0,\"vpn\":15,\"relay\":0,\"proxy\":0,\"hosting\":53,\"service\":0}","uploaders":"{\"size\":142,\"mobile\":103,\"satellite\":0,\"tor\":0,\"tor_exit_nodes\":0,\"vpn\":1,\"relay\":0,\"proxy\":0,\"hosting\":0,\"service\":0}"},"geometry":{"type":"Point","coordinates":[4.84671,45.74846]}},{"type":"Feature","properties":{"country_code":"THA","city":"Bangkok","geoname_id":"1609350","downloaders":"{\"size\":6018,\"mobile\":1617,\"satellite\":0,\"tor\":0,\"tor_exit_nodes\":0,\"vpn\":113,\"relay\":0,\"proxy\":0,\"hosting\":828,\"service\":65}","uploaders":"{\"size\":495,\"mobile\":171,\"satellite\":0,\"tor\":0,\"tor_exit_nodes\":0,\"vpn\":3,\"relay\":0,\"proxy\":0,\"hosting\":39,\"service\":2}"},"geometry":{"type":"Point","coordinates":[100.50144,13.75398]}},{"type":"Feature","properties":{"country_code":"URY","city":"Montevideo","geoname_id":"3441575","downloaders":"{\"size\":6010,\"mobile\":49,\"satellite\":0,\"tor\":0,\"tor_exit_nodes\":0,\"vpn\":26,\"relay\":0,\"proxy\":0,\"hosting\":9,\"service\":0}","uploaders":"{\"size\":388,\"mobile\":5,\"satellite\":0,\"tor\":0,\"tor_exit_nodes\":0,\"vpn\":0,\"relay\":0,\"proxy\":0,\"hosting\":0,\"service\":0}"},"geometry":{"type":"Point","coordinates":[-56.18816,-34.90328]}},{"type":"Feature","properties":{"country_code":"USA","city":"San Jose","geoname_id":"5392171","downloaders":"{\"size\":5943,\"mobile\":50,\"satellite\":25,\"tor\":84,\"tor_exit_nodes\":94,\"vpn\":2751,\"relay\":0,\"proxy\":0,\"hosting\":4665,\"service\":2722}","uploaders":"{\"size\":1762,\"mobile\":16,\"satellite\":7,\"tor\":7,\"tor_exit_nodes\":7,\"vpn\":1384,\"relay\":0,\"proxy\":0,\"hosting\":1681,\"service\":1380}"},"geometry":{"type":"Point","coordinates":[-121.89496,37.33939]}},{"type":"Feature","properties":{"country_code":"SWE","city":"Göteborg","geoname_id":"2711537","downloaders":"{\"size\":5942,\"mobile\":545,\"satellite\":0,\"tor\":0,\"tor_exit_nodes\":1,\"vpn\":836,\"relay\":0,\"proxy\":0,\"hosting\":707,\"service\":795}","uploaders":"{\"size\":680,\"mobile\":90,\"satellite\":0,\"tor\":0,\"tor_exit_nodes\":0,\"vpn\":311,\"relay\":0,\"proxy\":0,\"hosting\":295,\"service\":310}"},"geometry":{"type":"Point","coordinates":[11.96679,57.70716]}},{"type":"Feature","properties":{"country_code":"UKR","city":"Dnipro","geoname_id":"709930","downloaders":"{\"size\":5913,\"mobile\":498,\"satellite\":0,\"tor\":0,\"tor_exit_nodes\":0,\"vpn\":29,\"relay\":0,\"proxy\":0,\"hosting\":993,\"service\":1}","uploaders":"{\"size\":14,\"mobile\":3,\"satellite\":0,\"tor\":0,\"tor_exit_nodes\":0,\"vpn\":0,\"relay\":0,\"proxy\":0,\"hosting\":5,\"service\":0}"},"geometry":{"type":"Point","coordinates":[35.04066,48.46664]}},{"type":"Feature","properties":{"country_code":"ESP","city":"Valencia","geoname_id":"2509954","downloaders":"{\"size\":5867,\"mobile\":3021,\"satellite\":0,\"tor\":0,\"tor_exit_nodes\":0,\"vpn\":237,\"relay\":0,\"proxy\":0,\"hosting\":238,\"service\":228}","uploaders":"{\"size\":89,\"mobile\":22,\"satellite\":0,\"tor\":0,\"tor_exit_nodes\":0,\"vpn\":26,\"relay\":0,\"proxy\":0,\"hosting\":26,\"service\":26}"},"geometry":{"type":"Point","coordinates":[-0.37966,39.47391]}},{"type":"Feature","properties":{"country_code":"JAM","city":"Kingston","geoname_id":"3489854","downloaders":"{\"size\":5865,\"mobile\":2265,\"satellite\":5,\"tor\":0,\"tor_exit_nodes\":0,\"vpn\":0,\"relay\":0,\"proxy\":0,\"hosting\":405,\"service\":0}","uploaders":"{\"size\":237,\"mobile\":122,\"satellite\":3,\"tor\":0,\"tor_exit_nodes\":0,\"vpn\":0,\"relay\":0,\"proxy\":0,\"hosting\":19,\"service\":0}"},"geometry":{"type":"Point","coordinates":[-76.79358,17.99702]}},{"type":"Feature","properties":{"country_code":"MEX","city":"Puebla","geoname_id":"3521081","downloaders":"{\"size\":5858,\"mobile\":8,\"satellite\":0,\"tor\":0,\"tor_exit_nodes\":0,\"vpn\":4,\"relay\":0,\"proxy\":0,\"hosting\":0,\"service\":1}","uploaders":"{\"size\":8,\"mobile\":3,\"satellite\":0,\"tor\":0,\"tor_exit_nodes\":0,\"vpn\":0,\"relay\":0,\"proxy\":0,\"hosting\":0,\"service\":0}"},"geometry":{"type":"Point","coordinates":[-98.20723,19.04778]}},{"type":"Feature","properties":{"country_code":"BGR","city":"Plovdiv","geoname_id":"728193","downloaders":"{\"size\":5855,\"mobile\":112,\"satellite\":0,\"tor\":0,\"tor_exit_nodes\":0,\"vpn\":72,\"relay\":0,\"proxy\":0,\"hosting\":1468,\"service\":0}","uploaders":"{\"size\":51,\"mobile\":0,\"satellite\":0,\"tor\":0,\"tor_exit_nodes\":0,\"vpn\":0,\"relay\":0,\"proxy\":0,\"hosting\":24,\"service\":0}"},"geometry":{"type":"Point","coordinates":[24.75,42.15]}},{"type":"Feature","properties":{"country_code":"KOR","city":"Ulsan","geoname_id":"1833747","downloaders":"{\"size\":5809,\"mobile\":1,\"satellite\":0,\"tor\":0,\"tor_exit_nodes\":0,\"vpn\":47,\"relay\":0,\"proxy\":0,\"hosting\":0,\"service\":12}","uploaders":"{\"size\":14,\"mobile\":0,\"satellite\":0,\"tor\":0,\"tor_exit_nodes\":0,\"vpn\":0,\"relay\":0,\"proxy\":0,\"hosting\":0,\"service\":0}"},"geometry":{"type":"Point","coordinates":[129.31667,35.53722]}},{"type":"Feature","properties":{"country_code":"BRA","city":"Brasília","geoname_id":"3469058","downloaders":"{\"size\":5796,\"mobile\":210,\"satellite\":0,\"tor\":0,\"tor_exit_nodes\":0,\"vpn\":14,\"relay\":0,\"proxy\":0,\"hosting\":64,\"service\":0}","uploaders":"{\"size\":81,\"mobile\":18,\"satellite\":0,\"tor\":0,\"tor_exit_nodes\":0,\"vpn\":0,\"relay\":0,\"proxy\":0,\"hosting\":0,\"service\":0}"},"geometry":{"type":"Point","coordinates":[-47.92972,-15.77972]}},{"type":"Feature","properties":{"country_code":"SVK","city":"Bratislava","geoname_id":"3060972","downloaders":"{\"size\":5787,\"mobile\":42,\"satellite\":0,\"tor\":0,\"tor_exit_nodes\":0,\"vpn\":358,\"relay\":1,\"proxy\":0,\"hosting\":513,\"service\":290}","uploaders":"{\"size\":190,\"mobile\":2,\"satellite\":0,\"tor\":0,\"tor_exit_nodes\":0,\"vpn\":74,\"relay\":0,\"proxy\":0,\"hosting\":75,\"service\":70}"},"geometry":{"type":"Point","coordinates":[17.10674,48.14816]}},{"type":"Feature","properties":{"country_code":"GBR","city":"Manchester","geoname_id":"2643123","downloaders":"{\"size\":5785,\"mobile\":194,\"satellite\":0,\"tor\":0,\"tor_exit_nodes\":0,\"vpn\":3137,\"relay\":0,\"proxy\":0,\"hosting\":2615,\"service\":3028}","uploaders":"{\"size\":1450,\"mobile\":33,\"satellite\":0,\"tor\":0,\"tor_exit_nodes\":0,\"vpn\":1077,\"relay\":0,\"proxy\":0,\"hosting\":1110,\"service\":1064}"},"geometry":{"type":"Point","coordinates":[-2.23743,53.48095]}},{"type":"Feature","properties":{"country_code":"RUS","city":"Mytishchi","geoname_id":"523812","downloaders":"{\"size\":5748,\"mobile\":0,\"satellite\":0,\"tor\":0,\"tor_exit_nodes\":0,\"vpn\":158,\"relay\":0,\"proxy\":0,\"hosting\":101,\"service\":1}","uploaders":"{\"size\":16,\"mobile\":0,\"satellite\":0,\"tor\":0,\"tor_exit_nodes\":0,\"vpn\":0,\"relay\":0,\"proxy\":0,\"hosting\":0,\"service\":0}"},"geometry":{"type":"Point","coordinates":[37.72964,55.91099]}},{"type":"Feature","properties":{"country_code":"RUS","city":"Kursk","geoname_id":"538560","downloaders":"{\"size\":5608,\"mobile\":20,\"satellite\":0,\"tor\":0,\"tor_exit_nodes\":0,\"vpn\":14,\"relay\":0,\"proxy\":0,\"hosting\":171,\"service\":0}","uploaders":"{\"size\":16,\"mobile\":0,\"satellite\":0,\"tor\":0,\"tor_exit_nodes\":0,\"vpn\":0,\"relay\":0,\"proxy\":0,\"hosting\":0,\"service\":0}"},"geometry":{"type":"Point","coordinates":[36.18712,51.73758]}},{"type":"Feature","properties":{"country_code":"TWN","city":"Hsinchu","geoname_id":"1675151","downloaders":"{\"size\":5575,\"mobile\":0,\"satellite\":0,\"tor\":0,\"tor_exit_nodes\":0,\"vpn\":149,\"relay\":0,\"proxy\":0,\"hosting\":0,\"service\":0}","uploaders":"{\"size\":1605,\"mobile\":0,\"satellite\":0,\"tor\":0,\"tor_exit_nodes\":0,\"vpn\":27,\"relay\":0,\"proxy\":0,\"hosting\":0,\"service\":0}"},"geometry":{"type":"Point","coordinates":[120.96861,24.80361]}},{"type":"Feature","properties":{"country_code":"JPN","city":"Osaka","geoname_id":"1853909","downloaders":"{\"size\":5541,\"mobile\":322,\"satellite\":0,\"tor\":0,\"tor_exit_nodes\":0,\"vpn\":326,\"relay\":0,\"proxy\":0,\"hosting\":483,\"service\":277}","uploaders":"{\"size\":139,\"mobile\":19,\"satellite\":0,\"tor\":0,\"tor_exit_nodes\":0,\"vpn\":32,\"relay\":0,\"proxy\":0,\"hosting\":58,\"service\":32}"},"geometry":{"type":"Point","coordinates":[135.50107,34.69379]}},{"type":"Feature","properties":{"country_code":"BRA","city":"Fortaleza","geoname_id":"3399415","downloaders":"{\"size\":5541,\"mobile\":95,\"satellite\":8,\"tor\":0,\"tor_exit_nodes\":0,\"vpn\":33,\"relay\":0,\"proxy\":0,\"hosting\":28,\"service\":1}","uploaders":"{\"size\":20,\"mobile\":1,\"satellite\":0,\"tor\":0,\"tor_exit_nodes\":0,\"vpn\":0,\"relay\":0,\"proxy\":0,\"hosting\":0,\"service\":0}"},"geometry":{"type":"Point","coordinates":[-38.54306,-3.71722]}},{"type":"Feature","properties":{"country_code":"RUS","city":"Orël","geoname_id":"515012","downloaders":"{\"size\":5498,\"mobile\":95,\"satellite\":0,\"tor\":0,\"tor_exit_nodes\":0,\"vpn\":24,\"relay\":0,\"proxy\":0,\"hosting\":0,\"service\":1}","uploaders":"{\"size\":23,\"mobile\":2,\"satellite\":0,\"tor\":0,\"tor_exit_nodes\":0,\"vpn\":0,\"relay\":0,\"proxy\":0,\"hosting\":0,\"service\":0}"},"geometry":{"type":"Point","coordinates":[36.07805,52.95932]}},{"type":"Feature","properties":{"country_code":"RUS","city":"Magnitogorsk","geoname_id":"532288","downloaders":"{\"size\":5466,\"mobile\":216,\"satellite\":0,\"tor\":0,\"tor_exit_nodes\":0,\"vpn\":2242,\"relay\":0,\"proxy\":0,\"hosting\":0,\"service\":0}","uploaders":"{\"size\":10,\"mobile\":0,\"satellite\":0,\"tor\":0,\"tor_exit_nodes\":0,\"vpn\":4,\"relay\":0,\"proxy\":0,\"hosting\":0,\"service\":0}"},"geometry":{"type":"Point","coordinates":[59.0066,53.39808]}},{"type":"Feature","properties":{"country_code":"RUS","city":"Smolensk","geoname_id":"491687","downloaders":"{\"size\":5435,\"mobile\":4,\"satellite\":0,\"tor\":0,\"tor_exit_nodes\":0,\"vpn\":51,\"relay\":0,\"proxy\":0,\"hosting\":0,\"service\":2}","uploaders":"{\"size\":14,\"mobile\":0,\"satellite\":0,\"tor\":0,\"tor_exit_nodes\":0,\"vpn\":0,\"relay\":0,\"proxy\":0,\"hosting\":0,\"service\":0}"},"geometry":{"type":"Point","coordinates":[32.04371,54.77944]}},{"type":"Feature","properties":{"country_code":"CHN","city":"Ningbo","geoname_id":"1799397","downloaders":"{\"size\":5427,\"mobile\":0,\"satellite\":0,\"tor\":0,\"tor_exit_nodes\":0,\"vpn\":52,\"relay\":0,\"proxy\":0,\"hosting\":6,\"service\":0}","uploaders":"{\"size\":126,\"mobile\":0,\"satellite\":0,\"tor\":0,\"tor_exit_nodes\":0,\"vpn\":3,\"relay\":0,\"proxy\":0,\"hosting\":0,\"service\":0}"},"geometry":{"type":"Point","coordinates":[121.54945,29.87819]}},{"type":"Feature","properties":{"country_code":"USA","city":"Philadelphia","geoname_id":"4560349","downloaders":"{\"size\":5421,\"mobile\":456,\"satellite\":0,\"tor\":0,\"tor_exit_nodes\":0,\"vpn\":61,\"relay\":0,\"proxy\":0,\"hosting\":62,\"service\":28}","uploaders":"{\"size\":250,\"mobile\":127,\"satellite\":0,\"tor\":0,\"tor_exit_nodes\":0,\"vpn\":15,\"relay\":0,\"proxy\":0,\"hosting\":15,\"service\":9}"},"geometry":{"type":"Point","coordinates":[-75.16362,39.95238]}},{"type":"Feature","properties":{"country_code":"RUS","city":"Belgorod","geoname_id":"578072","downloaders":"{\"size\":5376,\"mobile\":18,\"satellite\":0,\"tor\":0,\"tor_exit_nodes\":0,\"vpn\":49,\"relay\":0,\"proxy\":0,\"hosting\":0,\"service\":5}","uploaders":"{\"size\":8,\"mobile\":0,\"satellite\":0,\"tor\":0,\"tor_exit_nodes\":0,\"vpn\":0,\"relay\":0,\"proxy\":0,\"hosting\":0,\"service\":0}"},"geometry":{"type":"Point","coordinates":[36.58015,50.61074]}},{"type":"Feature","properties":{"country_code":"TUR","city":"İzmit","geoname_id":"745028","downloaders":"{\"size\":5375,\"mobile\":611,\"satellite\":0,\"tor\":0,\"tor_exit_nodes\":0,\"vpn\":0,\"relay\":0,\"proxy\":0,\"hosting\":0,\"service\":0}","uploaders":"{\"size\":5,\"mobile\":0,\"satellite\":0,\"tor\":0,\"tor_exit_nodes\":0,\"vpn\":0,\"relay\":0,\"proxy\":0,\"hosting\":0,\"service\":0}"},"geometry":{"type":"Point","coordinates":[29.92928,40.76499]}},{"type":"Feature","properties":{"country_code":"GTM","city":"Guatemala City","geoname_id":"3598132","downloaders":"{\"size\":5357,\"mobile\":3966,\"satellite\":8,\"tor\":0,\"tor_exit_nodes\":0,\"vpn\":7,\"relay\":1,\"proxy\":0,\"hosting\":59,\"service\":1}","uploaders":"{\"size\":53,\"mobile\":20,\"satellite\":2,\"tor\":0,\"tor_exit_nodes\":0,\"vpn\":0,\"relay\":0,\"proxy\":0,\"hosting\":0,\"service\":0}"},"geometry":{"type":"Point","coordinates":[-90.51327,14.64072]}},{"type":"Feature","properties":{"country_code":"RUS","city":"Saransk","geoname_id":"498698","downloaders":"{\"size\":5311,\"mobile\":319,\"satellite\":0,\"tor\":0,\"tor_exit_nodes\":0,\"vpn\":21,\"relay\":0,\"proxy\":0,\"hosting\":0,\"service\":0}","uploaders":"{\"size\":11,\"mobile\":0,\"satellite\":0,\"tor\":0,\"tor_exit_nodes\":0,\"vpn\":0,\"relay\":0,\"proxy\":0,\"hosting\":0,\"service\":0}"},"geometry":{"type":"Point","coordinates":[45.1749,54.1838]}},