{"type":"FeatureCollection","id":"Devs","swarm_features":46,"features":[{"type":"Feature","properties":{"country_code":"USA","city":"Ashburn","geoname_id":"4744870","downloaders":"{\"size\":44930,\"mobile\":1247,\"satellite\":31,\"tor\":0,\"tor_exit_nodes\":0,\"vpn\":137,\"relay\":0,\"proxy\":5,\"hosting\":37512,\"service\":78}","uploaders":"{\"size\":29494,\"mobile\":68,\"satellite\":0,\"tor\":0,\"tor_exit_nodes\":0,\"vpn\":28,\"relay\":0,\"proxy\":1,\"hosting\":29374,\"service\":4}"},"geometry":{"type":"Point","coordinates":[-77.48749,39.04372]}},{"type":"Feature","properties":{"country_code":"USA","city":"Columbus","geoname_id":"4509177","downloaders":"{\"size\":24721,\"mobile\":109,\"satellite\":0,\"tor\":0,\"tor_exit_nodes\":0,\"vpn\":59,\"relay\":0,\"proxy\":0,\"hosting\":909,\"service\":0}","uploaders":"{\"size\":178,\"mobile\":28,\"satellite\":0,\"tor\":0,\"tor_exit_nodes\":0,\"vpn\":5,\"relay\":0,\"proxy\":0,\"hosting\":16,\"service\":0}"},"geometry":{"type":"Point","coordinates":[-82.99879,39.96118]}},{"type":"Feature","properties":{"country_code":"GBR","city":"London","geoname_id":"2643743","downloaders":"{\"size\":24311,\"mobile\":2067,\"satellite\":0,\"tor\":0,\"tor_exit_nodes\":0,\"vpn\":5093,\"relay\":0,\"proxy\":8,\"hosting\":10101,\"service\":4693}","uploaders":"{\"size\":6557,\"mobile\":621,\"satellite\":0,\"tor\":0,\"tor_exit_nodes\":0,\"vpn\":1750,\"relay\":0,\"proxy\":1,\"hosting\":2222,\"service\":1581}"},"geometry":{"type":"Point","coordinates":[-0.12574,51.50853]}},{"type":"Feature","properties":{"country_code":"RUS","city":"Moscow","geoname_id":"524901","downloaders":"{\"size\":23414,\"mobile\":3400,\"satellite\":1,\"tor\":0,\"tor_exit_nodes\":0,\"vpn\":479,\"relay\":0,\"proxy\":5,\"hosting\":1423,\"service\":62}","uploaders":"{\"size\":4772,\"mobile\":422,\"satellite\":0,\"tor\":0,\"tor_exit_nodes\":0,\"vpn\":89,\"relay\":0,\"proxy\":0,\"hosting\":196,\"service\":10}"},"geometry":{"type":"Point","coordinates":[37.61781,55.75204]}},{"type":"Feature","properties":{"country_code":"USA","city":"New York City","geoname_id":"5128581","downloaders":"{\"size\":17155,\"mobile\":178,\"satellite\":0,\"tor\":0,\"tor_exit_nodes\":11,\"vpn\":2096,\"relay\":1,\"proxy\":0,\"hosting\":4846,\"service\":1912}","uploaders":"{\"size\":2045,\"mobile\":43,\"satellite\":0,\"tor\":0,\"tor_exit_nodes\":0,\"vpn\":818,\"relay\":1,\"proxy\":0,\"hosting\":1470,\"service\":775}"},"geometry":{"type":"Point","coordinates":[-74.00597,40.71427]}},{"type":"Feature","properties":{"country_code":"CHN","city":"Shanghai","geoname_id":"1796236","downloaders":"{\"size\":16947,\"mobile\":59,\"satellite\":0,\"tor\":0,\"tor_exit_nodes\":0,\"vpn\":23,\"relay\":0,\"proxy\":0,\"hosting\":1155,\"service\":0}","uploaders":"{\"size\":733,\"mobile\":1,\"satellite\":0,\"tor\":0,\"tor_exit_nodes\":0,\"vpn\":6,\"relay\":0,\"proxy\":0,\"hosting\":28,\"service\":0}"},"geometry":{"type":"Point","coordinates":[121.45806,31.22222]}},{"type":"Feature","properties":{"country_code":"USA","city":"Seattle","geoname_id":"5809844","downloaders":"{\"size\":13359,\"mobile\":41,\"satellite\":0,\"tor\":0,\"tor_exit_nodes\":0,\"vpn\":688,\"relay\":30,\"proxy\":0,\"hosting\":10963,\"service\":716}","uploaders":"{\"size\":1099,\"mobile\":14,\"satellite\":0,\"tor\":0,\"tor_exit_nodes\":0,\"vpn\":253,\"relay\":0,\"proxy\":0,\"hosting\":693,\"service\":252}"},"geometry":{"type":"Point","coordinates":[-122.3129,47.5413]}},{"type":"Feature","properties":{"country_code":"KOR","city":"Seoul","geoname_id":"1835848","downloaders":"{\"size\":12519,\"mobile\":978,\"satellite\":0,\"tor\":0,\"tor_exit_nodes\":0,\"vpn\":63,\"relay\":0,\"proxy\":0,\"hosting\":531,\"service\":26}","uploaders":"{\"size\":630,\"mobile\":9,\"satellite\":0,\"tor\":0,\"tor_exit_nodes\":0,\"vpn\":9,\"relay\":0,\"proxy\":0,\"hosting\":11,\"service\":4}"},"geometry":{"type":"Point","coordinates":[126.9784,37.566]}},{"type":"Feature","properties":{"country_code":"DEU","city":"Frankfurt am Main","geoname_id":"2925533","downloaders":"{\"size\":12111,\"mobile\":78,\"satellite\":0,\"tor\":0,\"tor_exit_nodes\":0,\"vpn\":2214,\"relay\":0,\"proxy\":2,\"hosting\":10762,\"service\":2169}","uploaders":"{\"size\":7620,\"mobile\":2,\"satellite\":0,\"tor\":0,\"tor_exit_nodes\":0,\"vpn\":764,\"relay\":0,\"proxy\":1,\"hosting\":7381,\"service\":744}"},"geometry":{"type":"Point","coordinates":[8.68417,50.11552]}},{"type":"Feature","properties":{"country_code":"AUS","city":"Sydney","geoname_id":"2147714","downloaders":"{\"size\":11822,\"mobile\":1212,\"satellite\":16,\"tor\":1,\"tor_exit_nodes\":1,\"vpn\":1756,\"relay\":0,\"proxy\":52,\"hosting\":3672,\"service\":1662}","uploaders":"{\"size\":4155,\"mobile\":373,\"satellite\":11,\"tor\":0,\"tor_exit_nodes\":0,\"vpn\":601,\"relay\":0,\"proxy\":6,\"hosting\":836,\"service\":555}"},"geometry":{"type":"Point","coordinates":[151.20732,-33.86785]}},{"type":"Feature","properties":{"country_code":"NLD","city":"Amsterdam","geoname_id":"2759794","downloaders":"{\"size\":11801,\"mobile\":679,\"satellite\":0,\"tor\":0,\"tor_exit_nodes\":1,\"vpn\":2016,\"relay\":0,\"proxy\":18,\"hosting\":8706,\"service\":1861}","uploaders":"{\"size\":3950,\"mobile\":310,\"satellite\":0,\"tor\":0,\"tor_exit_nodes\":0,\"vpn\":784,\"relay\":0,\"proxy\":4,\"hosting\":2977,\"service\":731}"},"geometry":{"type":"Point","coordinates":[4.88969,52.37403]}},{"type":"Feature","properties":{"country_code":"CAN","city":"Toronto","geoname_id":"6167865","downloaders":"{\"size\":10576,\"mobile\":1137,\"satellite\":0,\"tor\":9,\"tor_exit_nodes\":72,\"vpn\":810,\"relay\":0,\"proxy\":12,\"hosting\":3777,\"service\":783}","uploaders":"{\"size\":3337,\"mobile\":250,\"satellite\":0,\"tor\":4,\"tor_exit_nodes\":29,\"vpn\":287,\"relay\":0,\"proxy\":0,\"hosting\":1447,\"service\":284}"},"geometry":{"type":"Point","coordinates":[-79.39864,43.70643]}},{"type":"Feature","properties":{"country_code":"RUS","city":"Saint Petersburg","geoname_id":"498817","downloaders":"{\"size\":10465,\"mobile\":1129,\"satellite\":0,\"tor\":0,\"tor_exit_nodes\":0,\"vpn\":33,\"relay\":0,\"proxy\":0,\"hosting\":419,\"service\":16}","uploaders":"{\"size\":2301,\"mobile\":89,\"satellite\":0,\"tor\":0,\"tor_exit_nodes\":0,\"vpn\":8,\"relay\":0,\"proxy\":0,\"hosting\":58,\"service\":5}"},"geometry":{"type":"Point","coordinates":[30.31413,59.93863]}},{"type":"Feature","properties":{"country_code":"USA","city":"Dallas","geoname_id":"4684888","downloaders":"{\"size\":10031,\"mobile\":877,\"satellite\":0,\"tor\":0,\"tor_exit_nodes\":0,\"vpn\":372,\"relay\":0,\"proxy\":8,\"hosting\":4337,\"service\":334}","uploaders":"{\"size\":2148,\"mobile\":13,\"satellite\":0,\"tor\":0,\"tor_exit_nodes\":0,\"vpn\":127,\"relay\":0,\"proxy\":3,\"hosting\":1608,\"service\":121}"},"geometry":{"type":"Point","coordinates":[-96.8388,32.8252]}},{"type":"Feature","properties":{"country_code":"FRA","city":"Paris","geoname_id":"2988507","downloaders":"{\"size\":9748,\"mobile\":1232,\"satellite\":1,\"tor\":0,\"tor_exit_nodes\":0,\"vpn\":892,\"relay\":0,\"proxy\":0,\"hosting\":3152,\"service\":797}","uploaders":"{\"size\":1946,\"mobile\":353,\"satellite\":0,\"tor\":0,\"tor_exit_nodes\":0,\"vpn\":204,\"relay\":0,\"proxy\":0,\"hosting\":693,\"service\":187}"},"geometry":{"type":"Point","coordinates":[2.3488,48.85341]}},{"type":"Feature","properties":{"country_code":"USA","city":"Boardman","geoname_id":"5714964","downloaders":"{\"size\":8611,\"mobile\":0,\"satellite\":0,\"tor\":0,\"tor_exit_nodes\":0,\"vpn\":4,\"relay\":0,\"proxy\":0,\"hosting\":8611,\"service\":0}","uploaders":"{\"size\":6809,\"mobile\":0,\"satellite\":0,\"tor\":0,\"tor_exit_nodes\":0,\"vpn\":4,\"relay\":0,\"proxy\":0,\"hosting\":6809,\"service\":0}"},"geometry":{"type":"Point","coordinates":[-119.70058,45.83986]}},{"type":"Feature","properties":{"country_code":"USA","city":"Los Angeles","geoname_id":"5368361","downloaders":"{\"size\":7746,\"mobile\":120,\"satellite\":0,\"tor\":0,\"tor_exit_nodes\":0,\"vpn\":2576,\"relay\":3,\"proxy\":5,\"hosting\":5359,\"service\":2470}","uploaders":"{\"size\":1552,\"mobile\":46,\"satellite\":0,\"tor\":0,\"tor_exit_nodes\":0,\"vpn\":597,\"relay\":1,\"proxy\":0,\"hosting\":1362,\"service\":561}"},"geometry":{"type":"Point","coordinates":[-118.24368,34.05223]}},{"type":"Feature","properties":{"country_code":"AUS","city":"Melbourne","geoname_id":"2158177","downloaders":"{\"size\":7251,\"mobile\":886,\"satellite\":14,\"tor\":0,\"tor_exit_nodes\":0,\"vpn\":558,\"relay\":0,\"proxy\":0,\"hosting\":1463,\"service\":500}","uploaders":"{\"size\":3307,\"mobile\":266,\"satellite\":9,\"tor\":0,\"tor_exit_nodes\":0,\"vpn\":263,\"relay\":0,\"proxy\":0,\"hosting\":380,\"service\":234}"},"geometry":{"type":"Point","coordinates":[144.96332,-37.814]}},{"type":"Feature","properties":{"country_code":"BRA","city":"São Paulo","geoname_id":"3448439","downloaders":"{\"size\":7230,\"mobile\":2079,\"satellite\":2,\"tor\":0,\"tor_exit_nodes\":0,\"vpn\":130,\"relay\":0,\"proxy\":0,\"hosting\":959,\"service\":117}","uploaders":"{\"size\":1882,\"mobile\":301,\"satellite\":0,\"tor\":0,\"tor_exit_nodes\":0,\"vpn\":35,\"relay\":0,\"proxy\":0,\"hosting\":138,\"service\":31}"},"geometry":{"type":"Point","coordinates":[-46.63611,-23.5475]}},{"type":"Feature","properties":{"country_code":"CAN","city":"Montréal","geoname_id":"6077243","downloaders":"{\"size\":7087,\"mobile\":734,\"satellite\":0,\"tor\":0,\"tor_exit_nodes\":0,\"vpn\":1136,\"relay\":0,\"proxy\":24,\"hosting\":3069,\"service\":1108}","uploaders":"{\"size\":1737,\"mobile\":157,\"satellite\":0,\"tor\":0,\"tor_exit_nodes\":0,\"vpn\":387,\"relay\":0,\"proxy\":4,\"hosting\":998,\"service\":377}"},"geometry":{"type":"Point","coordinates":[-73.58781,45.50884]}},{"type":"Feature","properties":{"country_code":"CHN","city":"Beijing","geoname_id":"1816670","downloaders":"{\"size\":6969,\"mobile\":0,\"satellite\":0,\"tor\":0,\"tor_exit_nodes\":0,\"vpn\":5,\"relay\":0,\"proxy\":0,\"hosting\":1248,\"service\":0}","uploaders":"{\"size\":295,\"mobile\":0,\"satellite\":0,\"tor\":0,\"tor_exit_nodes\":0,\"vpn\":1,\"relay\":0,\"proxy\":0,\"hosting\":9,\"service\":0}"},"geometry":{"type":"Point","coordinates":[116.39723,39.9075]}},{"type":"Feature","properties":{"country_code":"JPN","city":"Tokyo","geoname_id":"1850147","downloaders":"{\"size\":6911,\"mobile\":307,\"satellite\":0,\"tor\":0,\"tor_exit_nodes\":0,\"vpn\":474,\"relay\":0,\"proxy\":7,\"hosting\":1644,\"service\":457}","uploaders":"{\"size\":537,\"mobile\":30,\"satellite\":0,\"tor\":0,\"tor_exit_nodes\":0,\"vpn\":164,\"relay\":0,\"proxy\":3,\"hosting\":188,\"service\":162}"},"geometry":{"type":"Point","coordinates":[139.69171,35.6895]}},{"type":"Feature","properties":{"country_code":"SWE","city":"Stockholm","geoname_id":"2673730","downloaders":"{\"size\":6652,\"mobile\":384,\"satellite\":0,\"tor\":18,\"tor_exit_nodes\":18,\"vpn\":2088,\"relay\":0,\"proxy\":25,\"hosting\":2132,\"service\":2046}","uploaders":"{\"size\":1895,\"mobile\":141,\"satellite\":0,\"tor\":0,\"tor_exit_nodes\":0,\"vpn\":805,\"relay\":0,\"proxy\":10,\"hosting\":630,\"service\":788}"},"geometry":{"type":"Point","coordinates":[18.06871,59.32938]}},{"type":"Feature","properties":{"country_code":"ESP","city":"Madrid","geoname_id":"3117735","downloaders":"{\"size\":6198,\"mobile\":1619,\"satellite\":6,\"tor\":0,\"tor_exit_nodes\":0,\"vpn\":885,\"relay\":0,\"proxy\":5,\"hosting\":1165,\"service\":869}","uploaders":"{\"size\":2167,\"mobile\":768,\"satellite\":4,\"tor\":0,\"tor_exit_nodes\":0,\"vpn\":293,\"relay\":0,\"proxy\":1,\"hosting\":333,\"service\":289}"},"geometry":{"type":"Point","coordinates":[-3.70256,40.4165]}},{"type":"Feature","properties":{"country_code":"IRL","city":"Dublin","geoname_id":"2964574","downloaders":"{\"size\":6177,\"mobile\":1374,\"satellite\":0,\"tor\":0,\"tor_exit_nodes\":0,\"vpn\":370,\"relay\":0,\"proxy\":0,\"hosting\":2004,\"service\":344}","uploaders":"{\"size\":2203,\"mobile\":622,\"satellite\":0,\"tor\":0,\"tor_exit_nodes\":0,\"vpn\":102,\"relay\":0,\"proxy\":0,\"hosting\":286,\"service\":89}"},"geometry":{"type":"Point","coordinates":[-6.24889,53.33306]}},{"type":"Feature","properties":{"country_code":"SGP","city":"Singapore","geoname_id":"1880252","downloaders":"{\"size\":6132,\"mobile\":26,\"satellite\":0,\"tor\":0,\"tor_exit_nodes\":0,\"vpn\":1049,\"relay\":0,\"proxy\":0,\"hosting\":3371,\"service\":1046}","uploaders":"{\"size\":915,\"mobile\":6,\"satellite\":0,\"tor\":0,\"tor_exit_nodes\":0,\"vpn\":392,\"relay\":0,\"proxy\":0,\"hosting\":658,\"service\":392}"},"geometry":{"type":"Point","coordinates":[103.85007,1.28967]}},{"type":"Feature","properties":{"country_code":"ZAF","city":"Johannesburg","geoname_id":"993800","downloaders":"{\"size\":6116,\"mobile\":3113,\"satellite\":0,\"tor\":0,\"tor_exit_nodes\":0,\"vpn\":137,\"relay\":0,\"proxy\":0,\"hosting\":757,\"service\":124}","uploaders":"{\"size\":1875,\"mobile\":978,\"satellite\":0,\"tor\":0,\"tor_exit_nodes\":0,\"vpn\":64,\"relay\":0,\"proxy\":0,\"hosting\":288,\"service\":58}"},"geometry":{"type":"Point","coordinates":[28.04363,-26.20227]}},{"type":"Feature","properties":{"country_code":"KEN","city":"Nairobi","geoname_id":"184745","downloaders":"{\"size\":5726,\"mobile\":2304,\"satellite\":0,\"tor\":0,\"tor_exit_nodes\":0,\"vpn\":31,\"relay\":0,\"proxy\":0,\"hosting\":115,\"service\":1}","uploaders":"{\"size\":1954,\"mobile\":750,\"satellite\":0,\"tor\":0,\"tor_exit_nodes\":0,\"vpn\":12,\"relay\":0,\"proxy\":0,\"hosting\":38,\"service\":0}"},"geometry":{"type":"Point","coordinates":[36.81667,-1.28333]}},{"type":"Feature","properties":{"country_code":"USA","city":"Monroe","geoname_id":"4333669","downloaders":"{\"size\":5715,\"mobile\":0,\"satellite\":0,\"tor\":0,\"tor_exit_nodes\":0,\"vpn\":0,\"relay\":0,\"proxy\":0,\"hosting\":0,\"service\":0}","uploaders":"{\"size\":26,\"mobile\":0,\"satellite\":0,\"tor\":0,\"tor_exit_nodes\":0,\"vpn\":0,\"relay\":0,\"proxy\":0,\"hosting\":0,\"service\":0}"},"geometry":{"type":"Point","coordinates":[-92.0422,32.553]}},{"type":"Feature","properties":{"country_code":"CHN","city":"Shenzhen","geoname_id":"1795565","downloaders":"{\"size\":5615,\"mobile\":0,\"satellite\":0,\"tor\":0,\"tor_exit_nodes\":0,\"vpn\":28,\"relay\":0,\"proxy\":0,\"hosting\":215,\"service\":0}","uploaders":"{\"size\":312,\"mobile\":0,\"satellite\":0,\"tor\":0,\"tor_exit_nodes\":0,\"vpn\":0,\"relay\":0,\"proxy\":0,\"hosting\":11,\"service\":0}"},"geometry":{"type":"Point","coordinates":[114.0683,22.54554]}},{"type":"Feature","properties":{"country_code":"USA","city":"Washington","geoname_id":"4140963","downloaders":"{\"size\":5526,\"mobile\":8,\"satellite\":0,\"tor\":0,\"tor_exit_nodes\":0,\"vpn\":169,\"relay\":0,\"proxy\":0,\"hosting\":650,\"service\":167}","uploaders":"{\"size\":284,\"mobile\":3,\"satellite\":0,\"tor\":0,\"tor_exit_nodes\":0,\"vpn\":73,\"relay\":0,\"proxy\":0,\"hosting\":180,\"service\":72}"},"geometry":{"type":"Point","coordinates":[-77.03637,38.89511]}},{"type":"Feature","properties":{"country_code":"USA","city":"Sierra Vista","geoname_id":"5314328","downloaders":"{\"size\":5393,\"mobile\":0,\"satellite\":0,\"tor\":0,\"tor_exit_nodes\":0,\"vpn\":0,\"relay\":0,\"proxy\":0,\"hosting\":0,\"service\":0}","uploaders":"{\"size\":44,\"mobile\":0,\"satellite\":0,\"tor\":0,\"tor_exit_nodes\":0,\"vpn\":0,\"relay\":0,\"proxy\":0,\"hosting\":0,\"service\":0}"},"geometry":{"type":"Point","coordinates":[-110.3441,31.5587]}},{"type":"Feature","properties":{"country_code":"USA","city":"Atlanta","geoname_id":"4180439","downloaders":"{\"size\":5268,\"mobile\":173,\"satellite\":0,\"tor\":0,\"tor_exit_nodes\":0,\"vpn\":222,\"relay\":1,\"proxy\":0,\"hosting\":1833,\"service\":219}","uploaders":"{\"size\":413,\"mobile\":16,\"satellite\":0,\"tor\":0,\"tor_exit_nodes\":0,\"vpn\":59,\"relay\":0,\"proxy\":0,\"hosting\":271,\"service\":59}"},"geometry":{"type":"Point","coordinates":[-84.3549,33.8206]}},{"type":"Feature","properties":{"country_code":"USA","city":"Chicago","geoname_id":"4887398","downloaders":"{\"size\":5022,\"mobile\":194,\"satellite\":0,\"tor\":0,\"tor_exit_nodes\":0,\"vpn\":517,\"relay\":1,\"proxy\":0,\"hosting\":1883,\"service\":506}","uploaders":"{\"size\":706,\"mobile\":73,\"satellite\":0,\"tor\":0,\"tor_exit_nodes\":0,\"vpn\":167,\"relay\":1,\"proxy\":0,\"hosting\":451,\"service\":165}"},"geometry":{"type":"Point","coordinates":[-87.65005,41.85003]}},{"type":"Feature","properties":{"country_code":"ITA","city":"Milan","geoname_id":"3173435","downloaders":"{\"size\":4878,\"mobile\":842,\"satellite\":0,\"tor\":0,\"tor_exit_nodes\":0,\"vpn\":174,\"relay\":1,\"proxy\":0,\"hosting\":793,\"service\":153}","uploaders":"{\"size\":876,\"mobile\":244,\"satellite\":0,\"tor\":0,\"tor_exit_nodes\":0,\"vpn\":50,\"relay\":0,\"proxy\":0,\"hosting\":82,\"service\":50}"},"geometry":{"type":"Point","coordinates":[9.18951,45.46427]}},{"type":"Feature","properties":{"country_code":"USA","city":"San Jose","geoname_id":"5392171","downloaders":"{\"size\":4711,\"mobile\":47,\"satellite\":0,\"tor\":50,\"tor_exit_nodes\":18,\"vpn\":282,\"relay\":2,\"proxy\":5,\"hosting\":2373,\"service\":225}","uploaders":"{\"size\":371,\"mobile\":15,\"satellite\":0,\"tor\":0,\"tor_exit_nodes\":0,\"vpn\":48,\"relay\":2,\"proxy\":1,\"hosting\":274,\"service\":45}"},"geometry":{"type":"Point","coordinates":[-121.89496,37.33939]}},{"type":"Feature","properties":{"country_code":"CHE","city":"Zürich","geoname_id":"2657896","downloaders":"{\"size\":4640,\"mobile\":299,\"satellite\":0,\"tor\":3,\"tor_exit_nodes\":5,\"vpn\":2008,\"relay\":0,\"proxy\":0,\"hosting\":2728,\"service\":1999}","uploaders":"{\"size\":1417,\"mobile\":135,\"satellite\":0,\"tor\":0,\"tor_exit_nodes\":0,\"vpn\":913,\"relay\":0,\"proxy\":0,\"hosting\":963,\"service\":912}"},"geometry":{"type":"Point","coordinates":[8.55,47.36667]}},{"type":"Feature","properties":{"country_code":"POL","city":"Warsaw","geoname_id":"756135","downloaders":"{\"size\":4559,\"mobile\":625,\"satellite\":0,\"tor\":0,\"tor_exit_nodes\":0,\"vpn\":299,\"relay\":0,\"proxy\":0,\"hosting\":505,\"service\":226}","uploaders":"{\"size\":1702,\"mobile\":210,\"satellite\":0,\"tor\":0,\"tor_exit_nodes\":0,\"vpn\":100,\"relay\":0,\"proxy\":0,\"hosting\":74,\"service\":79}"},"geometry":{"type":"Point","coordinates":[21.01178,52.22977]}},{"type":"Feature","properties":{"country_code":"NZL","city":"Auckland","geoname_id":"2193733","downloaders":"{\"size\":4451,\"mobile\":1962,\"satellite\":1,\"tor\":0,\"tor_exit_nodes\":0,\"vpn\":490,\"relay\":0,\"proxy\":0,\"hosting\":612,\"service\":471}","uploaders":"{\"size\":2185,\"mobile\":1006,\"satellite\":1,\"tor\":0,\"tor_exit_nodes\":0,\"vpn\":195,\"relay\":0,\"proxy\":0,\"hosting\":197,\"service\":188}"},"geometry":{"type":"Point","coordinates":[174.76349,-36.84853]}},{"type":"Feature","properties":{"country_code":"HKG","city":"Hong Kong","geoname_id":"1819729","downloaders":"{\"size\":4427,\"mobile\":99,\"satellite\":0,\"tor\":0,\"tor_exit_nodes\":0,\"vpn\":568,\"relay\":0,\"proxy\":1,\"hosting\":1916,\"service\":540}","uploaders":"{\"size\":1172,\"mobile\":29,\"satellite\":0,\"tor\":0,\"tor_exit_nodes\":0,\"vpn\":188,\"relay\":0,\"proxy\":0,\"hosting\":436,\"service\":179}"},"geometry":{"type":"Point","coordinates":[114.17469,22.27832]}},{"type":"Feature","properties":{"country_code":"IND","city":"Mumbai","geoname_id":"1275339","downloaders":"{\"size\":4400,\"mobile\":796,\"satellite\":0,\"tor\":0,\"tor_exit_nodes\":0,\"vpn\":66,\"relay\":31,\"proxy\":0,\"hosting\":900,\"service\":82}","uploaders":"{\"size\":1118,\"mobile\":203,\"satellite\":0,\"tor\":0,\"tor_exit_nodes\":0,\"vpn\":17,\"relay\":0,\"proxy\":0,\"hosting\":206,\"service\":16}"},"geometry":{"type":"Point","coordinates":[72.88261,19.07283]}},{"type":"Feature","properties":{"country_code":"ZAF","city":"Cape Town","geoname_id":"3369157","downloaders":"{\"size\":4361,\"mobile\":2013,\"satellite\":0,\"tor\":0,\"tor_exit_nodes\":0,\"vpn\":7,\"relay\":0,\"proxy\":0,\"hosting\":534,\"service\":0}","uploaders":"{\"size\":1619,\"mobile\":721,\"satellite\":0,\"tor\":0,\"tor_exit_nodes\":0,\"vpn\":4,\"relay\":0,\"proxy\":0,\"hosting\":253,\"service\":0}"},"geometry":{"type":"Point","coordinates":[18.42322,-33.92584]}},{"type":"Feature","properties":{"country_code":"JPN","city":"Azabu-jūban","geoname_id":"10865290","downloaders":"{\"size\":4330,\"mobile\":3,\"satellite\":0,\"tor\":0,\"tor_exit_nodes\":0,\"vpn\":0,\"relay\":0,\"proxy\":0,\"hosting\":1,\"service\":0}","uploaders":"{\"size\":12,\"mobile\":1,\"satellite\":0,\"tor\":0,\"tor_exit_nodes\":0,\"vpn\":0,\"relay\":0,\"proxy\":0,\"hosting\":0,\"service\":0}"},"geometry":{"type":"Point","coordinates":[139.7333,35.65]}},{"type":"Feature","properties":{"country_code":"NLD","city":"Roosendaal","geoname_id":"2747930","downloaders":"{\"size\":4187,\"mobile\":0,\"satellite\":0,\"tor\":0,\"tor_exit_nodes\":0,\"vpn\":118,\"relay\":0,\"proxy\":0,\"hosting\":4154,\"service\":118}","uploaders":"{\"size\":801,\"mobile\":0,\"satellite\":0,\"tor\":0,\"tor_exit_nodes\":0,\"vpn\":21,\"relay\":0,\"proxy\":0,\"hosting\":797,\"service\":21}"},"geometry":{"type":"Point","coordinates":[4.46528,51.53083]}},{"type":"Feature","properties":{"country_code":"CAN","city":"Vancouver","geoname_id":"6173331","downloaders":"{\"size\":4060,\"mobile\":191,\"satellite\":0,\"tor\":0,\"tor_exit_nodes\":0,\"vpn\":799,\"relay\":0,\"proxy\":0,\"hosting\":1809,\"service\":789}","uploaders":"{\"size\":1364,\"mobile\":78,\"satellite\":0,\"tor\":0,\"tor_exit_nodes\":0,\"vpn\":328,\"relay\":0,\"proxy\":0,\"hosting\":778,\"service\":322}"},"geometry":{"type":"Point","coordinates":[-123.11934,49.24966]}},{"type":"Feature","properties":{"country_code":"TWN","city":"Taipei","geoname_id":"1668341","downloaders":"{\"size\":4058,\"mobile\":215,\"satellite\":0,\"tor\":0,\"tor_exit_nodes\":0,\"vpn\":35,\"relay\":0,\"proxy\":0,\"hosting\":313,\"service\":21}","uploaders":"{\"size\":301,\"mobile\":10,\"satellite\":0,\"tor\":0,\"tor_exit_nodes\":0,\"vpn\":10,\"relay\":0,\"proxy\":0,\"hosting\":16,\"service\":4}"},"geometry":{"type":"Point","coordinates":[121.52639,25.05306]}},{"type":"Feature","properties":{"country_code":"UKR","city":"Kyiv","geoname_id":"703448","downloaders":"{\"size\":3928,\"mobile\":359,\"satellite\":0,\"tor\":0,\"tor_exit_nodes\":0,\"vpn\":164,\"relay\":0,\"proxy\":11,\"hosting\":714,\"service\":97}","uploaders":"{\"size\":976,\"mobile\":24,\"satellite\":0,\"tor\":0,\"tor_exit_nodes\":0,\"vpn\":38,\"relay\":0,\"proxy\":0,\"hosting\":194,\"service\":33}"},"geometry":{"type":"Point","coordinates":[30.5238,50.45466]}},{"type":"Feature","properties":{"country_code":"AUS","city":"Brisbane","geoname_id":"2174003","downloaders":"{\"size\":3874,\"mobile\":353,\"satellite\":0,\"tor\":0,\"tor_exit_nodes\":0,\"vpn\":619,\"relay\":0,\"proxy\":0,\"hosting\":806,\"service\":562}","uploaders":"{\"size\":1947,\"mobile\":114,\"satellite\":0,\"tor\":0,\"tor_exit_nodes\":0,\"vpn\":326,\"relay\":0,\"proxy\":0,\"hosting\":415,\"service\":292}"},"geometry":{"type":"Point","coordinates":[153.02809,-27.46794]}},{"type":"Feature","properties":{"country_code":"HRV","city":"Zagreb","geoname_id":"3186886","downloaders":"{\"size\":3818,\"mobile\":783,\"satellite\":0,\"tor\":0,\"tor_exit_nodes\":0,\"vpn\":65,\"relay\":0,\"proxy\":0,\"hosting\":10,\"service\":41}","uploaders":"{\"size\":1837,\"mobile\":293,\"satellite\":0,\"tor\":0,\"tor_exit_nodes\":0,\"vpn\":23,\"relay\":0,\"proxy\":0,\"hosting\":5,\"service\":16}"},"geometry":{"type":"Point","coordinates":[15.97798,45.81444]}},{"type":"Feature","properties":{"country_code":"USA","city":"Redmond","geoname_id":"5808079","downloaders":"{\"size\":3817,\"mobile\":1,\"satellite\":0,\"tor\":0,\"tor_exit_nodes\":0,\"vpn\":0,\"relay\":0,\"proxy\":0,\"hosting\":1949,\"service\":0}","uploaders":"{\"size\":168,\"mobile\":0,\"satellite\":0,\"tor\":0,\"tor_exit_nodes\":0,\"vpn\":0,\"relay\":0,\"proxy\":0,\"hosting\":160,\"service\":0}"},"geometry":{"type":"Point","coordinates":[-122.12151,47.67399]}},{"type":"Feature","properties":{"country_code":"ARG","city":"Buenos Aires","geoname_id":"3435910","downloaders":"{\"size\":3804,\"mobile\":595,\"satellite\":0,\"tor\":0,\"tor_exit_nodes\":0,\"vpn\":9,\"relay\":0,\"proxy\":0,\"hosting\":136,\"service\":4}","uploaders":"{\"size\":1449,\"mobile\":148,\"satellite\":0,\"tor\":0,\"tor_exit_nodes\":0,\"vpn\":6,\"relay\":0,\"proxy\":0,\"hosting\":20,\"service\":4}"},"geometry":{"type":"Point","coordinates":[-58.37723,-34.61315]}},{"type":"Feature","properties":{"country_code":"JPN","city":"Asagaya-minami","geoname_id":"1865090","downloaders":"{\"size\":3796,\"mobile\":2,\"satellite\":0,\"tor\":0,\"tor_exit_nodes\":0,\"vpn\":4,\"relay\":0,\"proxy\":0,\"hosting\":403,\"service\":0}","uploaders":"{\"size\":21,\"mobile\":0,\"satellite\":0,\"tor\":0,\"tor_exit_nodes\":0,\"vpn\":1,\"relay\":0,\"proxy\":0,\"hosting\":6,\"service\":0}"},"geometry":{"type":"Point","coordinates":[139.63745,35.70206]}},{"type":"Feature","properties":{"country_code":"CHL","city":"Santiago","geoname_id":"3871336","downloaders":"{\"size\":3644,\"mobile\":568,\"satellite\":0,\"tor\":0,\"tor_exit_nodes\":0,\"vpn\":46,\"relay\":0,\"proxy\":0,\"hosting\":474,\"service\":45}","uploaders":"{\"size\":1423,\"mobile\":219,\"satellite\":0,\"tor\":0,\"tor_exit_nodes\":0,\"vpn\":10,\"relay\":0,\"proxy\":0,\"hosting\":78,\"service\":10}"},"geometry":{"type":"Point","coordinates":[-70.64827,-33.45694]}},{"type":"Feature","properties":{"country_code":"URY","city":"Montevideo","geoname_id":"3441575","downloaders":"{\"size\":3459,\"mobile\":132,\"satellite\":0,\"tor\":0,\"tor_exit_nodes\":0,\"vpn\":21,\"relay\":0,\"proxy\":0,\"hosting\":0,\"service\":2}","uploaders":"{\"size\":1747,\"mobile\":18,\"satellite\":0,\"tor\":0,\"tor_exit_nodes\":0,\"vpn\":10,\"relay\":0,\"proxy\":0,\"hosting\":0,\"service\":2}"},"geometry":{"type":"Point","coordinates":[-56.18816,-34.90328]}},{"type":"Feature","properties":{"country_code":"BGR","city":"Sofia","geoname_id":"727011","downloaders":"{\"size\":3449,\"mobile\":236,\"satellite\":0,\"tor\":1,\"tor_exit_nodes\":2,\"vpn\":432,\"relay\":0,\"proxy\":0,\"hosting\":697,\"service\":387}","uploaders":"{\"size\":1120,\"mobile\":21,\"satellite\":0,\"tor\":0,\"tor_exit_nodes\":0,\"vpn\":126,\"relay\":0,\"proxy\":0,\"hosting\":170,\"service\":114}"},"geometry":{"type":"Point","coordinates":[23.32415,42.69751]}},{"type":"Feature","properties":{"country_code":"USA","city":"Houston","geoname_id":"4699066","downloaders":"{\"size\":3362,\"mobile\":293,\"satellite\":0,\"tor\":0,\"tor_exit_nodes\":0,\"vpn\":2,\"relay\":0,\"proxy\":0,\"hosting\":327,\"service\":1}","uploaders":"{\"size\":208,\"mobile\":45,\"satellite\":0,\"tor\":0,\"tor_exit_nodes\":0,\"vpn\":1,\"relay\":0,\"proxy\":0,\"hosting\":28,\"service\":0}"},"geometry":{"type":"Point","coordinates":[-95.4034,29.7736]}},{"type":"Feature","properties":{"country_code":"NOR","city":"Oslo","geoname_id":"3143244","downloaders":"{\"size\":3351,\"mobile\":282,\"satellite\":0,\"tor\":0,\"tor_exit_nodes\":0,\"vpn\":950,\"relay\":0,\"proxy\":2,\"hosting\":1267,\"service\":945}","uploaders":"{\"size\":915,\"mobile\":115,\"satellite\":0,\"tor\":0,\"tor_exit_nodes\":0,\"vpn\":335,\"relay\":0,\"proxy\":0,\"hosting\":364,\"service\":333}"},"geometry":{"type":"Point","coordinates":[10.74609,59.91273]}},{"type":"Feature","properties":{"country_code":"RUS","city":"Yekaterinburg","geoname_id":"1486209","downloaders":"{\"size\":3228,\"mobile\":574,\"satellite\":0,\"tor\":0,\"tor_exit_nodes\":0,\"vpn\":114,\"relay\":0,\"proxy\":0,\"hosting\":6,\"service\":0}","uploaders":"{\"size\":770,\"mobile\":59,\"satellite\":0,\"tor\":0,\"tor_exit_nodes\":0,\"vpn\":13,\"relay\":0,\"proxy\":0,\"hosting\":3,\"service\":0}"},"geometry":{"type":"Point","coordinates":[60.61529,56.85733]}},{"type":"Feature","properties":{"country_code":"TUR","city":"Istanbul","geoname_id":"745044","downloaders":"{\"size\":3195,\"mobile\":509,\"satellite\":0,\"tor\":0,\"tor_exit_nodes\":0,\"vpn\":10,\"relay\":0,\"proxy\":0,\"hosting\":166,\"service\":3}","uploaders":"{\"size\":1524,\"mobile\":258,\"satellite\":0,\"tor\":0,\"tor_exit_nodes\":0,\"vpn\":2,\"relay\":0,\"proxy\":0,\"hosting\":11,\"service\":0}"},"geometry":{"type":"Point","coordinates":[28.94966,41.01384]}},{"type":"Feature","properties":{"country_code":"USA","city":"Durham","geoname_id":"4464368","downloaders":"{\"size\":3119,\"mobile\":2,\"satellite\":0,\"tor\":0,\"tor_exit_nodes\":0,\"vpn\":0,\"relay\":0,\"proxy\":0,\"hosting\":0,\"service\":0}","uploaders":"{\"size\":5,\"mobile\":0,\"satellite\":0,\"tor\":0,\"tor_exit_nodes\":0,\"vpn\":0,\"relay\":0,\"proxy\":0,\"hosting\":0,\"service\":0}"},"geometry":{"type":"Point","coordinates":[-78.8577,36.0512]}},{"type":"Feature","properties":{"country_code":"THA","city":"Bangkok","geoname_id":"1609350","downloaders":"{\"size\":3108,\"mobile\":278,\"satellite\":0,\"tor\":0,\"tor_exit_nodes\":0,\"vpn\":15,\"relay\":0,\"proxy\":0,\"hosting\":542,\"service\":10}","uploaders":"{\"size\":829,\"mobile\":106,\"satellite\":0,\"tor\":0,\"tor_exit_nodes\":0,\"vpn\":5,\"relay\":0,\"proxy\":0,\"hosting\":50,\"service\":2}"},"geometry":{"type":"Point","coordinates":[100.50144,13.75398]}},{"type":"Feature","properties":{"country_code":"AUS","city":"Perth","geoname_id":"2063523","downloaders":"{\"size\":3058,\"mobile\":207,\"satellite\":0,\"tor\":0,\"tor_exit_nodes\":0,\"vpn\":398,\"relay\":0,\"proxy\":0,\"hosting\":538,\"service\":375}","uploaders":"{\"size\":1242,\"mobile\":55,\"satellite\":0,\"tor\":0,\"tor_exit_nodes\":0,\"vpn\":131,\"relay\":0,\"proxy\":0,\"hosting\":163,\"service\":120}"},"geometry":{"type":"Point","coordinates":[115.8614,-31.95224]}},{"type":"Feature","properties":{"country_code":"ESP","city":"Barcelona","geoname_id":"3128760","downloaders":"{\"size\":3026,\"mobile\":1017,\"satellite\":0,\"tor\":0,\"tor_exit_nodes\":0,\"vpn\":18,\"relay\":0,\"proxy\":0,\"hosting\":181,\"service\":1}","uploaders":"{\"size\":1378,\"mobile\":479,\"satellite\":0,\"tor\":0,\"tor_exit_nodes\":0,\"vpn\":3,\"relay\":0,\"proxy\":0,\"hosting\":89,\"service\":0}"},"geometry":{"type":"Point","coordinates":[2.15899,41.38879]}},{"type":"Feature","properties":{"country_code":"USA","city":"Indianapolis","geoname_id":"4259418","downloaders":"{\"size\":3022,\"mobile\":24,\"satellite\":0,\"tor\":0,\"tor_exit_nodes\":0,\"vpn\":4,\"relay\":0,\"proxy\":0,\"hosting\":32,\"service\":3}","uploaders":"{\"size\":34,\"mobile\":2,\"satellite\":0,\"tor\":0,\"tor_exit_nodes\":0,\"vpn\":0,\"relay\":0,\"proxy\":0,\"hosting\":0,\"service\":0}"},"geometry":{"type":"Point","coordinates":[-86.1181,39.8647]}},{"type":"Feature","properties":{"country_code":"DEU","city":"Stuttgart","geoname_id":"2825297","downloaders":"{\"size\":2978,\"mobile\":22,\"satellite\":0,\"tor\":0,\"tor_exit_nodes\":0,\"vpn\":0,\"relay\":0,\"proxy\":0,\"hosting\":33,\"service\":0}","uploaders":"{\"size\":9,\"mobile\":3,\"satellite\":0,\"tor\":0,\"tor_exit_nodes\":0,\"vpn\":0,\"relay\":0,\"proxy\":0,\"hosting\":1,\"service\":0}"},"geometry":{"type":"Point","coordinates":[9.17702,48.78232]}},{"type":"Feature","properties":{"country_code":"USA","city":"Denver","geoname_id":"5419384","downloaders":"{\"size\":2966,\"mobile\":24,\"satellite\":0,\"tor\":0,\"tor_exit_nodes\":0,\"vpn\":389,\"relay\":0,\"proxy\":0,\"hosting\":968,\"service\":350}","uploaders":"{\"size\":291,\"mobile\":5,\"satellite\":0,\"tor\":0,\"tor_exit_nodes\":0,\"vpn\":125,\"relay\":0,\"proxy\":0,\"hosting\":202,\"service\":123}"},"geometry":{"type":"Point","coordinates":[-104.9847,39.73915]}},{"type":"Feature","properties":{"country_code":"USA","city":"Leesburg","geoname_id":"4769125","downloaders":"{\"size\":2858,\"mobile\":0,\"satellite\":0,\"tor\":0,\"tor_exit_nodes\":0,\"vpn\":0,\"relay\":5,\"proxy\":40,\"hosting\":1564,\"service\":5}","uploaders":"{\"size\":704,\"mobile\":0,\"satellite\":0,\"tor\":0,\"tor_exit_nodes\":0,\"vpn\":0,\"relay\":5,\"proxy\":2,\"hosting\":452,\"service\":5}"},"geometry":{"type":"Point","coordinates":[-77.5636,39.11566]}},{"type":"Feature","properties":{"country_code":"ITA","city":"Rome","geoname_id":"3169070","downloaders":"{\"size\":2838,\"mobile\":670,\"satellite\":0,\"tor\":0,\"tor_exit_nodes\":0,\"vpn\":6,\"relay\":0,\"proxy\":0,\"hosting\":74,\"service\":3}","uploaders":"{\"size\":646,\"mobile\":164,\"satellite\":0,\"tor\":0,\"tor_exit_nodes\":0,\"vpn\":3,\"relay\":0,\"proxy\":0,\"hosting\":2,\"service\":1}"},"geometry":{"type":"Point","coordinates":[12.51133,41.89193]}},{"type":"Feature","properties":{"country_code":"ROU","city":"Bucharest","geoname_id":"683506","downloaders":"{\"size\":2836,\"mobile\":297,\"satellite\":0,\"tor\":1,\"tor_exit_nodes\":1,\"vpn\":521,\"relay\":0,\"proxy\":1,\"hosting\":986,\"service\":483}","uploaders":"{\"size\":881,\"mobile\":179,\"satellite\":0,\"tor\":0,\"tor_exit_nodes\":0,\"vpn\":139,\"relay\":0,\"proxy\":0,\"hosting\":266,\"service\":132}"},"geometry":{"type":"Point","coordinates":[26.10626,44.43225]}},{"type":"Feature","properties":{"country_code":"HUN","city":"Budapest","geoname_id":"3054643","downloaders":"{\"size\":2778,\"mobile\":173,\"satellite\":0,\"tor\":0,\"tor_exit_nodes\":0,\"vpn\":175,\"relay\":0,\"proxy\":0,\"hosting\":237,\"service\":145}","uploaders":"{\"size\":939,\"mobile\":91,\"satellite\":0,\"tor\":0,\"tor_exit_nodes\":0,\"vpn\":39,\"relay\":0,\"proxy\":0,\"hosting\":41,\"service\":36}"},"geometry":{"type":"Point","coordinates":[19.04045,47.49835]}},{"type":"Feature","properties":{"country_code":"USA","city":"Newark","geoname_id":"5101798","downloaders":"{\"size\":2748,\"mobile\":0,\"satellite\":0,\"tor\":0,\"tor_exit_nodes\":0,\"vpn\":4,\"relay\":0,\"proxy\":0,\"hosting\":33,\"service\":3}","uploaders":"{\"size\":20,\"mobile\":0,\"satellite\":0,\"tor\":0,\"tor_exit_nodes\":0,\"vpn\":1,\"relay\":0,\"proxy\":0,\"hosting\":1,\"service\":0}"},"geometry":{"type":"Point","coordinates":[-74.17237,40.73566]}},{"type":"Feature","properties":{"country_code":"CHN","city":"Nanjing","geoname_id":"1799962","downloaders":"{\"size\":2702,\"mobile\":0,\"satellite\":0,\"tor\":0,\"tor_exit_nodes\":0,\"vpn\":26,\"relay\":0,\"proxy\":0,\"hosting\":25,\"service\":0}","uploaders":"{\"size\":119,\"mobile\":0,\"satellite\":0,\"tor\":0,\"tor_exit_nodes\":0,\"vpn\":1,\"relay\":0,\"proxy\":0,\"hosting\":0,\"service\":0}"},"geometry":{"type":"Point","coordinates":[118.77778,32.06167]}},{"type":"Feature","properties":{"country_code":"FIN","city":"Helsinki","geoname_id":"658225","downloaders":"{\"size\":2657,\"mobile\":585,\"satellite\":0,\"tor\":0,\"tor_exit_nodes\":2,\"vpn\":510,\"relay\":0,\"proxy\":1,\"hosting\":1001,\"service\":504}","uploaders":"{\"size\":582,\"mobile\":215,\"satellite\":0,\"tor\":0,\"tor_exit_nodes\":0,\"vpn\":144,\"relay\":0,\"proxy\":1,\"hosting\":197,\"service\":143}"},"geometry":{"type":"Point","coordinates":[24.93545,60.16952]}},{"type":"Feature","properties":{"country_code":"RUS","city":"Nizhniy Novgorod","geoname_id":"520555","downloaders":"{\"size\":2639,\"mobile\":745,\"satellite\":0,\"tor\":0,\"tor_exit_nodes\":0,\"vpn\":17,\"relay\":0,\"proxy\":0,\"hosting\":0,\"service\":0}","uploaders":"{\"size\":603,\"mobile\":141,\"satellite\":0,\"tor\":0,\"tor_exit_nodes\":0,\"vpn\":2,\"relay\":0,\"proxy\":0,\"hosting\":0,\"service\":0}"},"geometry":{"type":"Point","coordinates":[44.00205,56.32867]}},{"type":"Feature","properties":{"country_code":"RUS","city":"Krasnodar","geoname_id":"542420","downloaders":"{\"size\":2633,\"mobile\":1077,\"satellite\":0,\"tor\":0,\"tor_exit_nodes\":0,\"vpn\":9,\"relay\":0,\"proxy\":0,\"hosting\":7,\"service\":0}","uploaders":"{\"size\":734,\"mobile\":211,\"satellite\":0,\"tor\":0,\"tor_exit_nodes\":0,\"vpn\":2,\"relay\":0,\"proxy\":0,\"hosting\":4,\"service\":0}"},"geometry":{"type":"Point","coordinates":[38.98178,45.04534]}},{"type":"Feature","properties":{"country_code":"RUS","city":"Novosibirsk","geoname_id":"1496747","downloaders":"{\"size\":2624,\"mobile\":552,\"satellite\":0,\"tor\":0,\"tor_exit_nodes\":0,\"vpn\":13,\"relay\":0,\"proxy\":1,\"hosting\":15,\"service\":2}","uploaders":"{\"size\":467,\"mobile\":103,\"satellite\":0,\"tor\":0,\"tor_exit_nodes\":0,\"vpn\":2,\"relay\":0,\"proxy\":0,\"hosting\":3,\"service\":1}"},"geometry":{"type":"Point","coordinates":[82.9344,55.0411]}},{"type":"Feature","properties":{"country_code":"USA","city":"Philadelphia","geoname_id":"4560349","downloaders":"{\"size\":2612,\"mobile\":168,\"satellite\":0,\"tor\":0,\"tor_exit_nodes\":0,\"vpn\":0,\"relay\":0,\"proxy\":0,\"hosting\":12,\"service\":0}","uploaders":"{\"size\":193,\"mobile\":13,\"satellite\":0,\"tor\":0,\"tor_exit_nodes\":0,\"vpn\":0,\"relay\":0,\"proxy\":0,\"hosting\":0,\"service\":0}"},"geometry":{"type":"Point","coordinates":[-75.16362,39.95238]}},{"type":"Feature","properties":{"country_code":"USA","city":"San Francisco","geoname_id":"5391959","downloaders":"{\"size\":2528,\"mobile\":5,\"satellite\":0,\"tor\":0,\"tor_exit_nodes\":0,\"vpn\":191,\"relay\":0,\"proxy\":10,\"hosting\":862,\"service\":179}","uploaders":"{\"size\":538,\"mobile\":4,\"satellite\":0,\"tor\":0,\"tor_exit_nodes\":0,\"vpn\":88,\"relay\":0,\"proxy\":0,\"hosting\":182,\"service\":83}"},"geometry":{"type":"Point","coordinates":[-122.41942,37.77493]}},{"type":"Feature","properties":{"country_code":"DNK","city":"Copenhagen","geoname_id":"2618425","downloaders":"{\"size\":2490,\"mobile\":826,\"satellite\":0,\"tor\":5,\"tor_exit_nodes\":5,\"vpn\":25,\"relay\":0,\"proxy\":0,\"hosting\":347,\"service\":21}","uploaders":"{\"size\":709,\"mobile\":303,\"satellite\":0,\"tor\":0,\"tor_exit_nodes\":0,\"vpn\":5,\"relay\":0,\"proxy\":0,\"hosting\":29,\"service\":5}"},"geometry":{"type":"Point","coordinates":[12.56553,55.67594]}},{"type":"Feature","properties":{"country_code":"USA","city":"Bellevue","geoname_id":"5786882","downloaders":"{\"size\":2429,\"mobile\":1,\"satellite\":0,\"tor\":0,\"tor_exit_nodes\":0,\"vpn\":0,\"relay\":0,\"proxy\":0,\"hosting\":0,\"service\":0}","uploaders":"{\"size\":42,\"mobile\":0,\"satellite\":0,\"tor\":0,\"tor_exit_nodes\":0,\"vpn\":0,\"relay\":0,\"proxy\":0,\"hosting\":0,\"service\":0}"},"geometry":{"type":"Point","coordinates":[-122.1552,47.5614]}},{"type":"Feature","properties":{"country_code":"USA","city":"Austin","geoname_id":"4671654","downloaders":"{\"size\":2319,\"mobile\":15,\"satellite\":0,\"tor\":0,\"tor_exit_nodes\":0,\"vpn\":2,\"relay\":0,\"proxy\":0,\"hosting\":168,\"service\":1}","uploaders":"{\"size\":110,\"mobile\":11,\"satellite\":0,\"tor\":0,\"tor_exit_nodes\":0,\"vpn\":1,\"relay\":0,\"proxy\":0,\"hosting\":1,\"service\":0}"},"geometry":{"type":"Point","coordinates":[-97.7658,30.2428]}},{"type":"Feature","properties":{"country_code":"BRA","city":"Rio de Janeiro","geoname_id":"3451190","downloaders":"{\"size\":2319,\"mobile\":472,\"satellite\":0,\"tor\":0,\"tor_exit_nodes\":0,\"vpn\":2,\"relay\":0,\"proxy\":0,\"hosting\":19,\"service\":1}","uploaders":"{\"size\":651,\"mobile\":30,\"satellite\":0,\"tor\":0,\"tor_exit_nodes\":0,\"vpn\":1,\"relay\":0,\"proxy\":0,\"hosting\":17,\"service\":1}"},"geometry":{"type":"Point","coordinates":[-43.18223,-22.90642]}},{"type":"Feature","properties":{"country_code":"NLD","city":"Amersfoort","geoname_id":"2759821","downloaders":"{\"size\":2277,\"mobile\":0,\"satellite\":0,\"tor\":0,\"tor_exit_nodes\":3,\"vpn\":46,\"relay\":0,\"proxy\":0,\"hosting\":2178,\"service\":44}","uploaders":"{\"size\":810,\"mobile\":0,\"satellite\":0,\"tor\":0,\"tor_exit_nodes\":0,\"vpn\":15,\"relay\":0,\"proxy\":0,\"hosting\":789,\"service\":15}"},"geometry":{"type":"Point","coordinates":[5.3875,52.155]}},{"type":"Feature","properties":{"country_code":"CZE","city":"Prague","geoname_id":"3067696","downloaders":"{\"size\":2277,\"mobile\":171,\"satellite\":0,\"tor\":0,\"tor_exit_nodes\":0,\"vpn\":654,\"relay\":0,\"proxy\":0,\"hosting\":815,\"service\":613}","uploaders":"{\"size\":609,\"mobile\":77,\"satellite\":0,\"tor\":0,\"tor_exit_nodes\":0,\"vpn\":170,\"relay\":0,\"proxy\":0,\"hosting\":191,\"service\":167}"},"geometry":{"type":"Point","coordinates":[14.42076,50.08804]}},{"type":"Feature","properties":{"country_code":"AUT","city":"Vienna","geoname_id":"2761369","downloaders":"{\"size\":2276,\"mobile\":500,\"satellite\":0,\"tor\":0,\"tor_exit_nodes\":0,\"vpn\":108,\"relay\":0,\"proxy\":0,\"hosting\":330,\"service\":67}","uploaders":"{\"size\":411,\"mobile\":140,\"satellite\":0,\"tor\":0,\"tor_exit_nodes\":0,\"vpn\":14,\"relay\":0,\"proxy\":0,\"hosting\":28,\"service\":10}"},"geometry":{"type":"Point","coordinates":[16.37208,48.20849]}},{"type":"Feature","properties":{"country_code":"USA","city":"Miami","geoname_id":"4164138","downloaders":"{\"size\":2268,\"mobile\":12,\"satellite\":0,\"tor\":0,\"tor_exit_nodes\":0,\"vpn\":506,\"relay\":0,\"proxy\":0,\"hosting\":1433,\"service\":505}","uploaders":"{\"size\":340,\"mobile\":6,\"satellite\":0,\"tor\":0,\"tor_exit_nodes\":0,\"vpn\":169,\"relay\":0,\"proxy\":0,\"hosting\":305,\"service\":168}"},"geometry":{"type":"Point","coordinates":[-80.1403,25.9597]}},{"type":"Feature","properties":{"country_code":"NLD","city":"Lelystad","geoname_id":"2751738","downloaders":"{\"size\":2258,\"mobile\":38,\"satellite\":0,\"tor\":5,\"tor_exit_nodes\":13,\"vpn\":306,\"relay\":0,\"proxy\":1,\"hosting\":1920,\"service\":290}","uploaders":"{\"size\":633,\"mobile\":1,\"satellite\":0,\"tor\":0,\"tor_exit_nodes\":0,\"vpn\":106,\"relay\":0,\"proxy\":0,\"hosting\":602,\"service\":98}"},"geometry":{"type":"Point","coordinates":[5.475,52.50833]}},{"type":"Feature","properties":{"country_code":"BEL","city":"Brussels","geoname_id":"2800866","downloaders":"{\"size\":2242,\"mobile\":113,\"satellite\":0,\"tor\":0,\"tor_exit_nodes\":0,\"vpn\":113,\"relay\":0,\"proxy\":0,\"hosting\":308,\"service\":101}","uploaders":"{\"size\":727,\"mobile\":67,\"satellite\":0,\"tor\":0,\"tor_exit_nodes\":0,\"vpn\":44,\"relay\":0,\"proxy\":0,\"hosting\":56,\"service\":44}"},"geometry":{"type":"Point","coordinates":[4.34878,50.85045]}},{"type":"Feature","properties":{"country_code":"RUS","city":"Samara","geoname_id":"499099","downloaders":"{\"size\":2213,\"mobile\":801,\"satellite\":0,\"tor\":0,\"tor_exit_nodes\":0,\"vpn\":12,\"relay\":0,\"proxy\":0,\"hosting\":0,\"service\":4}","uploaders":"{\"size\":475,\"mobile\":79,\"satellite\":0,\"tor\":0,\"tor_exit_nodes\":0,\"vpn\":0,\"relay\":0,\"proxy\":0,\"hosting\":0,\"service\":0}"},"geometry":{"type":"Point","coordinates":[50.13553,53.20767]}},{"type":"Feature","properties":{"country_code":"RUS","city":"Rostov-na-Donu","geoname_id":"501175","downloaders":"{\"size\":2199,\"mobile\":570,\"satellite\":0,\"tor\":0,\"tor_exit_nodes\":0,\"vpn\":5,\"relay\":0,\"proxy\":0,\"hosting\":56,\"service\":5}","uploaders":"{\"size\":607,\"mobile\":70,\"satellite\":0,\"tor\":0,\"tor_exit_nodes\":0,\"vpn\":1,\"relay\":0,\"proxy\":0,\"hosting\":10,\"service\":1}"},"geometry":{"type":"Point","coordinates":[39.70769,47.219970000000004]}},{"type":"Feature","properties":{"country_code":"MUS","city":"Port Louis","geoname_id":"934154","downloaders":"{\"size\":2177,\"mobile\":0,\"satellite\":0,\"tor\":0,\"tor_exit_nodes\":0,\"vpn\":0,\"relay\":0,\"proxy\":0,\"hosting\":53,\"service\":0}","uploaders":"{\"size\":252,\"mobile\":0,\"satellite\":0,\"tor\":0,\"tor_exit_nodes\":0,\"vpn\":0,\"relay\":0,\"proxy\":0,\"hosting\":0,\"service\":0}"},"geometry":{"type":"Point","coordinates":[57.49889,-20.16194]}},{"type":"Feature","properties":{"country_code":"EGY","city":"Cairo","geoname_id":"360630","downloaders":"{\"size\":2138,\"mobile\":841,\"satellite\":0,\"tor\":0,\"tor_exit_nodes\":0,\"vpn\":2,\"relay\":0,\"proxy\":0,\"hosting\":39,\"service\":0}","uploaders":"{\"size\":381,\"mobile\":26,\"satellite\":0,\"tor\":0,\"tor_exit_nodes\":0,\"vpn\":1,\"relay\":0,\"proxy\":0,\"hosting\":6,\"service\":0}"},"geometry":{"type":"Point","coordinates":[31.24967,30.06263]}},{"type":"Feature","properties":{"country_code":"JPN","city":"Osaka","geoname_id":"1853909","downloaders":"{\"size\":2133,\"mobile\":206,\"satellite\":0,\"tor\":0,\"tor_exit_nodes\":0,\"vpn\":27,\"relay\":0,\"proxy\":0,\"hosting\":155,\"service\":21}","uploaders":"{\"size\":85,\"mobile\":3,\"satellite\":0,\"tor\":0,\"tor_exit_nodes\":0,\"vpn\":2,\"relay\":0,\"proxy\":0,\"hosting\":8,\"service\":0}"},"geometry":{"type":"Point","coordinates":[135.50107,34.69379]}},{"type":"Feature","properties":{"country_code":"USA","city":"Phoenix","geoname_id":"5308655","downloaders":"{\"size\":2126,\"mobile\":2,\"satellite\":0,\"tor\":0,\"tor_exit_nodes\":0,\"vpn\":112,\"relay\":0,\"proxy\":0,\"hosting\":692,\"service\":65}","uploaders":"{\"size\":232,\"mobile\":1,\"satellite\":0,\"tor\":0,\"tor_exit_nodes\":0,\"vpn\":38,\"relay\":0,\"proxy\":0,\"hosting\":116,\"service\":22}"},"geometry":{"type":"Point","coordinates":[-112.07404,33.44838]}},{"type":"Feature","properties":{"country_code":"LVA","city":"Riga","geoname_id":"456172","downloaders":"{\"size\":2069,\"mobile\":203,\"satellite\":0,\"tor\":0,\"tor_exit_nodes\":0,\"vpn\":279,\"relay\":0,\"proxy\":0,\"hosting\":395,\"service\":272}","uploaders":"{\"size\":772,\"mobile\":129,\"satellite\":0,\"tor\":0,\"tor_exit_nodes\":0,\"vpn\":102,\"relay\":0,\"proxy\":0,\"hosting\":145,\"service\":98}"},"geometry":{"type":"Point","coordinates":[24.10589,56.946]}},{"type":"Feature","properties":{"country_code":"USA","city":"Minneapolis","geoname_id":"5037649","downloaders":"{\"size\":2058,\"mobile\":133,\"satellite\":0,\"tor\":0,\"tor_exit_nodes\":0,\"vpn\":4,\"relay\":0,\"proxy\":0,\"hosting\":184,\"service\":0}","uploaders":"{\"size\":132,\"mobile\":36,\"satellite\":0,\"tor\":0,\"tor_exit_nodes\":0,\"vpn\":0,\"relay\":0,\"proxy\":0,\"hosting\":2,\"service\":0}"},"geometry":{"type":"Point","coordinates":[-93.26384,44.97997]}},{"type":"Feature","properties":{"country_code":"USA","city":"Palo Alto","geoname_id":"5380748","downloaders":"{\"size\":2043,\"mobile\":1,\"satellite\":0,\"tor\":0,\"tor_exit_nodes\":0,\"vpn\":1,\"relay\":0,\"proxy\":0,\"hosting\":37,\"service\":1}","uploaders":"{\"size\":8,\"mobile\":0,\"satellite\":0,\"tor\":0,\"tor_exit_nodes\":0,\"vpn\":0,\"relay\":0,\"proxy\":0,\"hosting\":0,\"service\":0}"},"geometry":{"type":"Point","coordinates":[-122.1842,37.4334]}},{"type":"Feature","properties":{"country_code":"BLR","city":"Minsk","geoname_id":"625144","downloaders":"{\"size\":1990,\"mobile\":43,\"satellite\":0,\"tor\":0,\"tor_exit_nodes\":0,\"vpn\":15,\"relay\":0,\"proxy\":0,\"hosting\":29,\"service\":1}","uploaders":"{\"size\":469,\"mobile\":10,\"satellite\":0,\"tor\":0,\"tor_exit_nodes\":0,\"vpn\":1,\"relay\":0,\"proxy\":0,\"hosting\":20,\"service\":1}"},"geometry":{"type":"Point","coordinates":[27.56653,53.90019]}},{"type":"Feature","properties":{"country_code":"USA","city":"Yuma","geoname_id":"5322053","downloaders":"{\"size\":1956,\"mobile\":0,\"satellite\":0,\"tor\":0,\"tor_exit_nodes\":0,\"vpn\":0,\"relay\":0,\"proxy\":0,\"hosting\":0,\"service\":0}","uploaders":"{\"size\":3,\"mobile\":0,\"satellite\":0,\"tor\":0,\"tor_exit_nodes\":0,\"vpn\":0,\"relay\":0,\"proxy\":0,\"hosting\":0,\"service\":0}"},"geometry":{"type":"Point","coordinates":[-114.6424,32.7015]}},{"type":"Feature","properties":{"country_code":"USA","city":"Montgomery","geoname_id":"4076784","downloaders":"{\"size\":1948,\"mobile\":0,\"satellite\":0,\"tor\":0,\"tor_exit_nodes\":0,\"vpn\":0,\"relay\":0,\"proxy\":0,\"hosting\":0,\"service\":0}","uploaders":"{\"size\":14,\"mobile\":0,\"satellite\":0,\"tor\":0,\"tor_exit_nodes\":0,\"vpn\":0,\"relay\":0,\"proxy\":0,\"hosting\":0,\"service\":0}"},"geometry":{"type":"Point","coordinates":[-86.1833,32.3736]}},{"type":"Feature","properties":{"country_code":"DEU","city":"Berlin","geoname_id":"2950159","downloaders":"{\"size\":1939,\"mobile\":237,\"satellite\":0,\"tor\":172,\"tor_exit_nodes\":184,\"vpn\":228,\"relay\":0,\"proxy\":0,\"hosting\":607,\"service\":207}","uploaders":"{\"size\":203,\"mobile\":28,\"satellite\":0,\"tor\":5,\"tor_exit_nodes\":5,\"vpn\":22,\"relay\":0,\"proxy\":0,\"hosting\":63,\"service\":12}"},"geometry":{"type":"Point","coordinates":[13.41053,52.52437]}},{"type":"Feature","properties":{"country_code":"ZAF","city":"Pretoria","geoname_id":"964137","downloaders":"{\"size\":1926,\"mobile\":1353,\"satellite\":0,\"tor\":0,\"tor_exit_nodes\":0,\"vpn\":1,\"relay\":0,\"proxy\":0,\"hosting\":42,\"service\":0}","uploaders":"{\"size\":603,\"mobile\":484,\"satellite\":0,\"tor\":0,\"tor_exit_nodes\":0,\"vpn\":0,\"relay\":0,\"proxy\":0,\"hosting\":1,\"service\":0}"},"geometry":{"type":"Point","coordinates":[28.18783,-25.74486]}},{"type":"Feature","properties":{"country_code":"MYS","city":"Kuala Lumpur","geoname_id":"1735161","downloaders":"{\"size\":1895,\"mobile\":195,\"satellite\":0,\"tor\":0,\"tor_exit_nodes\":0,\"vpn\":3,\"relay\":0,\"proxy\":0,\"hosting\":613,\"service\":2}","uploaders":"{\"size\":497,\"mobile\":100,\"satellite\":0,\"tor\":0,\"tor_exit_nodes\":0,\"vpn\":2,\"relay\":0,\"proxy\":0,\"hosting\":44,\"service\":1}"},"geometry":{"type":"Point","coordinates":[101.68653,3.1412]}},{"type":"Feature","properties":{"country_code":"RUS","city":"Voronezh","geoname_id":"472045","downloaders":"{\"size\":1894,\"mobile\":150,\"satellite\":0,\"tor\":0,\"tor_exit_nodes\":0,\"vpn\":21,\"relay\":0,\"proxy\":0,\"hosting\":19,\"service\":0}","uploaders":"{\"size\":507,\"mobile\":13,\"satellite\":0,\"tor\":0,\"tor_exit_nodes\":0,\"vpn\":4,\"relay\":0,\"proxy\":0,\"hosting\":3,\"service\":0}"},"geometry":{"type":"Point","coordinates":[39.19204,51.66833]}},{"type":"Feature","properties":{"country_code":"SWE","city":"Kista","geoname_id":"2700791","downloaders":"{\"size\":1868,\"mobile\":74,\"satellite\":0,\"tor\":0,\"tor_exit_nodes\":0,\"vpn\":1570,\"relay\":0,\"proxy\":0,\"hosting\":1570,\"service\":1570}","uploaders":"{\"size\":920,\"mobile\":58,\"satellite\":0,\"tor\":0,\"tor_exit_nodes\":0,\"vpn\":700,\"relay\":0,\"proxy\":0,\"hosting\":700,\"service\":700}"},"geometry":{"type":"Point","coordinates":[17.9448,59.4032]}},{"type":"Feature","properties":{"country_code":"VNM","city":"Ho Chi Minh City","geoname_id":"1566083","downloaders":"{\"size\":1837,\"mobile\":141,\"satellite\":0,\"tor\":0,\"tor_exit_nodes\":0,\"vpn\":35,\"relay\":0,\"proxy\":0,\"hosting\":128,\"service\":7}","uploaders":"{\"size\":322,\"mobile\":12,\"satellite\":0,\"tor\":0,\"tor_exit_nodes\":0,\"vpn\":7,\"relay\":0,\"proxy\":0,\"hosting\":6,\"service\":5}"},"geometry":{"type":"Point","coordinates":[106.62965,10.82302]}},{"type":"Feature","properties":{"country_code":"IDN","city":"Jakarta","geoname_id":"1642911","downloaders":"{\"size\":1826,\"mobile\":263,\"satellite\":0,\"tor\":0,\"tor_exit_nodes\":0,\"vpn\":6,\"relay\":0,\"proxy\":0,\"hosting\":160,\"service\":0}","uploaders":"{\"size\":240,\"mobile\":53,\"satellite\":0,\"tor\":0,\"tor_exit_nodes\":0,\"vpn\":1,\"relay\":0,\"proxy\":0,\"hosting\":10,\"service\":0}"},"geometry":{"type":"Point","coordinates":[106.8269,-6.1778]}},{"type":"Feature","properties":{"country_code":"GHA","city":"Accra","geoname_id":"2306104","downloaders":"{\"size\":1821,\"mobile\":1392,\"satellite\":0,\"tor\":0,\"tor_exit_nodes\":0,\"vpn\":0,\"relay\":0,\"proxy\":0,\"hosting\":0,\"service\":0}","uploaders":"{\"size\":899,\"mobile\":795,\"satellite\":0,\"tor\":0,\"tor_exit_nodes\":0,\"vpn\":0,\"relay\":0,\"proxy\":0,\"hosting\":0,\"service\":0}"},"geometry":{"type":"Point","coordinates":[-0.1969,5.55602]}},{"type":"Feature","properties":{"country_code":"SAU","city":"Riyadh","geoname_id":"108410","downloaders":"{\"size\":1799,\"mobile\":649,\"satellite\":0,\"tor\":0,\"tor_exit_nodes\":0,\"vpn\":2,\"relay\":0,\"proxy\":0,\"hosting\":283,\"service\":0}","uploaders":"{\"size\":400,\"mobile\":226,\"satellite\":0,\"tor\":0,\"tor_exit_nodes\":0,\"vpn\":1,\"relay\":0,\"proxy\":0,\"hosting\":1,\"service\":0}"},"geometry":{"type":"Point","coordinates":[46.72185,24.68773]}},{"type":"Feature","properties":{"country_code":"GRC","city":"Athens","geoname_id":"264371","downloaders":"{\"size\":1785,\"mobile\":133,\"satellite\":0,\"tor\":0,\"tor_exit_nodes\":0,\"vpn\":33,\"relay\":0,\"proxy\":0,\"hosting\":66,\"service\":11}","uploaders":"{\"size\":1091,\"mobile\":74,\"satellite\":0,\"tor\":0,\"tor_exit_nodes\":0,\"vpn\":11,\"relay\":0,\"proxy\":0,\"hosting\":33,\"service\":7}"},"geometry":{"type":"Point","coordinates":[23.72784,37.98376]}},{"type":"Feature","properties":{"country_code":"SWE","city":"Solna","geoname_id":"2675397","downloaders":"{\"size\":1784,\"mobile\":0,\"satellite\":0,\"tor\":0,\"tor_exit_nodes\":0,\"vpn\":1,\"relay\":0,\"proxy\":0,\"hosting\":746,\"service\":0}","uploaders":"{\"size\":605,\"mobile\":0,\"satellite\":0,\"tor\":0,\"tor_exit_nodes\":0,\"vpn\":0,\"relay\":0,\"proxy\":0,\"hosting\":224,\"service\":0}"},"geometry":{"type":"Point","coordinates":[18.00086,59.36004]}},{"type":"Feature","properties":{"country_code":"MEX","city":"Mexico City","geoname_id":"3530597","downloaders":"{\"size\":1775,\"mobile\":115,\"satellite\":0,\"tor\":0,\"tor_exit_nodes\":0,\"vpn\":54,\"relay\":0,\"proxy\":2,\"hosting\":238,\"service\":54}","uploaders":"{\"size\":684,\"mobile\":26,\"satellite\":0,\"tor\":0,\"tor_exit_nodes\":0,\"vpn\":23,\"relay\":0,\"proxy\":0,\"hosting\":82,\"service\":23}"},"geometry":{"type":"Point","coordinates":[-99.12766,19.42847]}},{"type":"Feature","properties":{"country_code":"USA","city":"Virginia Beach","geoname_id":"4791259","downloaders":"{\"size\":1766,\"mobile\":13,\"satellite\":0,\"tor\":0,\"tor_exit_nodes\":0,\"vpn\":2,\"relay\":0,\"proxy\":0,\"hosting\":41,\"service\":0}","uploaders":"{\"size\":40,\"mobile\":5,\"satellite\":0,\"tor\":0,\"tor_exit_nodes\":0,\"vpn\":0,\"relay\":0,\"proxy\":0,\"hosting\":0,\"service\":0}"},"geometry":{"type":"Point","coordinates":[-75.97799,36.85293]}},{"type":"Feature","properties":{"country_code":"RUS","city":"Ufa","geoname_id":"479561","downloaders":"{\"size\":1740,\"mobile\":126,\"satellite\":0,\"tor\":0,\"tor_exit_nodes\":0,\"vpn\":5,\"relay\":0,\"proxy\":0,\"hosting\":0,\"service\":2}","uploaders":"{\"size\":290,\"mobile\":16,\"satellite\":0,\"tor\":0,\"tor_exit_nodes\":0,\"vpn\":0,\"relay\":0,\"proxy\":0,\"hosting\":0,\"service\":0}"},"geometry":{"type":"Point","coordinates":[55.96779,54.74306]}},{"type":"Feature","properties":{"country_code":"DEU","city":"Munich","geoname_id":"2867714","downloaders":"{\"size\":1721,\"mobile\":53,\"satellite\":0,\"tor\":0,\"tor_exit_nodes\":0,\"vpn\":0,\"relay\":0,\"proxy\":0,\"hosting\":505,\"service\":0}","uploaders":"{\"size\":60,\"mobile\":3,\"satellite\":0,\"tor\":0,\"tor_exit_nodes\":0,\"vpn\":0,\"relay\":0,\"proxy\":0,\"hosting\":3,\"service\":0}"},"geometry":{"type":"Point","coordinates":[11.57549,48.13743]}},{"type":"Feature","properties":{"country_code":"GBR","city":"Ipswich","geoname_id":"2646057","downloaders":"{\"size\":1705,\"mobile\":78,\"satellite\":0,\"tor\":0,\"tor_exit_nodes\":0,\"vpn\":0,\"relay\":0,\"proxy\":0,\"hosting\":0,\"service\":0}","uploaders":"{\"size\":359,\"mobile\":10,\"satellite\":0,\"tor\":0,\"tor_exit_nodes\":0,\"vpn\":0,\"relay\":0,\"proxy\":0,\"hosting\":0,\"service\":0}"},"geometry":{"type":"Point","coordinates":[1.15545,52.05917]}},{"type":"Feature","properties":{"country_code":"PRT","city":"Lisbon","geoname_id":"2267057","downloaders":"{\"size\":1646,\"mobile\":400,\"satellite\":0,\"tor\":0,\"tor_exit_nodes\":0,\"vpn\":194,\"relay\":0,\"proxy\":0,\"hosting\":287,\"service\":189}","uploaders":"{\"size\":830,\"mobile\":159,\"satellite\":0,\"tor\":0,\"tor_exit_nodes\":0,\"vpn\":63,\"relay\":0,\"proxy\":0,\"hosting\":81,\"service\":60}"},"geometry":{"type":"Point","coordinates":[-9.1498,38.72509]}},{"type":"Feature","properties":{"country_code":"RUS","city":"Tolyatti","geoname_id":"482283","downloaders":"{\"size\":1635,\"mobile\":2,\"satellite\":0,\"tor\":0,\"tor_exit_nodes\":0,\"vpn\":6,\"relay\":0,\"proxy\":0,\"hosting\":0,\"service\":0}","uploaders":"{\"size\":374,\"mobile\":1,\"satellite\":0,\"tor\":0,\"tor_exit_nodes\":0,\"vpn\":1,\"relay\":0,\"proxy\":0,\"hosting\":0,\"service\":0}"},"geometry":{"type":"Point","coordinates":[49.3461,53.5303]}},{"type":"Feature","properties":{"country_code":"SWE","city":"Göteborg","geoname_id":"2711537","downloaders":"{\"size\":1587,\"mobile\":391,\"satellite\":0,\"tor\":0,\"tor_exit_nodes\":0,\"vpn\":112,\"relay\":0,\"proxy\":0,\"hosting\":133,\"service\":112}","uploaders":"{\"size\":383,\"mobile\":95,\"satellite\":0,\"tor\":0,\"tor_exit_nodes\":0,\"vpn\":29,\"relay\":0,\"proxy\":0,\"hosting\":30,\"service\":29}"},"geometry":{"type":"Point","coordinates":[11.96679,57.70716]}},{"type":"Feature","properties":{"country_code":"EST","city":"Tallinn","geoname_id":"588409","downloaders":"{\"size\":1580,\"mobile\":210,\"satellite\":0,\"tor\":0,\"tor_exit_nodes\":0,\"vpn\":36,\"relay\":0,\"proxy\":0,\"hosting\":482,\"service\":21}","uploaders":"{\"size\":578,\"mobile\":69,\"satellite\":0,\"tor\":0,\"tor_exit_nodes\":0,\"vpn\":15,\"relay\":0,\"proxy\":0,\"hosting\":194,\"service\":9}"},"geometry":{"type":"Point","coordinates":[24.75353,59.43696]}},{"type":"Feature","properties":{"country_code":"CHN","city":"Qingdao","geoname_id":"1797929","downloaders":"{\"size\":1565,\"mobile\":0,\"satellite\":0,\"tor\":0,\"tor_exit_nodes\":0,\"vpn\":3,\"relay\":0,\"proxy\":0,\"hosting\":2,\"service\":0}","uploaders":"{\"size\":70,\"mobile\":0,\"satellite\":0,\"tor\":0,\"tor_exit_nodes\":0,\"vpn\":1,\"relay\":0,\"proxy\":0,\"hosting\":0,\"service\":0}"},"geometry":{"type":"Point","coordinates":[120.38042,36.06488]}},{"type":"Feature","properties":{"country_code":"COL","city":"Bogotá","geoname_id":"3688689","downloaders":"{\"size\":1559,\"mobile\":344,\"satellite\":0,\"tor\":0,\"tor_exit_nodes\":0,\"vpn\":18,\"relay\":0,\"proxy\":0,\"hosting\":57,\"service\":16}","uploaders":"{\"size\":320,\"mobile\":49,\"satellite\":0,\"tor\":0,\"tor_exit_nodes\":0,\"vpn\":5,\"relay\":0,\"proxy\":0,\"hosting\":14,\"service\":5}"},"geometry":{"type":"Point","coordinates":[-74.08175,4.60971]}},{"type":"Feature","properties":{"country_code":"RUS","city":"Khimki","geoname_id":"550280","downloaders":"{\"size\":1554,\"mobile\":2,\"satellite\":1,\"tor\":0,\"tor_exit_nodes\":0,\"vpn\":89,\"relay\":0,\"proxy\":1,\"hosting\":363,\"service\":28}","uploaders":"{\"size\":230,\"mobile\":1,\"satellite\":0,\"tor\":0,\"tor_exit_nodes\":0,\"vpn\":12,\"relay\":0,\"proxy\":1,\"hosting\":48,\"service\":6}"},"geometry":{"type":"Point","coordinates":[37.42848,55.9001]}},{"type":"Feature","properties":{"country_code":"VEN","city":"Caracas","geoname_id":"3646738","downloaders":"{\"size\":1543,\"mobile\":385,\"satellite\":0,\"tor\":0,\"tor_exit_nodes\":0,\"vpn\":1,\"relay\":0,\"proxy\":0,\"hosting\":0,\"service\":0}","uploaders":"{\"size\":441,\"mobile\":30,\"satellite\":0,\"tor\":0,\"tor_exit_nodes\":0,\"vpn\":0,\"relay\":0,\"proxy\":0,\"hosting\":0,\"service\":0}"},"geometry":{"type":"Point","coordinates":[-66.87919,10.48801]}},{"type":"Feature","properties":{"country_code":"PHL","city":"Quezon City","geoname_id":"1692192","downloaders":"{\"size\":1526,\"mobile\":680,\"satellite\":0,\"tor\":0,\"tor_exit_nodes\":0,\"vpn\":5,\"relay\":0,\"proxy\":0,\"hosting\":35,\"service\":4}","uploaders":"{\"size\":365,\"mobile\":214,\"satellite\":0,\"tor\":0,\"tor_exit_nodes\":0,\"vpn\":0,\"relay\":0,\"proxy\":0,\"hosting\":0,\"service\":0}"},"geometry":{"type":"Point","coordinates":[121.0509,14.6488]}},{"type":"Feature","properties":{"country_code":"MAR","city":"Casablanca","geoname_id":"2553604","downloaders":"{\"size\":1522,\"mobile\":550,\"satellite\":0,\"tor\":0,\"tor_exit_nodes\":0,\"vpn\":0,\"relay\":0,\"proxy\":0,\"hosting\":0,\"service\":0}","uploaders":"{\"size\":189,\"mobile\":34,\"satellite\":0,\"tor\":0,\"tor_exit_nodes\":0,\"vpn\":0,\"relay\":0,\"proxy\":0,\"hosting\":0,\"service\":0}"},"geometry":{"type":"Point","coordinates":[-7.61138,33.58831]}},{"type":"Feature","properties":{"country_code":"USA","city":"Las Vegas","geoname_id":"5506956","downloaders":"{\"size\":1513,\"mobile\":50,\"satellite\":0,\"tor\":3,\"tor_exit_nodes\":3,\"vpn\":611,\"relay\":0,\"proxy\":0,\"hosting\":975,\"service\":590}","uploaders":"{\"size\":237,\"mobile\":13,\"satellite\":0,\"tor\":1,\"tor_exit_nodes\":1,\"vpn\":125,\"relay\":0,\"proxy\":0,\"hosting\":184,\"service\":122}"},"geometry":{"type":"Point","coordinates":[-115.13722,36.17497]}},{"type":"Feature","properties":{"country_code":"USA","city":"Cincinnati","geoname_id":"4508722","downloaders":"{\"size\":1510,\"mobile\":1,\"satellite\":0,\"tor\":0,\"tor_exit_nodes\":0,\"vpn\":0,\"relay\":0,\"proxy\":0,\"hosting\":1,\"service\":0}","uploaders":"{\"size\":13,\"mobile\":0,\"satellite\":0,\"tor\":0,\"tor_exit_nodes\":0,\"vpn\":0,\"relay\":0,\"proxy\":0,\"hosting\":1,\"service\":0}"},"geometry":{"type":"Point","coordinates":[-84.51439,39.12711]}},{"type":"Feature","properties":{"country_code":"RUS","city":"Perm","geoname_id":"511196","downloaders":"{\"size\":1503,\"mobile\":62,\"satellite\":0,\"tor\":0,\"tor_exit_nodes\":0,\"vpn\":8,\"relay\":0,\"proxy\":0,\"hosting\":1,\"service\":0}","uploaders":"{\"size\":412,\"mobile\":17,\"satellite\":0,\"tor\":0,\"tor_exit_nodes\":0,\"vpn\":2,\"relay\":0,\"proxy\":0,\"hosting\":0,\"service\":0}"},"geometry":{"type":"Point","coordinates":[56.25017,58.01046]}},{"type":"Feature","properties":{"country_code":"USA","city":"Charlotte","geoname_id":"4460243","downloaders":"{\"size\":1495,\"mobile\":108,\"satellite\":0,\"tor\":0,\"tor_exit_nodes\":0,\"vpn\":146,\"relay\":0,\"proxy\":0,\"hosting\":221,\"service\":146}","uploaders":"{\"size\":119,\"mobile\":20,\"satellite\":0,\"tor\":0,\"tor_exit_nodes\":0,\"vpn\":64,\"relay\":0,\"proxy\":0,\"hosting\":75,\"service\":64}"},"geometry":{"type":"Point","coordinates":[-80.8964,35.2358]}},{"type":"Feature","properties":{"country_code":"TWN","city":"Banqiao","geoname_id":"1670029","downloaders":"{\"size\":1486,\"mobile\":90,\"satellite\":0,\"tor\":0,\"tor_exit_nodes\":0,\"vpn\":7,\"relay\":0,\"proxy\":0,\"hosting\":6,\"service\":0}","uploaders":"{\"size\":172,\"mobile\":0,\"satellite\":0,\"tor\":0,\"tor_exit_nodes\":0,\"vpn\":2,\"relay\":0,\"proxy\":0,\"hosting\":2,\"service\":0}"},"geometry":{"type":"Point","coordinates":[121.46719,25.01427]}},{"type":"Feature","properties":{"country_code":"CAN","city":"Calgary","geoname_id":"5913490","downloaders":"{\"size\":1457,\"mobile\":364,\"satellite\":0,\"tor\":0,\"tor_exit_nodes\":0,\"vpn\":5,\"relay\":0,\"proxy\":0,\"hosting\":150,\"service\":0}","uploaders":"{\"size\":320,\"mobile\":115,\"satellite\":0,\"tor\":0,\"tor_exit_nodes\":0,\"vpn\":1,\"relay\":0,\"proxy\":0,\"hosting\":2,\"service\":0}"},"geometry":{"type":"Point","coordinates":[-114.08529,51.05011]}},{"type":"Feature","properties":{"country_code":"RUS","city":"Chelyabinsk","geoname_id":"1508291","downloaders":"{\"size\":1456,\"mobile\":198,\"satellite\":0,\"tor\":0,\"tor_exit_nodes\":0,\"vpn\":8,\"relay\":0,\"proxy\":1,\"hosting\":1,\"service\":0}","uploaders":"{\"size\":317,\"mobile\":27,\"satellite\":0,\"tor\":0,\"tor_exit_nodes\":0,\"vpn\":0,\"relay\":0,\"proxy\":0,\"hosting\":1,\"service\":0}"},"geometry":{"type":"Point","coordinates":[61.42877,55.1611]}},{"type":"Feature","properties":{"country_code":"AUS","city":"Adelaide","geoname_id":"2078025","downloaders":"{\"size\":1452,\"mobile\":92,\"satellite\":0,\"tor\":0,\"tor_exit_nodes\":0,\"vpn\":144,\"relay\":0,\"proxy\":0,\"hosting\":200,\"service\":126}","uploaders":"{\"size\":755,\"mobile\":37,\"satellite\":0,\"tor\":0,\"tor_exit_nodes\":0,\"vpn\":64,\"relay\":0,\"proxy\":0,\"hosting\":79,\"service\":57}"},"geometry":{"type":"Point","coordinates":[138.59863000000001,-34.92866]}},{"type":"Feature","properties":{"country_code":"ISR","city":"Tel Aviv","geoname_id":"293397","downloaders":"{\"size\":1446,\"mobile\":152,\"satellite\":0,\"tor\":0,\"tor_exit_nodes\":0,\"vpn\":33,\"relay\":0,\"proxy\":2,\"hosting\":585,\"service\":5}","uploaders":"{\"size\":376,\"mobile\":22,\"satellite\":0,\"tor\":0,\"tor_exit_nodes\":0,\"vpn\":9,\"relay\":0,\"proxy\":0,\"hosting\":54,\"service\":0}"},"geometry":{"type":"Point","coordinates":[34.78057,32.08088]}},{"type":"Feature","properties":{"country_code":"CHN","city":"Hangzhou","geoname_id":"1808926","downloaders":"{\"size\":1444,\"mobile\":0,\"satellite\":0,\"tor\":0,\"tor_exit_nodes\":0,\"vpn\":14,\"relay\":0,\"proxy\":0,\"hosting\":805,\"service\":0}","uploaders":"{\"size\":78,\"mobile\":0,\"satellite\":0,\"tor\":0,\"tor_exit_nodes\":0,\"vpn\":0,\"relay\":0,\"proxy\":0,\"hosting\":8,\"service\":0}"},"geometry":{"type":"Point","coordinates":[120.16142,30.29365]}},{"type":"Feature","properties":{"country_code":"IRN","city":"Tehran","geoname_id":"112931","downloaders":"{\"size\":1395,\"mobile\":514,\"satellite\":0,\"tor\":0,\"tor_exit_nodes\":0,\"vpn\":4,\"relay\":0,\"proxy\":0,\"hosting\":89,\"service\":0}","uploaders":"{\"size\":136,\"mobile\":24,\"satellite\":0,\"tor\":0,\"tor_exit_nodes\":0,\"vpn\":4,\"relay\":0,\"proxy\":0,\"hosting\":3,\"service\":0}"},"geometry":{"type":"Point","coordinates":[51.42151,35.69439]}},{"type":"Feature","properties":{"country_code":"USA","city":"Boston","geoname_id":"4930956","downloaders":"{\"size\":1389,\"mobile\":55,\"satellite\":0,\"tor\":0,\"tor_exit_nodes\":0,\"vpn\":60,\"relay\":0,\"proxy\":0,\"hosting\":232,\"service\":56}","uploaders":"{\"size\":108,\"mobile\":15,\"satellite\":0,\"tor\":0,\"tor_exit_nodes\":0,\"vpn\":21,\"relay\":0,\"proxy\":0,\"hosting\":29,\"service\":21}"},"geometry":{"type":"Point","coordinates":[-71.05977,42.35843]}},{"type":"Feature","properties":{"country_code":"RUS","city":"Kazan","geoname_id":"551487","downloaders":"{\"size\":1381,\"mobile\":180,\"satellite\":0,\"tor\":0,\"tor_exit_nodes\":0,\"vpn\":8,\"relay\":0,\"proxy\":0,\"hosting\":4,\"service\":0}","uploaders":"{\"size\":325,\"mobile\":43,\"satellite\":0,\"tor\":0,\"tor_exit_nodes\":0,\"vpn\":1,\"relay\":0,\"proxy\":0,\"hosting\":0,\"service\":0}"},"geometry":{"type":"Point","coordinates":[49.12214,55.78874]}},{"type":"Feature","properties":{"country_code":"RUS","city":"Omsk","geoname_id":"1496153","downloaders":"{\"size\":1379,\"mobile\":30,\"satellite\":0,\"tor\":0,\"tor_exit_nodes\":0,\"vpn\":7,\"relay\":0,\"proxy\":0,\"hosting\":0,\"service\":0}","uploaders":"{\"size\":331,\"mobile\":1,\"satellite\":0,\"tor\":0,\"tor_exit_nodes\":0,\"vpn\":2,\"relay\":0,\"proxy\":0,\"hosting\":0,\"service\":0}"},"geometry":{"type":"Point","coordinates":[73.36859,54.99244]}},{"type":"Feature","properties":{"country_code":"USA","city":"Armonk","geoname_id":"5107346","downloaders":"{\"size\":1376,\"mobile\":0,\"satellite\":0,\"tor\":0,\"tor_exit_nodes\":0,\"vpn\":0,\"relay\":0,\"proxy\":0,\"hosting\":155,\"service\":0}","uploaders":"{\"size\":999,\"mobile\":0,\"satellite\":0,\"tor\":0,\"tor_exit_nodes\":0,\"vpn\":0,\"relay\":0,\"proxy\":0,\"hosting\":47,\"service\":0}"},"geometry":{"type":"Point","coordinates":[-73.71402,41.12648]}},{"type":"Feature","properties":{"country_code":"NLD","city":"Rotterdam","geoname_id":"2747891","downloaders":"{\"size\":1373,\"mobile\":46,\"satellite\":0,\"tor\":0,\"tor_exit_nodes\":0,\"vpn\":42,\"relay\":0,\"proxy\":0,\"hosting\":362,\"service\":40}","uploaders":"{\"size\":418,\"mobile\":14,\"satellite\":0,\"tor\":0,\"tor_exit_nodes\":0,\"vpn\":11,\"relay\":0,\"proxy\":0,\"hosting\":211,\"service\":9}"},"geometry":{"type":"Point","coordinates":[4.47917,51.9225]}},{"type":"Feature","properties":{"country_code":"USA","city":"San Diego","geoname_id":"5391811","downloaders":"{\"size\":1369,\"mobile\":16,\"satellite\":0,\"tor\":0,\"tor_exit_nodes\":0,\"vpn\":50,\"relay\":0,\"proxy\":0,\"hosting\":212,\"service\":47}","uploaders":"{\"size\":66,\"mobile\":5,\"satellite\":0,\"tor\":0,\"tor_exit_nodes\":0,\"vpn\":1,\"relay\":0,\"proxy\":0,\"hosting\":1,\"service\":1}"},"geometry":{"type":"Point","coordinates":[-117.16472,32.71571]}},{"type":"Feature","properties":{"country_code":"GBR","city":"Manchester","geoname_id":"2643123","downloaders":"{\"size\":1366,\"mobile\":133,\"satellite\":0,\"tor\":0,\"tor_exit_nodes\":0,\"vpn\":312,\"relay\":0,\"proxy\":0,\"hosting\":681,\"service\":303}","uploaders":"{\"size\":339,\"mobile\":44,\"satellite\":0,\"tor\":0,\"tor_exit_nodes\":0,\"vpn\":93,\"relay\":0,\"proxy\":0,\"hosting\":134,\"service\":91}"},"geometry":{"type":"Point","coordinates":[-2.23743,53.48095]}},{"type":"Feature","properties":{"country_code":"USA","city":"Portland","geoname_id":"5746545","downloaders":"{\"size\":1364,\"mobile\":24,\"satellite\":0,\"tor\":0,\"tor_exit_nodes\":1,\"vpn\":1,\"relay\":0,\"proxy\":0,\"hosting\":150,\"service\":1}","uploaders":"{\"size\":173,\"mobile\":5,\"satellite\":0,\"tor\":0,\"tor_exit_nodes\":0,\"vpn\":0,\"relay\":0,\"proxy\":0,\"hosting\":0,\"service\":0}"},"geometry":{"type":"Point","coordinates":[-122.67621,45.52345]}},{"type":"Feature","properties":{"country_code":"ZAF","city":"Centurion","geoname_id":"1105777","downloaders":"{\"size\":1359,\"mobile\":1324,\"satellite\":0,\"tor\":0,\"tor_exit_nodes\":0,\"vpn\":0,\"relay\":0,\"proxy\":0,\"hosting\":0,\"service\":0}","uploaders":"{\"size\":557,\"mobile\":555,\"satellite\":0,\"tor\":0,\"tor_exit_nodes\":0,\"vpn\":0,\"relay\":0,\"proxy\":0,\"hosting\":0,\"service\":0}"},"geometry":{"type":"Point","coordinates":[28.20559,-25.80489]}},{"type":"Feature","properties":{"country_code":"GRC","city":"Thessaloníki","geoname_id":"734077","downloaders":"{\"size\":1357,\"mobile\":20,\"satellite\":0,\"tor\":0,\"tor_exit_nodes\":0,\"vpn\":4,\"relay\":0,\"proxy\":0,\"hosting\":17,\"service\":2}","uploaders":"{\"size\":858,\"mobile\":5,\"satellite\":0,\"tor\":0,\"tor_exit_nodes\":0,\"vpn\":0,\"relay\":0,\"proxy\":0,\"hosting\":8,\"service\":0}"},"geometry":{"type":"Point","coordinates":[22.93493,40.64072]}},{"type":"Feature","properties":{"country_code":"CAN","city":"Willowdale","geoname_id":"8558534","downloaders":"{\"size\":1356,\"mobile\":297,\"satellite\":0,\"tor\":0,\"tor_exit_nodes\":0,\"vpn\":1,\"relay\":0,\"proxy\":0,\"hosting\":0,\"service\":0}","uploaders":"{\"size\":278,\"mobile\":49,\"satellite\":0,\"tor\":0,\"tor_exit_nodes\":0,\"vpn\":0,\"relay\":0,\"proxy\":0,\"hosting\":0,\"service\":0}"},"geometry":{"type":"Point","coordinates":[-79.39909,43.76672]}},{"type":"Feature","properties":{"country_code":"MKD","city":"Skopje","geoname_id":"785842","downloaders":"{\"size\":1340,\"mobile\":102,\"satellite\":0,\"tor\":0,\"tor_exit_nodes\":0,\"vpn\":14,\"relay\":0,\"proxy\":0,\"hosting\":46,\"service\":2}","uploaders":"{\"size\":504,\"mobile\":44,\"satellite\":0,\"tor\":0,\"tor_exit_nodes\":0,\"vpn\":4,\"relay\":0,\"proxy\":0,\"hosting\":1,\"service\":0}"},"geometry":{"type":"Point","coordinates":[21.43141,41.99646]}},{"type":"Feature","properties":{"country_code":"JPN","city":"Yokohama","geoname_id":"1848354","downloaders":"{\"size\":1330,\"mobile\":174,\"satellite\":0,\"tor\":0,\"tor_exit_nodes\":0,\"vpn\":6,\"relay\":0,\"proxy\":0,\"hosting\":26,\"service\":5}","uploaders":"{\"size\":55,\"mobile\":2,\"satellite\":0,\"tor\":0,\"tor_exit_nodes\":0,\"vpn\":0,\"relay\":0,\"proxy\":0,\"hosting\":0,\"service\":0}"},"geometry":{"type":"Point","coordinates":[139.65,35.43333]}},{"type":"Feature","properties":{"country_code":"USA","city":"Salt Lake City","geoname_id":"5780993","downloaders":"{\"size\":1312,\"mobile\":5,\"satellite\":0,\"tor\":0,\"tor_exit_nodes\":0,\"vpn\":71,\"relay\":0,\"proxy\":1,\"hosting\":384,\"service\":57}","uploaders":"{\"size\":230,\"mobile\":1,\"satellite\":0,\"tor\":0,\"tor_exit_nodes\":0,\"vpn\":28,\"relay\":0,\"proxy\":0,\"hosting\":160,\"service\":27}"},"geometry":{"type":"Point","coordinates":[-111.89105,40.76078]}},{"type":"Feature","properties":{"country_code":"RUS","city":"Tyumen","geoname_id":"1488754","downloaders":"{\"size\":1311,\"mobile\":158,\"satellite\":0,\"tor\":0,\"tor_exit_nodes\":0,\"vpn\":12,\"relay\":0,\"proxy\":0,\"hosting\":0,\"service\":0}","uploaders":"{\"size\":297,\"mobile\":46,\"satellite\":0,\"tor\":0,\"tor_exit_nodes\":0,\"vpn\":6,\"relay\":0,\"proxy\":0,\"hosting\":0,\"service\":0}"},"geometry":{"type":"Point","coordinates":[65.52722,57.15222]}},{"type":"Feature","properties":{"country_code":"ZAF","city":"Durban","geoname_id":"1007311","downloaders":"{\"size\":1302,\"mobile\":1078,\"satellite\":0,\"tor\":0,\"tor_exit_nodes\":0,\"vpn\":2,\"relay\":0,\"proxy\":0,\"hosting\":36,\"service\":0}","uploaders":"{\"size\":461,\"mobile\":365,\"satellite\":0,\"tor\":0,\"tor_exit_nodes\":0,\"vpn\":1,\"relay\":0,\"proxy\":0,\"hosting\":13,\"service\":0}"},"geometry":{"type":"Point","coordinates":[31.0292,-29.8579]}},{"type":"Feature","properties":{"country_code":"SRB","city":"Novi Sad","geoname_id":"3194360","downloaders":"{\"size\":1296,\"mobile\":43,\"satellite\":0,\"tor\":0,\"tor_exit_nodes\":0,\"vpn\":1,\"relay\":0,\"proxy\":0,\"hosting\":0,\"service\":0}","uploaders":"{\"size\":585,\"mobile\":15,\"satellite\":0,\"tor\":0,\"tor_exit_nodes\":0,\"vpn\":1,\"relay\":0,\"proxy\":0,\"hosting\":0,\"service\":0}"},"geometry":{"type":"Point","coordinates":[19.83694,45.25167]}},{"type":"Feature","properties":{"country_code":"CHN","city":"Zhengzhou","geoname_id":"1784658","downloaders":"{\"size\":1285,\"mobile\":0,\"satellite\":0,\"tor\":0,\"tor_exit_nodes\":0,\"vpn\":2,\"relay\":0,\"proxy\":0,\"hosting\":14,\"service\":0}","uploaders":"{\"size\":63,\"mobile\":0,\"satellite\":0,\"tor\":0,\"tor_exit_nodes\":0,\"vpn\":0,\"relay\":0,\"proxy\":0,\"hosting\":0,\"service\":0}"},"geometry":{"type":"Point","coordinates":[113.64861,34.75778]}},{"type":"Feature","properties":{"country_code":"NGA","city":"Lagos","geoname_id":"2332459","downloaders":"{\"size\":1281,\"mobile\":532,\"satellite\":0,\"tor\":0,\"tor_exit_nodes\":0,\"vpn\":42,\"relay\":0,\"proxy\":0,\"hosting\":95,\"service\":36}","uploaders":"{\"size\":361,\"mobile\":169,\"satellite\":0,\"tor\":0,\"tor_exit_nodes\":0,\"vpn\":13,\"relay\":0,\"proxy\":0,\"hosting\":46,\"service\":11}"},"geometry":{"type":"Point","coordinates":[3.39467,6.45407]}},{"type":"Feature","properties":{"country_code":"TUN","city":"Tunis","geoname_id":"2464470","downloaders":"{\"size\":1272,\"mobile\":367,\"satellite\":0,\"tor\":0,\"tor_exit_nodes\":0,\"vpn\":0,\"relay\":0,\"proxy\":0,\"hosting\":3,\"service\":0}","uploaders":"{\"size\":358,\"mobile\":1,\"satellite\":0,\"tor\":0,\"tor_exit_nodes\":0,\"vpn\":0,\"relay\":0,\"proxy\":0,\"hosting\":0,\"service\":0}"},"geometry":{"type":"Point","coordinates":[10.16579,36.81897]}},{"type":"Feature","properties":{"country_code":"CHN","city":"Ningbo","geoname_id":"1799397","downloaders":"{\"size\":1253,\"mobile\":0,\"satellite\":0,\"tor\":0,\"tor_exit_nodes\":0,\"vpn\":1,\"relay\":0,\"proxy\":0,\"hosting\":0,\"service\":0}","uploaders":"{\"size\":56,\"mobile\":0,\"satellite\":0,\"tor\":0,\"tor_exit_nodes\":0,\"vpn\":0,\"relay\":0,\"proxy\":0,\"hosting\":0,\"service\":0}"},"geometry":{"type":"Point","coordinates":[121.54945,29.87819]}},{"type":"Feature","properties":{"country_code":"CHN","city":"Chengdu","geoname_id":"1815286","downloaders":"{\"size\":1249,\"mobile\":0,\"satellite\":0,\"tor\":0,\"tor_exit_nodes\":0,\"vpn\":5,\"relay\":0,\"proxy\":0,\"hosting\":74,\"service\":0}","uploaders":"{\"size\":70,\"mobile\":0,\"satellite\":0,\"tor\":0,\"tor_exit_nodes\":0,\"vpn\":1,\"relay\":0,\"proxy\":0,\"hosting\":1,\"service\":0}"},"geometry":{"type":"Point","coordinates":[104.06667,30.66667]}},{"type":"Feature","properties":{"country_code":"BGD","city":"Dhaka","geoname_id":"1185241","downloaders":"{\"size\":1230,\"mobile\":78,\"satellite\":0,\"tor\":0,\"tor_exit_nodes\":0,\"vpn\":18,\"relay\":0,\"proxy\":2,\"hosting\":23,\"service\":3}","uploaders":"{\"size\":430,\"mobile\":38,\"satellite\":0,\"tor\":0,\"tor_exit_nodes\":0,\"vpn\":5,\"relay\":0,\"proxy\":0,\"hosting\":4,\"service\":1}"},"geometry":{"type":"Point","coordinates":[90.40744,23.7104]}},{"type":"Feature","properties":{"country_code":"FRA","city":"Saint-Denis","geoname_id":"2980916","downloaders":"{\"size\":1215,\"mobile\":16,\"satellite\":0,\"tor\":0,\"tor_exit_nodes\":0,\"vpn\":975,\"relay\":0,\"proxy\":12,\"hosting\":1121,\"service\":975}","uploaders":"{\"size\":521,\"mobile\":9,\"satellite\":0,\"tor\":0,\"tor_exit_nodes\":0,\"vpn\":471,\"relay\":0,\"proxy\":5,\"hosting\":505,\"service\":471}"},"geometry":{"type":"Point","coordinates":[2.35387,48.93564]}},{"type":"Feature","properties":{"country_code":"USA","city":"Kansas City","geoname_id":"4393217","downloaders":"{\"size\":1213,\"mobile\":0,\"satellite\":0,\"tor\":0,\"tor_exit_nodes\":0,\"vpn\":140,\"relay\":0,\"proxy\":0,\"hosting\":478,\"service\":139}","uploaders":"{\"size\":68,\"mobile\":0,\"satellite\":0,\"tor\":0,\"tor_exit_nodes\":0,\"vpn\":45,\"relay\":0,\"proxy\":0,\"hosting\":58,\"service\":45}"},"geometry":{"type":"Point","coordinates":[-94.5743,39.2133]}},{"type":"Feature","properties":{"country_code":"RUS","city":"Kaliningrad","geoname_id":"554234","downloaders":"{\"size\":1213,\"mobile\":33,\"satellite\":0,\"tor\":0,\"tor_exit_nodes\":0,\"vpn\":4,\"relay\":0,\"proxy\":0,\"hosting\":0,\"service\":0}","uploaders":"{\"size\":457,\"mobile\":0,\"satellite\":0,\"tor\":0,\"tor_exit_nodes\":0,\"vpn\":2,\"relay\":0,\"proxy\":0,\"hosting\":0,\"service\":0}"},"geometry":{"type":"Point","coordinates":[20.51102,54.70639]}},{"type":"Feature","properties":{"country_code":"ITA","city":"Turin","geoname_id":"3165524","downloaders":"{\"size\":1208,\"mobile\":180,\"satellite\":0,\"tor\":0,\"tor_exit_nodes\":0,\"vpn\":22,\"relay\":0,\"proxy\":0,\"hosting\":75,\"service\":19}","uploaders":"{\"size\":127,\"mobile\":55,\"satellite\":0,\"tor\":0,\"tor_exit_nodes\":0,\"vpn\":1,\"relay\":0,\"proxy\":0,\"hosting\":1,\"service\":0}"},"geometry":{"type":"Point","coordinates":[7.68682,45.07049]}},{"type":"Feature","properties":{"country_code":"RUS","city":"Volgograd","geoname_id":"472757","downloaders":"{\"size\":1189,\"mobile\":397,\"satellite\":0,\"tor\":0,\"tor_exit_nodes\":0,\"vpn\":0,\"relay\":0,\"proxy\":0,\"hosting\":0,\"service\":0}","uploaders":"{\"size\":297,\"mobile\":40,\"satellite\":0,\"tor\":0,\"tor_exit_nodes\":0,\"vpn\":0,\"relay\":0,\"proxy\":0,\"hosting\":0,\"service\":0}"},"geometry":{"type":"Point","coordinates":[44.4976,48.71378]}},{"type":"Feature","properties":{"country_code":"IND","city":"Delhi","geoname_id":"1273294","downloaders":"{\"size\":1185,\"mobile\":144,\"satellite\":0,\"tor\":0,\"tor_exit_nodes\":0,\"vpn\":0,\"relay\":0,\"proxy\":0,\"hosting\":146,\"service\":0}","uploaders":"{\"size\":328,\"mobile\":39,\"satellite\":0,\"tor\":0,\"tor_exit_nodes\":0,\"vpn\":0,\"relay\":0,\"proxy\":0,\"hosting\":0,\"service\":0}"},"geometry":{"type":"Point","coordinates":[77.23149,28.65195]}},{"type":"Feature","properties":{"country_code":"RUS","city":"Krasnoyarsk","geoname_id":"1502026","downloaders":"{\"size\":1184,\"mobile\":26,\"satellite\":0,\"tor\":0,\"tor_exit_nodes\":0,\"vpn\":20,\"relay\":0,\"proxy\":1,\"hosting\":1,\"service\":5}","uploaders":"{\"size\":231,\"mobile\":3,\"satellite\":0,\"tor\":0,\"tor_exit_nodes\":0,\"vpn\":2,\"relay\":0,\"proxy\":0,\"hosting\":0,\"service\":2}"},"geometry":{"type":"Point","coordinates":[92.93136,56.03742]}},{"type":"Feature","properties":{"country_code":"KAZ","city":"Almaty","geoname_id":"1526384","downloaders":"{\"size\":1184,\"mobile\":323,\"satellite\":0,\"tor\":0,\"tor_exit_nodes\":0,\"vpn\":2,\"relay\":0,\"proxy\":6,\"hosting\":47,\"service\":0}","uploaders":"{\"size\":443,\"mobile\":144,\"satellite\":0,\"tor\":0,\"tor_exit_nodes\":0,\"vpn\":1,\"relay\":0,\"proxy\":2,\"hosting\":11,\"service\":0}"},"geometry":{"type":"Point","coordinates":[76.9115,43.25249]}},{"type":"Feature","properties":{"country_code":"CHN","city":"Shenyang","geoname_id":"2034937","downloaders":"{\"size\":1167,\"mobile\":0,\"satellite\":0,\"tor\":0,\"tor_exit_nodes\":0,\"vpn\":0,\"relay\":0,\"proxy\":0,\"hosting\":0,\"service\":0}","uploaders":"{\"size\":31,\"mobile\":0,\"satellite\":0,\"tor\":0,\"tor_exit_nodes\":0,\"vpn\":0,\"relay\":0,\"proxy\":0,\"hosting\":0,\"service\":0}"},"geometry":{"type":"Point","coordinates":[123.43278,41.79222]}},{"type":"Feature","properties":{"country_code":"RUS","city":"Saratov","geoname_id":"498677","downloaders":"{\"size\":1165,\"mobile\":75,\"satellite\":0,\"tor\":0,\"tor_exit_nodes\":0,\"vpn\":6,\"relay\":0,\"proxy\":0,\"hosting\":6,\"service\":0}","uploaders":"{\"size\":263,\"mobile\":11,\"satellite\":0,\"tor\":0,\"tor_exit_nodes\":0,\"vpn\":4,\"relay\":0,\"proxy\":0,\"hosting\":2,\"service\":0}"},"geometry":{"type":"Point","coordinates":[45.9901,51.54048]}},{"type":"Feature","properties":{"country_code":"KOR","city":"Incheon","geoname_id":"1843564","downloaders":"{\"size\":1157,\"mobile\":0,\"satellite\":0,\"tor\":0,\"tor_exit_nodes\":0,\"vpn\":3,\"relay\":0,\"proxy\":0,\"hosting\":412,\"service\":1}","uploaders":"{\"size\":62,\"mobile\":0,\"satellite\":0,\"tor\":0,\"tor_exit_nodes\":0,\"vpn\":0,\"relay\":0,\"proxy\":0,\"hosting\":0,\"service\":0}"},"geometry":{"type":"Point","coordinates":[126.70515,37.45646]}},{"type":"Feature","properties":{"country_code":"USA","city":"Lyndhurst","geoname_id":"5100706","downloaders":"{\"size\":1154,\"mobile\":0,\"satellite\":0,\"tor\":0,\"tor_exit_nodes\":0,\"vpn\":0,\"relay\":0,\"proxy\":0,\"hosting\":1128,\"service\":0}","uploaders":"{\"size\":83,\"mobile\":0,\"satellite\":0,\"tor\":0,\"tor_exit_nodes\":0,\"vpn\":0,\"relay\":0,\"proxy\":0,\"hosting\":83,\"service\":0}"},"geometry":{"type":"Point","coordinates":[-74.12431,40.81204]}},{"type":"Feature","properties":{"country_code":"DEU","city":"Hamburg","geoname_id":"2911298","downloaders":"{\"size\":1148,\"mobile\":89,\"satellite\":0,\"tor\":0,\"tor_exit_nodes\":0,\"vpn\":0,\"relay\":0,\"proxy\":0,\"hosting\":97,\"service\":0}","uploaders":"{\"size\":32,\"mobile\":5,\"satellite\":0,\"tor\":0,\"tor_exit_nodes\":0,\"vpn\":0,\"relay\":0,\"proxy\":0,\"hosting\":0,\"service\":0}"},"geometry":{"type":"Point","coordinates":[9.99302,53.55073]}},{"type":"Feature","properties":{"country_code":"LTU","city":"Vilnius","geoname_id":"593116","downloaders":"{\"size\":1108,\"mobile\":123,\"satellite\":0,\"tor\":0,\"tor_exit_nodes\":0,\"vpn\":20,\"relay\":0,\"proxy\":1,\"hosting\":205,\"service\":6}","uploaders":"{\"size\":400,\"mobile\":82,\"satellite\":0,\"tor\":0,\"tor_exit_nodes\":0,\"vpn\":2,\"relay\":0,\"proxy\":0,\"hosting\":31,\"service\":0}"},"geometry":{"type":"Point","coordinates":[25.2798,54.68916]}},{"type":"Feature","properties":{"country_code":"CHN","city":"Wuhan","geoname_id":"1791247","downloaders":"{\"size\":1107,\"mobile\":0,\"satellite\":0,\"tor\":0,\"tor_exit_nodes\":0,\"vpn\":2,\"relay\":0,\"proxy\":0,\"hosting\":0,\"service\":0}","uploaders":"{\"size\":26,\"mobile\":0,\"satellite\":0,\"tor\":0,\"tor_exit_nodes\":0,\"vpn\":0,\"relay\":0,\"proxy\":0,\"hosting\":0,\"service\":0}"},"geometry":{"type":"Point","coordinates":[114.26667,30.58333]}},{"type":"Feature","properties":{"country_code":"RUS","city":"Yaroslavl","geoname_id":"468902","downloaders":"{\"size\":1077,\"mobile\":100,\"satellite\":0,\"tor\":0,\"tor_exit_nodes\":0,\"vpn\":9,\"relay\":0,\"proxy\":0,\"hosting\":0,\"service\":0}","uploaders":"{\"size\":303,\"mobile\":18,\"satellite\":0,\"tor\":0,\"tor_exit_nodes\":0,\"vpn\":0,\"relay\":0,\"proxy\":0,\"hosting\":0,\"service\":0}"},"geometry":{"type":"Point","coordinates":[39.87368,57.62987]}},{"type":"Feature","properties":{"country_code":"BRA","city":"Brasília","geoname_id":"3469058","downloaders":"{\"size\":1074,\"mobile\":82,\"satellite\":0,\"tor\":0,\"tor_exit_nodes\":0,\"vpn\":3,\"relay\":0,\"proxy\":0,\"hosting\":5,\"service\":0}","uploaders":"{\"size\":251,\"mobile\":14,\"satellite\":0,\"tor\":0,\"tor_exit_nodes\":0,\"vpn\":1,\"relay\":0,\"proxy\":0,\"hosting\":0,\"service\":0}"},"geometry":{"type":"Point","coordinates":[-47.92972,-15.77972]}},{"type":"Feature","properties":{"country_code":"CAN","city":"Saint-Eustache","geoname_id":"6138175","downloaders":"{\"size\":1071,\"mobile\":97,\"satellite\":0,\"tor\":0,\"tor_exit_nodes\":0,\"vpn\":2,\"relay\":0,\"proxy\":0,\"hosting\":0,\"service\":0}","uploaders":"{\"size\":180,\"mobile\":16,\"satellite\":0,\"tor\":0,\"tor_exit_nodes\":0,\"vpn\":0,\"relay\":0,\"proxy\":0,\"hosting\":0,\"service\":0}"},"geometry":{"type":"Point","coordinates":[-73.90554,45.565]}},{"type":"Feature","properties":{"country_code":"USA","city":"San Antonio","geoname_id":"4726206","downloaders":"{\"size\":1067,\"mobile\":37,\"satellite\":0,\"tor\":0,\"tor_exit_nodes\":0,\"vpn\":2,\"relay\":0,\"proxy\":0,\"hosting\":438,\"service\":0}","uploaders":"{\"size\":41,\"mobile\":1,\"satellite\":0,\"tor\":0,\"tor_exit_nodes\":0,\"vpn\":0,\"relay\":0,\"proxy\":0,\"hosting\":13,\"service\":0}"},"geometry":{"type":"Point","coordinates":[-98.5273,29.5234]}},{"type":"Feature","properties":{"country_code":"GRC","city":"Piraeus","geoname_id":"255274","downloaders":"{\"size\":1060,\"mobile\":8,\"satellite\":0,\"tor\":0,\"tor_exit_nodes\":0,\"vpn\":2,\"relay\":0,\"proxy\":0,\"hosting\":0,\"service\":0}","uploaders":"{\"size\":614,\"mobile\":5,\"satellite\":0,\"tor\":0,\"tor_exit_nodes\":0,\"vpn\":1,\"relay\":0,\"proxy\":0,\"hosting\":0,\"service\":0}"},"geometry":{"type":"Point","coordinates":[23.64619,37.94203]}},{"type":"Feature","properties":{"country_code":"USA","city":"Stanton","geoname_id":"5398630","downloaders":"{\"size\":1035,\"mobile\":0,\"satellite\":0,\"tor\":0,\"tor_exit_nodes\":0,\"vpn\":0,\"relay\":0,\"proxy\":0,\"hosting\":0,\"service\":0}","uploaders":"{\"size\":29,\"mobile\":0,\"satellite\":0,\"tor\":0,\"tor_exit_nodes\":0,\"vpn\":0,\"relay\":0,\"proxy\":0,\"hosting\":0,\"service\":0}"},"geometry":{"type":"Point","coordinates":[-117.99312,33.80252]}},{"type":"Feature","properties":{"country_code":"UKR","city":"Odesa","geoname_id":"698740","downloaders":"{\"size\":1033,\"mobile\":34,\"satellite\":0,\"tor\":0,\"tor_exit_nodes\":0,\"vpn\":19,\"relay\":0,\"proxy\":0,\"hosting\":3,\"service\":4}","uploaders":"{\"size\":531,\"mobile\":7,\"satellite\":0,\"tor\":0,\"tor_exit_nodes\":0,\"vpn\":7,\"relay\":0,\"proxy\":0,\"hosting\":1,\"service\":0}"},"geometry":{"type":"Point","coordinates":[30.74383,46.48572]}},{"type":"Feature","properties":{"country_code":"SWE","city":"Malmö","geoname_id":"2692969","downloaders":"{\"size\":1027,\"mobile\":60,\"satellite\":0,\"tor\":0,\"tor_exit_nodes\":0,\"vpn\":318,\"relay\":0,\"proxy\":0,\"hosting\":342,\"service\":317}","uploaders":"{\"size\":336,\"mobile\":41,\"satellite\":0,\"tor\":0,\"tor_exit_nodes\":0,\"vpn\":68,\"relay\":0,\"proxy\":0,\"hosting\":70,\"service\":68}"},"geometry":{"type":"Point","coordinates":[13.00073,55.60587]}},{"type":"Feature","properties":{"country_code":"CHN","city":"Shijiazhuang","geoname_id":"1795270","downloaders":"{\"size\":1027,\"mobile\":0,\"satellite\":0,\"tor\":0,\"tor_exit_nodes\":0,\"vpn\":2,\"relay\":0,\"proxy\":0,\"hosting\":0,\"service\":0}","uploaders":"{\"size\":16,\"mobile\":0,\"satellite\":0,\"tor\":0,\"tor_exit_nodes\":0,\"vpn\":0,\"relay\":0,\"proxy\":0,\"hosting\":0,\"service\":0}"},"geometry":{"type":"Point","coordinates":[114.47861,38.04139]}},{"type":"Feature","properties":{"country_code":"RUS","city":"Khabarovsk","geoname_id":"2022890","downloaders":"{\"size\":1017,\"mobile\":297,\"satellite\":3,\"tor\":0,\"tor_exit_nodes\":0,\"vpn\":13,\"relay\":0,\"proxy\":0,\"hosting\":1,\"service\":12}","uploaders":"{\"size\":248,\"mobile\":50,\"satellite\":1,\"tor\":0,\"tor_exit_nodes\":0,\"vpn\":4,\"relay\":0,\"proxy\":0,\"hosting\":0,\"service\":3}"},"geometry":{"type":"Point","coordinates":[135.0971,48.46204]}},{"type":"Feature","properties":{"country_code":"ISR","city":"Givatayim","geoname_id":"294999","downloaders":"{\"size\":1013,\"mobile\":2,\"satellite\":0,\"tor\":0,\"tor_exit_nodes\":0,\"vpn\":1,\"relay\":0,\"proxy\":0,\"hosting\":0,\"service\":0}","uploaders":"{\"size\":543,\"mobile\":2,\"satellite\":0,\"tor\":0,\"tor_exit_nodes\":0,\"vpn\":0,\"relay\":0,\"proxy\":0,\"hosting\":0,\"service\":0}"},"geometry":{"type":"Point","coordinates":[34.81253,32.07225]}},{"type":"Feature","properties":{"country_code":"SRB","city":"Pančevo","geoname_id":"787237","downloaders":"{\"size\":1001,\"mobile\":281,\"satellite\":0,\"tor\":0,\"tor_exit_nodes\":0,\"vpn\":2,\"relay\":0,\"proxy\":0,\"hosting\":3,\"service\":0}","uploaders":"{\"size\":437,\"mobile\":107,\"satellite\":0,\"tor\":0,\"tor_exit_nodes\":0,\"vpn\":0,\"relay\":0,\"proxy\":0,\"hosting\":1,\"service\":0}"},"geometry":{"type":"Point","coordinates":[20.64167,44.87177]}},{"type":"Feature","properties":{"country_code":"RUS","city":"Tula","geoname_id":"480562","downloaders":"{\"size\":996,\"mobile\":295,\"satellite\":0,\"tor\":0,\"tor_exit_nodes\":0,\"vpn\":7,\"relay\":0,\"proxy\":0,\"hosting\":2,\"service\":0}","uploaders":"{\"size\":259,\"mobile\":111,\"satellite\":0,\"tor\":0,\"tor_exit_nodes\":0,\"vpn\":0,\"relay\":0,\"proxy\":0,\"hosting\":0,\"service\":0}"},"geometry":{"type":"Point","coordinates":[37.61822,54.19609]}},{"type":"Feature","properties":{"country_code":"UKR","city":"Lviv","geoname_id":"702550","downloaders":"{\"size\":989,\"mobile\":526,\"satellite\":1,\"tor\":0,\"tor_exit_nodes\":0,\"vpn\":4,\"relay\":0,\"proxy\":0,\"hosting\":2,\"service\":0}","uploaders":"{\"size\":233,\"mobile\":62,\"satellite\":0,\"tor\":0,\"tor_exit_nodes\":0,\"vpn\":1,\"relay\":0,\"proxy\":0,\"hosting\":1,\"service\":0}"},"geometry":{"type":"Point","coordinates":[24.02324,49.83826]}},{"type":"Feature","properties":{"country_code":"SVN","city":"Ljubljana","geoname_id":"3196359","downloaders":"{\"size\":981,\"mobile\":153,\"satellite\":0,\"tor\":0,\"tor_exit_nodes\":0,\"vpn\":26,\"relay\":0,\"proxy\":3,\"hosting\":64,\"service\":17}","uploaders":"{\"size\":393,\"mobile\":74,\"satellite\":0,\"tor\":0,\"tor_exit_nodes\":0,\"vpn\":9,\"relay\":0,\"proxy\":2,\"hosting\":26,\"service\":7}"},"geometry":{"type":"Point","coordinates":[14.50513,46.05108]}},{"type":"Feature","properties":{"country_code":"RUS","city":"Barnaul","geoname_id":"1510853","downloaders":"{\"size\":980,\"mobile\":6,\"satellite\":0,\"tor\":0,\"tor_exit_nodes\":0,\"vpn\":11,\"relay\":0,\"proxy\":0,\"hosting\":0,\"service\":1}","uploaders":"{\"size\":253,\"mobile\":1,\"satellite\":0,\"tor\":0,\"tor_exit_nodes\":0,\"vpn\":1,\"relay\":0,\"proxy\":0,\"hosting\":0,\"service\":0}"},"geometry":{"type":"Point","coordinates":[83.72786,53.36199]}},{"type":"Feature","properties":{"country_code":"CHN","city":"Xi’an","geoname_id":"1790630","downloaders":"{\"size\":977,\"mobile\":0,\"satellite\":0,\"tor\":0,\"tor_exit_nodes\":0,\"vpn\":11,\"relay\":0,\"proxy\":0,\"hosting\":0,\"service\":0}","uploaders":"{\"size\":19,\"mobile\":0,\"satellite\":0,\"tor\":0,\"tor_exit_nodes\":0,\"vpn\":3,\"relay\":0,\"proxy\":0,\"hosting\":0,\"service\":0}"},"geometry":{"type":"Point","coordinates":[108.92861,34.25833]}},{"type":"Feature","properties":{"country_code":"GRC","city":"Kallithéa","geoname_id":"261414","downloaders":"{\"size\":968,\"mobile\":26,\"satellite\":0,\"tor\":0,\"tor_exit_nodes\":0,\"vpn\":3,\"relay\":0,\"proxy\":0,\"hosting\":0,\"service\":0}","uploaders":"{\"size\":574,\"mobile\":15,\"satellite\":0,\"tor\":0,\"tor_exit_nodes\":0,\"vpn\":0,\"relay\":0,\"proxy\":0,\"hosting\":0,\"service\":0}"},"geometry":{"type":"Point","coordinates":[23.7,37.95]}},{"type":"Feature","properties":{"country_code":"CHN","city":"Guangzhou","geoname_id":"1809858","downloaders":"{\"size\":968,\"mobile\":0,\"satellite\":0,\"tor\":0,\"tor_exit_nodes\":0,\"vpn\":1,\"relay\":0,\"proxy\":0,\"hosting\":219,\"service\":0}","uploaders":"{\"size\":28,\"mobile\":0,\"satellite\":0,\"tor\":0,\"tor_exit_nodes\":0,\"vpn\":0,\"relay\":0,\"proxy\":0,\"hosting\":15,\"service\":0}"},"geometry":{"type":"Point","coordinates":[113.25,23.11667]}},{"type":"Feature","properties":{"country_code":"USA","city":"Middletown","geoname_id":"5101170","downloaders":"{\"size\":965,\"mobile\":0,\"satellite\":0,\"tor\":0,\"tor_exit_nodes\":0,\"vpn\":0,\"relay\":0,\"proxy\":0,\"hosting\":0,\"service\":0}","uploaders":"{\"size\":7,\"mobile\":0,\"satellite\":0,\"tor\":0,\"tor_exit_nodes\":0,\"vpn\":0,\"relay\":0,\"proxy\":0,\"hosting\":0,\"service\":0}"},"geometry":{"type":"Point","coordinates":[-74.11709,40.39428]}},{"type":"Feature","properties":{"country_code":"USA","city":"Santa Clara","geoname_id":"5393015","downloaders":"{\"size\":953,\"mobile\":1,\"satellite\":0,\"tor\":0,\"tor_exit_nodes\":0,\"vpn\":124,\"relay\":0,\"proxy\":0,\"hosting\":503,\"service\":108}","uploaders":"{\"size\":104,\"mobile\":1,\"satellite\":0,\"tor\":0,\"tor_exit_nodes\":0,\"vpn\":10,\"relay\":0,\"proxy\":0,\"hosting\":89,\"service\":9}"},"geometry":{"type":"Point","coordinates":[-121.9623,37.3924]}},{"type":"Feature","properties":{"country_code":"USA","city":"Bridgeport","geoname_id":"5282804","downloaders":"{\"size\":945,\"mobile\":1,\"satellite\":0,\"tor\":0,\"tor_exit_nodes\":0,\"vpn\":0,\"relay\":0,\"proxy\":0,\"hosting\":894,\"service\":0}","uploaders":"{\"size\":85,\"mobile\":0,\"satellite\":0,\"tor\":0,\"tor_exit_nodes\":0,\"vpn\":0,\"relay\":0,\"proxy\":0,\"hosting\":80,\"service\":0}"},"geometry":{"type":"Point","coordinates":[-73.18945,41.17923]}},{"type":"Feature","properties":{"country_code":"ISL","city":"Reykjavík","geoname_id":"3413829","downloaders":"{\"size\":943,\"mobile\":41,\"satellite\":0,\"tor\":0,\"tor_exit_nodes\":0,\"vpn\":251,\"relay\":0,\"proxy\":0,\"hosting\":310,\"service\":249}","uploaders":"{\"size\":396,\"mobile\":17,\"satellite\":0,\"tor\":0,\"tor_exit_nodes\":0,\"vpn\":118,\"relay\":0,\"proxy\":0,\"hosting\":118,\"service\":116}"},"geometry":{"type":"Point","coordinates":[-21.89541,64.13548]}},{"type":"Feature","properties":{"country_code":"ISR","city":"Petaẖ Tiqva","geoname_id":"293918","downloaders":"{\"size\":930,\"mobile\":241,\"satellite\":0,\"tor\":0,\"tor_exit_nodes\":0,\"vpn\":2,\"relay\":0,\"proxy\":0,\"hosting\":57,\"service\":1}","uploaders":"{\"size\":391,\"mobile\":39,\"satellite\":0,\"tor\":0,\"tor_exit_nodes\":0,\"vpn\":1,\"relay\":0,\"proxy\":0,\"hosting\":34,\"service\":1}"},"geometry":{"type":"Point","coordinates":[34.88747,32.08707]}},{"type":"Feature","properties":{"country_code":"CAN","city":"Edmonton","geoname_id":"5946768","downloaders":"{\"size\":928,\"mobile\":165,\"satellite\":0,\"tor\":0,\"tor_exit_nodes\":0,\"vpn\":0,\"relay\":0,\"proxy\":0,\"hosting\":3,\"service\":0}","uploaders":"{\"size\":228,\"mobile\":57,\"satellite\":0,\"tor\":0,\"tor_exit_nodes\":0,\"vpn\":0,\"relay\":0,\"proxy\":0,\"hosting\":0,\"service\":0}"},"geometry":{"type":"Point","coordinates":[-113.46871,53.55014]}},{"type":"Feature","properties":{"country_code":"JPN","city":"Nagoya","geoname_id":"1856057","downloaders":"{\"size\":925,\"mobile\":75,\"satellite\":0,\"tor\":0,\"tor_exit_nodes\":0,\"vpn\":8,\"relay\":0,\"proxy\":0,\"hosting\":0,\"service\":3}","uploaders":"{\"size\":40,\"mobile\":2,\"satellite\":0,\"tor\":0,\"tor_exit_nodes\":0,\"vpn\":6,\"relay\":0,\"proxy\":0,\"hosting\":0,\"service\":3}"},"geometry":{"type":"Point","coordinates":[136.90641,35.18147]}},{"type":"Feature","properties":{"country_code":"RUS","city":"Lipetsk","geoname_id":"535121","downloaders":"{\"size\":923,\"mobile\":62,\"satellite\":0,\"tor\":0,\"tor_exit_nodes\":0,\"vpn\":8,\"relay\":0,\"proxy\":0,\"hosting\":0,\"service\":0}","uploaders":"{\"size\":230,\"mobile\":14,\"satellite\":0,\"tor\":0,\"tor_exit_nodes\":0,\"vpn\":0,\"relay\":0,\"proxy\":0,\"hosting\":0,\"service\":0}"},"geometry":{"type":"Point","coordinates":[39.55151,52.5876]}},{"type":"Feature","properties":{"country_code":"RUS","city":"Balashikha","geoname_id":"579464","downloaders":"{\"size\":921,\"mobile\":4,\"satellite\":0,\"tor\":0,\"tor_exit_nodes\":0,\"vpn\":30,\"relay\":0,\"proxy\":0,\"hosting\":34,\"service\":0}","uploaders":"{\"size\":140,\"mobile\":1,\"satellite\":0,\"tor\":0,\"tor_exit_nodes\":0,\"vpn\":5,\"relay\":0,\"proxy\":0,\"hosting\":9,\"service\":0}"},"geometry":{"type":"Point","coordinates":[37.94794,55.79479]}},{"type":"Feature","properties":{"country_code":"NLD","city":"Utrecht","geoname_id":"2745912","downloaders":"{\"size\":915,\"mobile\":42,\"satellite\":0,\"tor\":0,\"tor_exit_nodes\":0,\"vpn\":0,\"relay\":0,\"proxy\":1,\"hosting\":10,\"service\":0}","uploaders":"{\"size\":134,\"mobile\":25,\"satellite\":0,\"tor\":0,\"tor_exit_nodes\":0,\"vpn\":0,\"relay\":0,\"proxy\":0,\"hosting\":5,\"service\":0}"},"geometry":{"type":"Point","coordinates":[5.12222,52.09083]}},{"type":"Feature","properties":{"country_code":"KOR","city":"Busan","geoname_id":"1838524","downloaders":"{\"size\":902,\"mobile\":3,\"satellite\":0,\"tor\":0,\"tor_exit_nodes\":0,\"vpn\":20,\"relay\":0,\"proxy\":0,\"hosting\":0,\"service\":0}","uploaders":"{\"size\":75,\"mobile\":0,\"satellite\":0,\"tor\":0,\"tor_exit_nodes\":0,\"vpn\":0,\"relay\":0,\"proxy\":0,\"hosting\":0,\"service\":0}"},"geometry":{"type":"Point","coordinates":[129.03004,35.10168]}},{"type":"Feature","properties":{"country_code":"IND","city":"Chennai","geoname_id":"1264527","downloaders":"{\"size\":901,\"mobile\":127,\"satellite\":0,\"tor\":0,\"tor_exit_nodes\":0,\"vpn\":2,\"relay\":0,\"proxy\":0,\"hosting\":73,\"service\":1}","uploaders":"{\"size\":273,\"mobile\":30,\"satellite\":0,\"tor\":0,\"tor_exit_nodes\":0,\"vpn\":1,\"relay\":0,\"proxy\":0,\"hosting\":13,\"service\":1}"},"geometry":{"type":"Point","coordinates":[80.27847,13.08784]}},{"type":"Feature","properties":{"country_code":"CAN","city":"Ramsayville","geoname_id":"6116338","downloaders":"{\"size\":900,\"mobile\":25,\"satellite\":0,\"tor\":0,\"tor_exit_nodes\":0,\"vpn\":0,\"relay\":0,\"proxy\":0,\"hosting\":0,\"service\":0}","uploaders":"{\"size\":13,\"mobile\":5,\"satellite\":0,\"tor\":0,\"tor_exit_nodes\":0,\"vpn\":0,\"relay\":0,\"proxy\":0,\"hosting\":0,\"service\":0}"},"geometry":{"type":"Point","coordinates":[-75.56472,45.37472]}},{"type":"Feature","properties":{"country_code":"TWN","city":"Taichung","geoname_id":"1668399","downloaders":"{\"size\":889,\"mobile\":78,\"satellite\":0,\"tor\":0,\"tor_exit_nodes\":0,\"vpn\":15,\"relay\":0,\"proxy\":0,\"hosting\":0,\"service\":0}","uploaders":"{\"size\":149,\"mobile\":4,\"satellite\":0,\"tor\":0,\"tor_exit_nodes\":0,\"vpn\":4,\"relay\":0,\"proxy\":0,\"hosting\":0,\"service\":0}"},"geometry":{"type":"Point","coordinates":[120.6839,24.1469]}},{"type":"Feature","properties":{"country_code":"PRT","city":"Almada","geoname_id":"2271961","downloaders":"{\"size\":887,\"mobile\":56,\"satellite\":0,\"tor\":0,\"tor_exit_nodes\":0,\"vpn\":1,\"relay\":0,\"proxy\":0,\"hosting\":8,\"service\":1}","uploaders":"{\"size\":560,\"mobile\":41,\"satellite\":0,\"tor\":0,\"tor_exit_nodes\":0,\"vpn\":0,\"relay\":0,\"proxy\":0,\"hosting\":1,\"service\":0}"},"geometry":{"type":"Point","coordinates":[-9.1569,38.67902]}},{"type":"Feature","properties":{"country_code":"UGA","city":"Kampala","geoname_id":"232422","downloaders":"{\"size\":884,\"mobile\":243,\"satellite\":0,\"tor\":0,\"tor_exit_nodes\":0,\"vpn\":9,\"relay\":0,\"proxy\":0,\"hosting\":60,\"service\":0}","uploaders":"{\"size\":154,\"mobile\":59,\"satellite\":0,\"tor\":0,\"tor_exit_nodes\":0,\"vpn\":2,\"relay\":0,\"proxy\":0,\"hosting\":7,\"service\":0}"},"geometry":{"type":"Point","coordinates":[32.58219,0.31628]}},{"type":"Feature","properties":{"country_code":"TUR","city":"Ankara","geoname_id":"323786","downloaders":"{\"size\":860,\"mobile\":72,\"satellite\":0,\"tor\":0,\"tor_exit_nodes\":0,\"vpn\":3,\"relay\":0,\"proxy\":0,\"hosting\":1,\"service\":0}","uploaders":"{\"size\":322,\"mobile\":42,\"satellite\":0,\"tor\":0,\"tor_exit_nodes\":0,\"vpn\":2,\"relay\":0,\"proxy\":0,\"hosting\":0,\"service\":0}"},"geometry":{"type":"Point","coordinates":[32.8612,39.9619]}},{"type":"Feature","properties":{"country_code":"CHN","city":"Chongqing","geoname_id":"1814906","downloaders":"{\"size\":853,\"mobile\":0,\"satellite\":0,\"tor\":0,\"tor_exit_nodes\":0,\"vpn\":4,\"relay\":0,\"proxy\":0,\"hosting\":0,\"service\":0}","uploaders":"{\"size\":64,\"mobile\":0,\"satellite\":0,\"tor\":0,\"tor_exit_nodes\":0,\"vpn\":2,\"relay\":0,\"proxy\":0,\"hosting\":0,\"service\":0}"},"geometry":{"type":"Point","coordinates":[106.55771,29.56026]}},