{"type":"FeatureCollection","id":"Inventing Anna","swarm_features":195,"features":[{"type":"Feature","properties":{"country_code":"RUS","city":"Moscow","geoname_id":"524901","downloaders":"{\"size\":156493,\"mobile\":8704,\"satellite\":1,\"tor\":0,\"tor_exit_nodes\":0,\"vpn\":5081,\"relay\":0,\"proxy\":9,\"hosting\":17219,\"service\":671}","uploaders":"{\"size\":16565,\"mobile\":982,\"satellite\":0,\"tor\":0,\"tor_exit_nodes\":0,\"vpn\":326,\"relay\":0,\"proxy\":0,\"hosting\":1498,\"service\":54}"},"geometry":{"type":"Point","coordinates":[37.61556,55.75222]}},{"type":"Feature","properties":{"country_code":"USA","city":"Ashburn","geoname_id":"4744870","downloaders":"{\"size\":97107,\"mobile\":306,\"satellite\":1,\"tor\":0,\"tor_exit_nodes\":0,\"vpn\":438,\"relay\":0,\"proxy\":0,\"hosting\":96166,\"service\":352}","uploaders":"{\"size\":39020,\"mobile\":94,\"satellite\":0,\"tor\":0,\"tor_exit_nodes\":0,\"vpn\":130,\"relay\":0,\"proxy\":0,\"hosting\":38793,\"service\":104}"},"geometry":{"type":"Point","coordinates":[-77.48749,39.04372]}},{"type":"Feature","properties":{"country_code":"RUS","city":"Saint Petersburg","geoname_id":"498817","downloaders":"{\"size\":59518,\"mobile\":4755,\"satellite\":0,\"tor\":0,\"tor_exit_nodes\":0,\"vpn\":841,\"relay\":0,\"proxy\":0,\"hosting\":3231,\"service\":37}","uploaders":"{\"size\":6627,\"mobile\":882,\"satellite\":0,\"tor\":0,\"tor_exit_nodes\":0,\"vpn\":64,\"relay\":0,\"proxy\":0,\"hosting\":433,\"service\":6}"},"geometry":{"type":"Point","coordinates":[30.31413,59.93863]}},{"type":"Feature","properties":{"country_code":"KOR","city":"Seoul","geoname_id":"1835848","downloaders":"{\"size\":49842,\"mobile\":951,\"satellite\":0,\"tor\":0,\"tor_exit_nodes\":0,\"vpn\":595,\"relay\":0,\"proxy\":0,\"hosting\":1015,\"service\":134}","uploaders":"{\"size\":2605,\"mobile\":121,\"satellite\":0,\"tor\":0,\"tor_exit_nodes\":0,\"vpn\":25,\"relay\":0,\"proxy\":0,\"hosting\":96,\"service\":11}"},"geometry":{"type":"Point","coordinates":[126.9784,37.566]}},{"type":"Feature","properties":{"country_code":"NLD","city":"Amsterdam","geoname_id":"2759794","downloaders":"{\"size\":34330,\"mobile\":645,\"satellite\":1,\"tor\":7,\"tor_exit_nodes\":7,\"vpn\":7498,\"relay\":0,\"proxy\":0,\"hosting\":28756,\"service\":5395}","uploaders":"{\"size\":5162,\"mobile\":193,\"satellite\":0,\"tor\":0,\"tor_exit_nodes\":0,\"vpn\":1495,\"relay\":0,\"proxy\":0,\"hosting\":3681,\"service\":1217}"},"geometry":{"type":"Point","coordinates":[4.88969,52.37403]}},{"type":"Feature","properties":{"country_code":"GBR","city":"London","geoname_id":"2643743","downloaders":"{\"size\":32400,\"mobile\":3532,\"satellite\":85,\"tor\":1,\"tor_exit_nodes\":1,\"vpn\":8214,\"relay\":3,\"proxy\":7,\"hosting\":14655,\"service\":7416}","uploaders":"{\"size\":9204,\"mobile\":1204,\"satellite\":13,\"tor\":0,\"tor_exit_nodes\":0,\"vpn\":2661,\"relay\":0,\"proxy\":1,\"hosting\":4437,\"service\":2391}"},"geometry":{"type":"Point","coordinates":[-0.12574,51.50853]}},{"type":"Feature","properties":{"country_code":"KEN","city":"Nairobi","geoname_id":"184745","downloaders":"{\"size\":31469,\"mobile\":15258,\"satellite\":0,\"tor\":0,\"tor_exit_nodes\":0,\"vpn\":242,\"relay\":1,\"proxy\":0,\"hosting\":363,\"service\":39}","uploaders":"{\"size\":14760,\"mobile\":6760,\"satellite\":0,\"tor\":0,\"tor_exit_nodes\":0,\"vpn\":107,\"relay\":0,\"proxy\":0,\"hosting\":136,\"service\":8}"},"geometry":{"type":"Point","coordinates":[36.81667,-1.28333]}},{"type":"Feature","properties":{"country_code":"CHN","city":"Shanghai","geoname_id":"1796236","downloaders":"{\"size\":30346,\"mobile\":173,\"satellite\":0,\"tor\":0,\"tor_exit_nodes\":0,\"vpn\":157,\"relay\":0,\"proxy\":0,\"hosting\":1649,\"service\":0}","uploaders":"{\"size\":5635,\"mobile\":34,\"satellite\":0,\"tor\":0,\"tor_exit_nodes\":0,\"vpn\":37,\"relay\":0,\"proxy\":0,\"hosting\":356,\"service\":0}"},"geometry":{"type":"Point","coordinates":[121.45806,31.22222]}},{"type":"Feature","properties":{"country_code":"RUS","city":"Yekaterinburg","geoname_id":"1486209","downloaders":"{\"size\":27144,\"mobile\":1974,\"satellite\":0,\"tor\":0,\"tor_exit_nodes\":0,\"vpn\":632,\"relay\":0,\"proxy\":0,\"hosting\":1239,\"service\":33}","uploaders":"{\"size\":2498,\"mobile\":201,\"satellite\":0,\"tor\":0,\"tor_exit_nodes\":0,\"vpn\":26,\"relay\":0,\"proxy\":0,\"hosting\":104,\"service\":4}"},"geometry":{"type":"Point","coordinates":[60.6122,56.8519]}},{"type":"Feature","properties":{"country_code":"ZAF","city":"Johannesburg","geoname_id":"993800","downloaders":"{\"size\":24950,\"mobile\":15617,\"satellite\":5,\"tor\":0,\"tor_exit_nodes\":0,\"vpn\":377,\"relay\":0,\"proxy\":0,\"hosting\":2435,\"service\":255}","uploaders":"{\"size\":9847,\"mobile\":5654,\"satellite\":3,\"tor\":0,\"tor_exit_nodes\":0,\"vpn\":166,\"relay\":0,\"proxy\":0,\"hosting\":1062,\"service\":106}"},"geometry":{"type":"Point","coordinates":[28.04363,-26.20227]}},{"type":"Feature","properties":{"country_code":"USA","city":"Council Bluffs","geoname_id":"4852832","downloaders":"{\"size\":23903,\"mobile\":0,\"satellite\":0,\"tor\":0,\"tor_exit_nodes\":0,\"vpn\":0,\"relay\":0,\"proxy\":0,\"hosting\":23903,\"service\":0}","uploaders":"{\"size\":13946,\"mobile\":0,\"satellite\":0,\"tor\":0,\"tor_exit_nodes\":0,\"vpn\":0,\"relay\":0,\"proxy\":0,\"hosting\":13946,\"service\":0}"},"geometry":{"type":"Point","coordinates":[-95.86083,41.26194]}},{"type":"Feature","properties":{"country_code":"RUS","city":"Novosibirsk","geoname_id":"1496747","downloaders":"{\"size\":23624,\"mobile\":2056,\"satellite\":0,\"tor\":0,\"tor_exit_nodes\":0,\"vpn\":42,\"relay\":0,\"proxy\":0,\"hosting\":274,\"service\":21}","uploaders":"{\"size\":1703,\"mobile\":361,\"satellite\":0,\"tor\":0,\"tor_exit_nodes\":0,\"vpn\":5,\"relay\":0,\"proxy\":0,\"hosting\":24,\"service\":5}"},"geometry":{"type":"Point","coordinates":[82.94339,55.03442]}},{"type":"Feature","properties":{"country_code":"FRA","city":"Paris","geoname_id":"2988507","downloaders":"{\"size\":21337,\"mobile\":3268,\"satellite\":12,\"tor\":4,\"tor_exit_nodes\":8,\"vpn\":3049,\"relay\":0,\"proxy\":7,\"hosting\":8135,\"service\":2361}","uploaders":"{\"size\":3155,\"mobile\":1026,\"satellite\":4,\"tor\":0,\"tor_exit_nodes\":1,\"vpn\":594,\"relay\":0,\"proxy\":1,\"hosting\":887,\"service\":522}"},"geometry":{"type":"Point","coordinates":[2.3488,48.85341]}},{"type":"Feature","properties":{"country_code":"ZAF","city":"Cape Town","geoname_id":"3369157","downloaders":"{\"size\":17899,\"mobile\":8650,\"satellite\":0,\"tor\":0,\"tor_exit_nodes\":0,\"vpn\":125,\"relay\":0,\"proxy\":0,\"hosting\":1339,\"service\":0}","uploaders":"{\"size\":7624,\"mobile\":3314,\"satellite\":0,\"tor\":0,\"tor_exit_nodes\":0,\"vpn\":27,\"relay\":0,\"proxy\":0,\"hosting\":636,\"service\":0}"},"geometry":{"type":"Point","coordinates":[18.6333,-33.9]}},{"type":"Feature","properties":{"country_code":"RUS","city":"Nizhniy Novgorod","geoname_id":"520555","downloaders":"{\"size\":16823,\"mobile\":3979,\"satellite\":0,\"tor\":0,\"tor_exit_nodes\":0,\"vpn\":88,\"relay\":0,\"proxy\":0,\"hosting\":0,\"service\":7}","uploaders":"{\"size\":1819,\"mobile\":391,\"satellite\":0,\"tor\":0,\"tor_exit_nodes\":0,\"vpn\":8,\"relay\":0,\"proxy\":0,\"hosting\":0,\"service\":0}"},"geometry":{"type":"Point","coordinates":[44.00205,56.32867]}},{"type":"Feature","properties":{"country_code":"RUS","city":"Krasnodar","geoname_id":"542420","downloaders":"{\"size\":16692,\"mobile\":5755,\"satellite\":0,\"tor\":0,\"tor_exit_nodes\":0,\"vpn\":191,\"relay\":0,\"proxy\":5,\"hosting\":870,\"service\":88}","uploaders":"{\"size\":3223,\"mobile\":1254,\"satellite\":0,\"tor\":0,\"tor_exit_nodes\":0,\"vpn\":18,\"relay\":0,\"proxy\":0,\"hosting\":90,\"service\":6}"},"geometry":{"type":"Point","coordinates":[38.97603,45.04484]}},{"type":"Feature","properties":{"country_code":"USA","city":"New York City","geoname_id":"5128581","downloaders":"{\"size\":16671,\"mobile\":306,\"satellite\":6,\"tor\":4,\"tor_exit_nodes\":10,\"vpn\":7454,\"relay\":0,\"proxy\":0,\"hosting\":8939,\"service\":6414}","uploaders":"{\"size\":3213,\"mobile\":66,\"satellite\":0,\"tor\":0,\"tor_exit_nodes\":0,\"vpn\":1937,\"relay\":0,\"proxy\":0,\"hosting\":2291,\"service\":1705}"},"geometry":{"type":"Point","coordinates":[-74.00597,40.71427]}},{"type":"Feature","properties":{"country_code":"HUN","city":"Budapest","geoname_id":"3054643","downloaders":"{\"size\":15702,\"mobile\":812,\"satellite\":0,\"tor\":0,\"tor_exit_nodes\":0,\"vpn\":725,\"relay\":0,\"proxy\":0,\"hosting\":841,\"service\":317}","uploaders":"{\"size\":1476,\"mobile\":293,\"satellite\":0,\"tor\":0,\"tor_exit_nodes\":0,\"vpn\":82,\"relay\":0,\"proxy\":0,\"hosting\":87,\"service\":80}"},"geometry":{"type":"Point","coordinates":[19.04045,47.49835]}},{"type":"Feature","properties":{"country_code":"DEU","city":"Frankfurt am Main","geoname_id":"2925533","downloaders":"{\"size\":15539,\"mobile\":180,\"satellite\":5,\"tor\":0,\"tor_exit_nodes\":2,\"vpn\":5396,\"relay\":0,\"proxy\":8,\"hosting\":14833,\"service\":5232}","uploaders":"{\"size\":2723,\"mobile\":72,\"satellite\":3,\"tor\":0,\"tor_exit_nodes\":0,\"vpn\":828,\"relay\":0,\"proxy\":0,\"hosting\":2530,\"service\":806}"},"geometry":{"type":"Point","coordinates":[8.68417,50.11552]}},{"type":"Feature","properties":{"country_code":"RUS","city":"Samara","geoname_id":"499099","downloaders":"{\"size\":14782,\"mobile\":1922,\"satellite\":0,\"tor\":0,\"tor_exit_nodes\":0,\"vpn\":261,\"relay\":0,\"proxy\":0,\"hosting\":21,\"service\":150}","uploaders":"{\"size\":1652,\"mobile\":214,\"satellite\":0,\"tor\":0,\"tor_exit_nodes\":0,\"vpn\":20,\"relay\":0,\"proxy\":0,\"hosting\":0,\"service\":14}"},"geometry":{"type":"Point","coordinates":[50.15,53.20007]}},{"type":"Feature","properties":{"country_code":"AUS","city":"Sydney","geoname_id":"2147714","downloaders":"{\"size\":14666,\"mobile\":1553,\"satellite\":64,\"tor\":0,\"tor_exit_nodes\":0,\"vpn\":5112,\"relay\":0,\"proxy\":0,\"hosting\":6413,\"service\":4600}","uploaders":"{\"size\":5101,\"mobile\":563,\"satellite\":21,\"tor\":0,\"tor_exit_nodes\":0,\"vpn\":1457,\"relay\":0,\"proxy\":0,\"hosting\":1982,\"service\":1316}"},"geometry":{"type":"Point","coordinates":[151.20732,-33.86785]}},{"type":"Feature","properties":{"country_code":"RUS","city":"Chelyabinsk","geoname_id":"1508291","downloaders":"{\"size\":14363,\"mobile\":1177,\"satellite\":0,\"tor\":0,\"tor_exit_nodes\":0,\"vpn\":32,\"relay\":0,\"proxy\":0,\"hosting\":1,\"service\":4}","uploaders":"{\"size\":1191,\"mobile\":102,\"satellite\":0,\"tor\":0,\"tor_exit_nodes\":0,\"vpn\":5,\"relay\":0,\"proxy\":0,\"hosting\":0,\"service\":0}"},"geometry":{"type":"Point","coordinates":[61.42915,55.15402]}},{"type":"Feature","properties":{"country_code":"SGP","city":"Singapore","geoname_id":"1880252","downloaders":"{\"size\":13296,\"mobile\":748,\"satellite\":0,\"tor\":0,\"tor_exit_nodes\":0,\"vpn\":2892,\"relay\":0,\"proxy\":0,\"hosting\":10315,\"service\":2832}","uploaders":"{\"size\":3994,\"mobile\":168,\"satellite\":0,\"tor\":0,\"tor_exit_nodes\":0,\"vpn\":940,\"relay\":0,\"proxy\":0,\"hosting\":3367,\"service\":929}"},"geometry":{"type":"Point","coordinates":[103.85007,1.28967]}},{"type":"Feature","properties":{"country_code":"RUS","city":"Krasnoyarsk","geoname_id":"1502026","downloaders":"{\"size\":13174,\"mobile\":424,\"satellite\":2,\"tor\":0,\"tor_exit_nodes\":0,\"vpn\":45,\"relay\":0,\"proxy\":0,\"hosting\":30,\"service\":36}","uploaders":"{\"size\":964,\"mobile\":26,\"satellite\":0,\"tor\":0,\"tor_exit_nodes\":0,\"vpn\":3,\"relay\":0,\"proxy\":0,\"hosting\":2,\"service\":3}"},"geometry":{"type":"Point","coordinates":[92.90765,56.02668]}},{"type":"Feature","properties":{"country_code":"RUS","city":"Omsk","geoname_id":"1496153","downloaders":"{\"size\":13147,\"mobile\":60,\"satellite\":0,\"tor\":0,\"tor_exit_nodes\":0,\"vpn\":22,\"relay\":0,\"proxy\":0,\"hosting\":11,\"service\":4}","uploaders":"{\"size\":1289,\"mobile\":4,\"satellite\":0,\"tor\":0,\"tor_exit_nodes\":0,\"vpn\":0,\"relay\":0,\"proxy\":0,\"hosting\":1,\"service\":0}"},"geometry":{"type":"Point","coordinates":[73.36859,54.99244]}},{"type":"Feature","properties":{"country_code":"HKG","city":"Hong Kong","geoname_id":"1819729","downloaders":"{\"size\":12808,\"mobile\":165,\"satellite\":0,\"tor\":0,\"tor_exit_nodes\":0,\"vpn\":1182,\"relay\":4,\"proxy\":0,\"hosting\":3739,\"service\":870}","uploaders":"{\"size\":2324,\"mobile\":45,\"satellite\":0,\"tor\":0,\"tor_exit_nodes\":0,\"vpn\":314,\"relay\":0,\"proxy\":0,\"hosting\":1048,\"service\":275}"},"geometry":{"type":"Point","coordinates":[114.17469,22.27832]}},{"type":"Feature","properties":{"country_code":"RUS","city":"Rostov-na-Donu","geoname_id":"501175","downloaders":"{\"size\":12219,\"mobile\":2389,\"satellite\":0,\"tor\":0,\"tor_exit_nodes\":0,\"vpn\":322,\"relay\":0,\"proxy\":0,\"hosting\":2,\"service\":32}","uploaders":"{\"size\":1579,\"mobile\":258,\"satellite\":0,\"tor\":0,\"tor_exit_nodes\":0,\"vpn\":32,\"relay\":0,\"proxy\":0,\"hosting\":1,\"service\":2}"},"geometry":{"type":"Point","coordinates":[39.72328,47.23135]}},{"type":"Feature","properties":{"country_code":"BGR","city":"Sofia","geoname_id":"727011","downloaders":"{\"size\":12166,\"mobile\":536,\"satellite\":0,\"tor\":0,\"tor_exit_nodes\":0,\"vpn\":845,\"relay\":0,\"proxy\":0,\"hosting\":2082,\"service\":654}","uploaders":"{\"size\":1178,\"mobile\":110,\"satellite\":0,\"tor\":0,\"tor_exit_nodes\":0,\"vpn\":132,\"relay\":0,\"proxy\":0,\"hosting\":218,\"service\":123}"},"geometry":{"type":"Point","coordinates":[23.32415,42.69751]}},{"type":"Feature","properties":{"country_code":"RUS","city":"Perm","geoname_id":"511196","downloaders":"{\"size\":12010,\"mobile\":517,\"satellite\":0,\"tor\":0,\"tor_exit_nodes\":0,\"vpn\":74,\"relay\":0,\"proxy\":0,\"hosting\":0,\"service\":4}","uploaders":"{\"size\":1166,\"mobile\":71,\"satellite\":0,\"tor\":0,\"tor_exit_nodes\":0,\"vpn\":5,\"relay\":0,\"proxy\":0,\"hosting\":0,\"service\":3}"},"geometry":{"type":"Point","coordinates":[56.25017,58.01046]}},{"type":"Feature","properties":{"country_code":"CAN","city":"Toronto","geoname_id":"6167865","downloaders":"{\"size\":11974,\"mobile\":610,\"satellite\":3,\"tor\":9,\"tor_exit_nodes\":59,\"vpn\":4093,\"relay\":0,\"proxy\":5,\"hosting\":6880,\"service\":4048}","uploaders":"{\"size\":3075,\"mobile\":154,\"satellite\":0,\"tor\":2,\"tor_exit_nodes\":15,\"vpn\":1262,\"relay\":0,\"proxy\":0,\"hosting\":1904,\"service\":1256}"},"geometry":{"type":"Point","coordinates":[-79.39864,43.70643]}},{"type":"Feature","properties":{"country_code":"RUS","city":"Tyumen","geoname_id":"1488754","downloaders":"{\"size\":11805,\"mobile\":1597,\"satellite\":0,\"tor\":0,\"tor_exit_nodes\":0,\"vpn\":138,\"relay\":0,\"proxy\":0,\"hosting\":1,\"service\":8}","uploaders":"{\"size\":1471,\"mobile\":292,\"satellite\":0,\"tor\":0,\"tor_exit_nodes\":0,\"vpn\":6,\"relay\":0,\"proxy\":0,\"hosting\":0,\"service\":2}"},"geometry":{"type":"Point","coordinates":[65.52722,57.15222]}},{"type":"Feature","properties":{"country_code":"BLR","city":"Minsk","geoname_id":"625144","downloaders":"{\"size\":11722,\"mobile\":138,\"satellite\":0,\"tor\":0,\"tor_exit_nodes\":0,\"vpn\":215,\"relay\":0,\"proxy\":0,\"hosting\":204,\"service\":22}","uploaders":"{\"size\":2302,\"mobile\":19,\"satellite\":0,\"tor\":0,\"tor_exit_nodes\":0,\"vpn\":32,\"relay\":0,\"proxy\":0,\"hosting\":32,\"service\":9}"},"geometry":{"type":"Point","coordinates":[27.56653,53.90019]}},{"type":"Feature","properties":{"country_code":"CAN","city":"Montréal","geoname_id":"6077243","downloaders":"{\"size\":11570,\"mobile\":571,\"satellite\":0,\"tor\":0,\"tor_exit_nodes\":0,\"vpn\":3092,\"relay\":0,\"proxy\":0,\"hosting\":6682,\"service\":2979}","uploaders":"{\"size\":2670,\"mobile\":101,\"satellite\":0,\"tor\":0,\"tor_exit_nodes\":0,\"vpn\":952,\"relay\":0,\"proxy\":0,\"hosting\":1829,\"service\":930}"},"geometry":{"type":"Point","coordinates":[-73.58781,45.50884]}},{"type":"Feature","properties":{"country_code":"RUS","city":"Ufa","geoname_id":"479561","downloaders":"{\"size\":11087,\"mobile\":360,\"satellite\":0,\"tor\":0,\"tor_exit_nodes\":0,\"vpn\":67,\"relay\":0,\"proxy\":0,\"hosting\":0,\"service\":14}","uploaders":"{\"size\":1185,\"mobile\":46,\"satellite\":0,\"tor\":0,\"tor_exit_nodes\":0,\"vpn\":7,\"relay\":0,\"proxy\":0,\"hosting\":0,\"service\":4}"},"geometry":{"type":"Point","coordinates":[55.96779,54.74306]}},{"type":"Feature","properties":{"country_code":"RUS","city":"Voronezh","geoname_id":"472045","downloaders":"{\"size\":11076,\"mobile\":300,\"satellite\":0,\"tor\":0,\"tor_exit_nodes\":0,\"vpn\":102,\"relay\":0,\"proxy\":0,\"hosting\":62,\"service\":0}","uploaders":"{\"size\":1084,\"mobile\":35,\"satellite\":0,\"tor\":0,\"tor_exit_nodes\":0,\"vpn\":9,\"relay\":0,\"proxy\":0,\"hosting\":21,\"service\":0}"},"geometry":{"type":"Point","coordinates":[39.1843,51.67204]}},{"type":"Feature","properties":{"country_code":"RUS","city":"Tomsk","geoname_id":"1489425","downloaders":"{\"size\":10568,\"mobile\":2,\"satellite\":0,\"tor\":0,\"tor_exit_nodes\":0,\"vpn\":13,\"relay\":0,\"proxy\":0,\"hosting\":4,\"service\":5}","uploaders":"{\"size\":1576,\"mobile\":1,\"satellite\":0,\"tor\":0,\"tor_exit_nodes\":0,\"vpn\":2,\"relay\":0,\"proxy\":0,\"hosting\":1,\"service\":2}"},"geometry":{"type":"Point","coordinates":[84.98204,56.50032]}},{"type":"Feature","properties":{"country_code":"USA","city":"Los Angeles","geoname_id":"5368361","downloaders":"{\"size\":10036,\"mobile\":160,\"satellite\":1,\"tor\":0,\"tor_exit_nodes\":0,\"vpn\":4553,\"relay\":14,\"proxy\":2,\"hosting\":7967,\"service\":3684}","uploaders":"{\"size\":2217,\"mobile\":37,\"satellite\":0,\"tor\":0,\"tor_exit_nodes\":0,\"vpn\":1077,\"relay\":2,\"proxy\":1,\"hosting\":1949,\"service\":848}"},"geometry":{"type":"Point","coordinates":[-118.24368,34.05223]}},{"type":"Feature","properties":{"country_code":"RUS","city":"Tolyatti","geoname_id":"482283","downloaders":"{\"size\":9943,\"mobile\":0,\"satellite\":0,\"tor\":0,\"tor_exit_nodes\":0,\"vpn\":28,\"relay\":0,\"proxy\":0,\"hosting\":0,\"service\":0}","uploaders":"{\"size\":1129,\"mobile\":0,\"satellite\":0,\"tor\":0,\"tor_exit_nodes\":0,\"vpn\":6,\"relay\":0,\"proxy\":0,\"hosting\":0,\"service\":0}"},"geometry":{"type":"Point","coordinates":[49.3461,53.5303]}},{"type":"Feature","properties":{"country_code":"RUS","city":"Saratov","geoname_id":"498677","downloaders":"{\"size\":9942,\"mobile\":316,\"satellite\":0,\"tor\":0,\"tor_exit_nodes\":0,\"vpn\":53,\"relay\":0,\"proxy\":0,\"hosting\":4,\"service\":0}","uploaders":"{\"size\":935,\"mobile\":26,\"satellite\":0,\"tor\":0,\"tor_exit_nodes\":0,\"vpn\":11,\"relay\":0,\"proxy\":0,\"hosting\":0,\"service\":0}"},"geometry":{"type":"Point","coordinates":[46.00861,51.54056]}},{"type":"Feature","properties":{"country_code":"UKR","city":"Kyiv","geoname_id":"703448","downloaders":"{\"size\":9812,\"mobile\":863,\"satellite\":5,\"tor\":0,\"tor_exit_nodes\":0,\"vpn\":400,\"relay\":41,\"proxy\":0,\"hosting\":1732,\"service\":302}","uploaders":"{\"size\":1988,\"mobile\":91,\"satellite\":0,\"tor\":0,\"tor_exit_nodes\":0,\"vpn\":35,\"relay\":0,\"proxy\":0,\"hosting\":318,\"service\":28}"},"geometry":{"type":"Point","coordinates":[30.5238,50.45466]}},{"type":"Feature","properties":{"country_code":"CHN","city":"Shenzhen","geoname_id":"1795565","downloaders":"{\"size\":9770,\"mobile\":19,\"satellite\":0,\"tor\":0,\"tor_exit_nodes\":0,\"vpn\":145,\"relay\":0,\"proxy\":0,\"hosting\":376,\"service\":0}","uploaders":"{\"size\":1899,\"mobile\":0,\"satellite\":0,\"tor\":0,\"tor_exit_nodes\":0,\"vpn\":23,\"relay\":0,\"proxy\":0,\"hosting\":133,\"service\":0}"},"geometry":{"type":"Point","coordinates":[114.0683,22.54554]}},{"type":"Feature","properties":{"country_code":"NLD","city":"Roosendaal","geoname_id":"2747930","downloaders":"{\"size\":9689,\"mobile\":0,\"satellite\":0,\"tor\":4,\"tor_exit_nodes\":8,\"vpn\":284,\"relay\":0,\"proxy\":0,\"hosting\":5557,\"service\":284}","uploaders":"{\"size\":563,\"mobile\":0,\"satellite\":0,\"tor\":0,\"tor_exit_nodes\":0,\"vpn\":76,\"relay\":0,\"proxy\":0,\"hosting\":470,\"service\":76}"},"geometry":{"type":"Point","coordinates":[4.46528,51.53083]}},{"type":"Feature","properties":{"country_code":"USA","city":"Dallas","geoname_id":"4684888","downloaders":"{\"size\":9652,\"mobile\":369,\"satellite\":1,\"tor\":0,\"tor_exit_nodes\":0,\"vpn\":2662,\"relay\":1,\"proxy\":0,\"hosting\":6806,\"service\":2597}","uploaders":"{\"size\":1330,\"mobile\":39,\"satellite\":0,\"tor\":0,\"tor_exit_nodes\":0,\"vpn\":715,\"relay\":0,\"proxy\":0,\"hosting\":943,\"service\":707}"},"geometry":{"type":"Point","coordinates":[-96.7776,32.7673]}},{"type":"Feature","properties":{"country_code":"GHA","city":"Accra","geoname_id":"2306104","downloaders":"{\"size\":9526,\"mobile\":8494,\"satellite\":0,\"tor\":0,\"tor_exit_nodes\":0,\"vpn\":28,\"relay\":0,\"proxy\":0,\"hosting\":80,\"service\":0}","uploaders":"{\"size\":4501,\"mobile\":4012,\"satellite\":0,\"tor\":0,\"tor_exit_nodes\":0,\"vpn\":16,\"relay\":0,\"proxy\":0,\"hosting\":24,\"service\":0}"},"geometry":{"type":"Point","coordinates":[-0.1969,5.55602]}},{"type":"Feature","properties":{"country_code":"AUS","city":"Melbourne","geoname_id":"2158177","downloaders":"{\"size\":9330,\"mobile\":1199,\"satellite\":4,\"tor\":0,\"tor_exit_nodes\":0,\"vpn\":1720,\"relay\":0,\"proxy\":0,\"hosting\":2240,\"service\":1274}","uploaders":"{\"size\":3165,\"mobile\":513,\"satellite\":2,\"tor\":0,\"tor_exit_nodes\":0,\"vpn\":610,\"relay\":0,\"proxy\":0,\"hosting\":735,\"service\":497}"},"geometry":{"type":"Point","coordinates":[144.96332,-37.814]}},{"type":"Feature","properties":{"country_code":"USA","city":"Miami","geoname_id":"4164138","downloaders":"{\"size\":8977,\"mobile\":65,\"satellite\":4,\"tor\":0,\"tor_exit_nodes\":0,\"vpn\":7292,\"relay\":1,\"proxy\":0,\"hosting\":7831,\"service\":7282}","uploaders":"{\"size\":962,\"mobile\":16,\"satellite\":2,\"tor\":0,\"tor_exit_nodes\":0,\"vpn\":648,\"relay\":0,\"proxy\":0,\"hosting\":786,\"service\":644}"},"geometry":{"type":"Point","coordinates":[-80.19366,25.77427]}},{"type":"Feature","properties":{"country_code":"HRV","city":"Zagreb","geoname_id":"3186886","downloaders":"{\"size\":8907,\"mobile\":2608,\"satellite\":0,\"tor\":0,\"tor_exit_nodes\":0,\"vpn\":61,\"relay\":0,\"proxy\":0,\"hosting\":57,\"service\":51}","uploaders":"{\"size\":4309,\"mobile\":1144,\"satellite\":0,\"tor\":0,\"tor_exit_nodes\":0,\"vpn\":23,\"relay\":0,\"proxy\":0,\"hosting\":28,\"service\":21}"},"geometry":{"type":"Point","coordinates":[15.97798,45.81444]}},{"type":"Feature","properties":{"country_code":"CHN","city":"Beijing","geoname_id":"1816670","downloaders":"{\"size\":8761,\"mobile\":0,\"satellite\":0,\"tor\":0,\"tor_exit_nodes\":0,\"vpn\":129,\"relay\":0,\"proxy\":1,\"hosting\":1730,\"service\":0}","uploaders":"{\"size\":2523,\"mobile\":0,\"satellite\":0,\"tor\":0,\"tor_exit_nodes\":0,\"vpn\":26,\"relay\":0,\"proxy\":0,\"hosting\":834,\"service\":0}"},"geometry":{"type":"Point","coordinates":[116.39723,39.9075]}},{"type":"Feature","properties":{"country_code":"RUS","city":"Barnaul","geoname_id":"1510853","downloaders":"{\"size\":8615,\"mobile\":43,\"satellite\":0,\"tor\":0,\"tor_exit_nodes\":0,\"vpn\":67,\"relay\":0,\"proxy\":0,\"hosting\":0,\"service\":6}","uploaders":"{\"size\":657,\"mobile\":0,\"satellite\":0,\"tor\":0,\"tor_exit_nodes\":0,\"vpn\":2,\"relay\":0,\"proxy\":0,\"hosting\":0,\"service\":0}"},"geometry":{"type":"Point","coordinates":[83.7456,53.3598]}},{"type":"Feature","properties":{"country_code":"DEU","city":"Falkenstein","geoname_id":"2927913","downloaders":"{\"size\":8599,\"mobile\":0,\"satellite\":0,\"tor\":0,\"tor_exit_nodes\":0,\"vpn\":9,\"relay\":0,\"proxy\":0,\"hosting\":8599,\"service\":9}","uploaders":"{\"size\":427,\"mobile\":0,\"satellite\":0,\"tor\":0,\"tor_exit_nodes\":0,\"vpn\":0,\"relay\":0,\"proxy\":0,\"hosting\":427,\"service\":0}"},"geometry":{"type":"Point","coordinates":[12.37129,50.47788]}},{"type":"Feature","properties":{"country_code":"FIN","city":"Helsinki","geoname_id":"658225","downloaders":"{\"size\":8492,\"mobile\":507,\"satellite\":0,\"tor\":0,\"tor_exit_nodes\":5,\"vpn\":886,\"relay\":0,\"proxy\":0,\"hosting\":7335,\"service\":773}","uploaders":"{\"size\":656,\"mobile\":145,\"satellite\":0,\"tor\":0,\"tor_exit_nodes\":0,\"vpn\":86,\"relay\":0,\"proxy\":0,\"hosting\":444,\"service\":67}"},"geometry":{"type":"Point","coordinates":[24.93545,60.16952]}},{"type":"Feature","properties":{"country_code":"KOR","city":"Incheon","geoname_id":"1843564","downloaders":"{\"size\":8381,\"mobile\":0,\"satellite\":0,\"tor\":0,\"tor_exit_nodes\":0,\"vpn\":81,\"relay\":0,\"proxy\":0,\"hosting\":904,\"service\":3}","uploaders":"{\"size\":318,\"mobile\":0,\"satellite\":0,\"tor\":0,\"tor_exit_nodes\":0,\"vpn\":1,\"relay\":0,\"proxy\":0,\"hosting\":30,\"service\":0}"},"geometry":{"type":"Point","coordinates":[126.70515,37.45646]}},{"type":"Feature","properties":{"country_code":"FRA","city":"Dunkerque","geoname_id":"3020686","downloaders":"{\"size\":8232,\"mobile\":7,\"satellite\":0,\"tor\":0,\"tor_exit_nodes\":0,\"vpn\":213,\"relay\":0,\"proxy\":0,\"hosting\":8179,\"service\":140}","uploaders":"{\"size\":624,\"mobile\":3,\"satellite\":0,\"tor\":0,\"tor_exit_nodes\":0,\"vpn\":8,\"relay\":0,\"proxy\":0,\"hosting\":616,\"service\":5}"},"geometry":{"type":"Point","coordinates":[2.37681,51.0344]}},{"type":"Feature","properties":{"country_code":"JPN","city":"Tokyo","geoname_id":"1850147","downloaders":"{\"size\":8222,\"mobile\":417,\"satellite\":0,\"tor\":1,\"tor_exit_nodes\":0,\"vpn\":1329,\"relay\":0,\"proxy\":13,\"hosting\":3034,\"service\":1254}","uploaders":"{\"size\":1178,\"mobile\":23,\"satellite\":0,\"tor\":0,\"tor_exit_nodes\":0,\"vpn\":302,\"relay\":0,\"proxy\":0,\"hosting\":795,\"service\":301}"},"geometry":{"type":"Point","coordinates":[139.69171,35.6895]}},{"type":"Feature","properties":{"country_code":"NLD","city":"Lelystad","geoname_id":"2751738","downloaders":"{\"size\":8159,\"mobile\":0,\"satellite\":0,\"tor\":1,\"tor_exit_nodes\":6,\"vpn\":1015,\"relay\":0,\"proxy\":0,\"hosting\":7880,\"service\":849}","uploaders":"{\"size\":715,\"mobile\":0,\"satellite\":0,\"tor\":0,\"tor_exit_nodes\":2,\"vpn\":219,\"relay\":0,\"proxy\":0,\"hosting\":669,\"service\":213}"},"geometry":{"type":"Point","coordinates":[5.475,52.50833]}},{"type":"Feature","properties":{"country_code":"RUS","city":"Kazan","geoname_id":"551487","downloaders":"{\"size\":8040,\"mobile\":1084,\"satellite\":0,\"tor\":0,\"tor_exit_nodes\":0,\"vpn\":41,\"relay\":0,\"proxy\":0,\"hosting\":30,\"service\":2}","uploaders":"{\"size\":859,\"mobile\":136,\"satellite\":0,\"tor\":0,\"tor_exit_nodes\":0,\"vpn\":0,\"relay\":0,\"proxy\":0,\"hosting\":1,\"service\":0}"},"geometry":{"type":"Point","coordinates":[49.12214,55.78874]}},{"type":"Feature","properties":{"country_code":"SWE","city":"Stockholm","geoname_id":"2673730","downloaders":"{\"size\":8020,\"mobile\":503,\"satellite\":0,\"tor\":19,\"tor_exit_nodes\":19,\"vpn\":3254,\"relay\":0,\"proxy\":2,\"hosting\":2996,\"service\":3131}","uploaders":"{\"size\":1477,\"mobile\":107,\"satellite\":0,\"tor\":2,\"tor_exit_nodes\":2,\"vpn\":715,\"relay\":0,\"proxy\":0,\"hosting\":586,\"service\":705}"},"geometry":{"type":"Point","coordinates":[18.06871,59.32938]}},{"type":"Feature","properties":{"country_code":"RUS","city":"Kemerovo","geoname_id":"1503901","downloaders":"{\"size\":7943,\"mobile\":25,\"satellite\":0,\"tor\":0,\"tor_exit_nodes\":0,\"vpn\":15,\"relay\":0,\"proxy\":0,\"hosting\":6,\"service\":9}","uploaders":"{\"size\":300,\"mobile\":3,\"satellite\":0,\"tor\":0,\"tor_exit_nodes\":0,\"vpn\":0,\"relay\":0,\"proxy\":0,\"hosting\":0,\"service\":0}"},"geometry":{"type":"Point","coordinates":[86.08333,55.33333]}},{"type":"Feature","properties":{"country_code":"LVA","city":"Riga","geoname_id":"456172","downloaders":"{\"size\":7760,\"mobile\":477,\"satellite\":0,\"tor\":0,\"tor_exit_nodes\":0,\"vpn\":642,\"relay\":19,\"proxy\":0,\"hosting\":1021,\"service\":583}","uploaders":"{\"size\":1857,\"mobile\":182,\"satellite\":0,\"tor\":0,\"tor_exit_nodes\":0,\"vpn\":197,\"relay\":0,\"proxy\":0,\"hosting\":245,\"service\":181}"},"geometry":{"type":"Point","coordinates":[24.10589,56.946]}},{"type":"Feature","properties":{"country_code":"ESP","city":"Madrid","geoname_id":"3117735","downloaders":"{\"size\":7730,\"mobile\":2144,\"satellite\":19,\"tor\":0,\"tor_exit_nodes\":0,\"vpn\":1983,\"relay\":0,\"proxy\":0,\"hosting\":2711,\"service\":1746}","uploaders":"{\"size\":1795,\"mobile\":475,\"satellite\":6,\"tor\":0,\"tor_exit_nodes\":0,\"vpn\":477,\"relay\":0,\"proxy\":0,\"hosting\":656,\"service\":440}"},"geometry":{"type":"Point","coordinates":[-3.7629,40.3749]}},{"type":"Feature","properties":{"country_code":"RUS","city":"Irkutsk","geoname_id":"2023469","downloaders":"{\"size\":7498,\"mobile\":322,\"satellite\":0,\"tor\":0,\"tor_exit_nodes\":0,\"vpn\":12,\"relay\":0,\"proxy\":0,\"hosting\":0,\"service\":0}","uploaders":"{\"size\":669,\"mobile\":46,\"satellite\":0,\"tor\":0,\"tor_exit_nodes\":0,\"vpn\":4,\"relay\":0,\"proxy\":0,\"hosting\":0,\"service\":0}"},"geometry":{"type":"Point","coordinates":[104.29585,52.29795]}},{"type":"Feature","properties":{"country_code":"IND","city":"Mumbai","geoname_id":"1275339","downloaders":"{\"size\":7447,\"mobile\":1568,\"satellite\":0,\"tor\":0,\"tor_exit_nodes\":0,\"vpn\":46,\"relay\":0,\"proxy\":0,\"hosting\":1477,\"service\":10}","uploaders":"{\"size\":2323,\"mobile\":424,\"satellite\":0,\"tor\":0,\"tor_exit_nodes\":0,\"vpn\":19,\"relay\":0,\"proxy\":0,\"hosting\":387,\"service\":3}"},"geometry":{"type":"Point","coordinates":[72.88261,19.07283]}},{"type":"Feature","properties":{"country_code":"USA","city":"The Dalles","geoname_id":"5756304","downloaders":"{\"size\":7402,\"mobile\":0,\"satellite\":0,\"tor\":0,\"tor_exit_nodes\":0,\"vpn\":0,\"relay\":0,\"proxy\":0,\"hosting\":7394,\"service\":0}","uploaders":"{\"size\":5498,\"mobile\":0,\"satellite\":0,\"tor\":0,\"tor_exit_nodes\":0,\"vpn\":0,\"relay\":0,\"proxy\":0,\"hosting\":5495,\"service\":0}"},"geometry":{"type":"Point","coordinates":[-121.17868,45.59456]}},{"type":"Feature","properties":{"country_code":"USA","city":"Seattle","geoname_id":"5809844","downloaders":"{\"size\":7360,\"mobile\":158,\"satellite\":7,\"tor\":0,\"tor_exit_nodes\":0,\"vpn\":1208,\"relay\":0,\"proxy\":0,\"hosting\":5534,\"service\":1170}","uploaders":"{\"size\":2272,\"mobile\":33,\"satellite\":2,\"tor\":0,\"tor_exit_nodes\":0,\"vpn\":376,\"relay\":0,\"proxy\":0,\"hosting\":1752,\"service\":364}"},"geometry":{"type":"Point","coordinates":[-122.3129,47.5413]}},{"type":"Feature","properties":{"country_code":"RUS","city":"Volgograd","geoname_id":"472757","downloaders":"{\"size\":7142,\"mobile\":164,\"satellite\":0,\"tor\":0,\"tor_exit_nodes\":0,\"vpn\":56,\"relay\":0,\"proxy\":0,\"hosting\":0,\"service\":2}","uploaders":"{\"size\":847,\"mobile\":26,\"satellite\":0,\"tor\":0,\"tor_exit_nodes\":0,\"vpn\":7,\"relay\":0,\"proxy\":0,\"hosting\":0,\"service\":2}"},"geometry":{"type":"Point","coordinates":[44.50183,48.71939]}},{"type":"Feature","properties":{"country_code":"RUS","city":"Tver","geoname_id":"480060","downloaders":"{\"size\":7132,\"mobile\":166,\"satellite\":0,\"tor\":0,\"tor_exit_nodes\":0,\"vpn\":85,\"relay\":0,\"proxy\":0,\"hosting\":20,\"service\":15}","uploaders":"{\"size\":548,\"mobile\":8,\"satellite\":0,\"tor\":0,\"tor_exit_nodes\":0,\"vpn\":6,\"relay\":0,\"proxy\":0,\"hosting\":0,\"service\":2}"},"geometry":{"type":"Point","coordinates":[35.90057,56.85836]}},{"type":"Feature","properties":{"country_code":"RUS","city":"Tula","geoname_id":"480562","downloaders":"{\"size\":6847,\"mobile\":1327,\"satellite\":0,\"tor\":0,\"tor_exit_nodes\":0,\"vpn\":34,\"relay\":0,\"proxy\":0,\"hosting\":171,\"service\":0}","uploaders":"{\"size\":554,\"mobile\":201,\"satellite\":0,\"tor\":0,\"tor_exit_nodes\":0,\"vpn\":2,\"relay\":0,\"proxy\":0,\"hosting\":4,\"service\":0}"},"geometry":{"type":"Point","coordinates":[37.61822,54.19609]}},{"type":"Feature","properties":{"country_code":"RUS","city":"Khimki","geoname_id":"550280","downloaders":"{\"size\":6684,\"mobile\":0,\"satellite\":2,\"tor\":0,\"tor_exit_nodes\":0,\"vpn\":388,\"relay\":0,\"proxy\":0,\"hosting\":1557,\"service\":128}","uploaders":"{\"size\":486,\"mobile\":0,\"satellite\":0,\"tor\":0,\"tor_exit_nodes\":0,\"vpn\":32,\"relay\":0,\"proxy\":0,\"hosting\":133,\"service\":21}"},"geometry":{"type":"Point","coordinates":[37.42848,55.9001]}},{"type":"Feature","properties":{"country_code":"ITA","city":"Milan","geoname_id":"3173435","downloaders":"{\"size\":6680,\"mobile\":3160,\"satellite\":0,\"tor\":0,\"tor_exit_nodes\":0,\"vpn\":615,\"relay\":0,\"proxy\":0,\"hosting\":924,\"service\":592}","uploaders":"{\"size\":1851,\"mobile\":916,\"satellite\":0,\"tor\":0,\"tor_exit_nodes\":0,\"vpn\":129,\"relay\":0,\"proxy\":0,\"hosting\":190,\"service\":128}"},"geometry":{"type":"Point","coordinates":[9.18951,45.46427]}},{"type":"Feature","properties":{"country_code":"MAR","city":"Casablanca","geoname_id":"2553604","downloaders":"{\"size\":6667,\"mobile\":2920,\"satellite\":0,\"tor\":0,\"tor_exit_nodes\":0,\"vpn\":13,\"relay\":0,\"proxy\":0,\"hosting\":1,\"service\":0}","uploaders":"{\"size\":2819,\"mobile\":1040,\"satellite\":0,\"tor\":0,\"tor_exit_nodes\":0,\"vpn\":8,\"relay\":0,\"proxy\":0,\"hosting\":0,\"service\":0}"},"geometry":{"type":"Point","coordinates":[-7.61138,33.58831]}},{"type":"Feature","properties":{"country_code":"CHE","city":"Zürich","geoname_id":"2657896","downloaders":"{\"size\":6655,\"mobile\":1193,\"satellite\":0,\"tor\":21,\"tor_exit_nodes\":5,\"vpn\":2785,\"relay\":1,\"proxy\":5,\"hosting\":3312,\"service\":2719}","uploaders":"{\"size\":1899,\"mobile\":473,\"satellite\":0,\"tor\":4,\"tor_exit_nodes\":0,\"vpn\":655,\"relay\":0,\"proxy\":0,\"hosting\":825,\"service\":640}"},"geometry":{"type":"Point","coordinates":[8.55,47.36667]}},{"type":"Feature","properties":{"country_code":"ISR","city":"Tel Aviv","geoname_id":"293397","downloaders":"{\"size\":6614,\"mobile\":1693,\"satellite\":0,\"tor\":0,\"tor_exit_nodes\":0,\"vpn\":57,\"relay\":0,\"proxy\":0,\"hosting\":189,\"service\":24}","uploaders":"{\"size\":2523,\"mobile\":608,\"satellite\":0,\"tor\":0,\"tor_exit_nodes\":0,\"vpn\":10,\"relay\":0,\"proxy\":0,\"hosting\":76,\"service\":5}"},"geometry":{"type":"Point","coordinates":[34.78057,32.08088]}},{"type":"Feature","properties":{"country_code":"NGA","city":"Lagos","geoname_id":"2332459","downloaders":"{\"size\":6556,\"mobile\":3054,\"satellite\":0,\"tor\":0,\"tor_exit_nodes\":0,\"vpn\":67,\"relay\":0,\"proxy\":6,\"hosting\":334,\"service\":0}","uploaders":"{\"size\":2424,\"mobile\":1157,\"satellite\":0,\"tor\":0,\"tor_exit_nodes\":0,\"vpn\":34,\"relay\":0,\"proxy\":0,\"hosting\":102,\"service\":0}"},"geometry":{"type":"Point","coordinates":[3.39467,6.45407]}},{"type":"Feature","properties":{"country_code":"IND","city":"Delhi","geoname_id":"1273294","downloaders":"{\"size\":6548,\"mobile\":2414,\"satellite\":0,\"tor\":0,\"tor_exit_nodes\":0,\"vpn\":14,\"relay\":0,\"proxy\":0,\"hosting\":177,\"service\":3}","uploaders":"{\"size\":1890,\"mobile\":727,\"satellite\":0,\"tor\":0,\"tor_exit_nodes\":0,\"vpn\":3,\"relay\":0,\"proxy\":0,\"hosting\":33,\"service\":0}"},"geometry":{"type":"Point","coordinates":[77.23149,28.65195]}},{"type":"Feature","properties":{"country_code":"ZAF","city":"Centurion","geoname_id":"1105777","downloaders":"{\"size\":6514,\"mobile\":6353,\"satellite\":0,\"tor\":0,\"tor_exit_nodes\":0,\"vpn\":0,\"relay\":0,\"proxy\":0,\"hosting\":6,\"service\":0}","uploaders":"{\"size\":2589,\"mobile\":2526,\"satellite\":0,\"tor\":0,\"tor_exit_nodes\":0,\"vpn\":0,\"relay\":0,\"proxy\":0,\"hosting\":2,\"service\":0}"},"geometry":{"type":"Point","coordinates":[28.20559,-25.80489]}},{"type":"Feature","properties":{"country_code":"RUS","city":"Balashikha","geoname_id":"579464","downloaders":"{\"size\":6500,\"mobile\":47,\"satellite\":0,\"tor\":0,\"tor_exit_nodes\":0,\"vpn\":183,\"relay\":0,\"proxy\":0,\"hosting\":230,\"service\":28}","uploaders":"{\"size\":524,\"mobile\":5,\"satellite\":0,\"tor\":0,\"tor_exit_nodes\":0,\"vpn\":14,\"relay\":0,\"proxy\":0,\"hosting\":25,\"service\":4}"},"geometry":{"type":"Point","coordinates":[37.94794,55.79479]}},{"type":"Feature","properties":{"country_code":"BRA","city":"São Paulo","geoname_id":"3448439","downloaders":"{\"size\":6487,\"mobile\":924,\"satellite\":0,\"tor\":0,\"tor_exit_nodes\":0,\"vpn\":617,\"relay\":0,\"proxy\":0,\"hosting\":1987,\"service\":563}","uploaders":"{\"size\":1963,\"mobile\":250,\"satellite\":0,\"tor\":0,\"tor_exit_nodes\":0,\"vpn\":188,\"relay\":0,\"proxy\":0,\"hosting\":743,\"service\":176}"},"geometry":{"type":"Point","coordinates":[-46.63611,-23.5475]}},{"type":"Feature","properties":{"country_code":"RUS","city":"Yaroslavl","geoname_id":"468902","downloaders":"{\"size\":6407,\"mobile\":981,\"satellite\":0,\"tor\":0,\"tor_exit_nodes\":0,\"vpn\":29,\"relay\":0,\"proxy\":0,\"hosting\":1,\"service\":0}","uploaders":"{\"size\":553,\"mobile\":77,\"satellite\":0,\"tor\":0,\"tor_exit_nodes\":0,\"vpn\":2,\"relay\":0,\"proxy\":0,\"hosting\":0,\"service\":0}"},"geometry":{"type":"Point","coordinates":[39.87368,57.62987]}},{"type":"Feature","properties":{"country_code":"RUS","city":"Lipetsk","geoname_id":"535121","downloaders":"{\"size\":6296,\"mobile\":489,\"satellite\":0,\"tor\":0,\"tor_exit_nodes\":0,\"vpn\":45,\"relay\":0,\"proxy\":0,\"hosting\":0,\"service\":2}","uploaders":"{\"size\":436,\"mobile\":101,\"satellite\":0,\"tor\":0,\"tor_exit_nodes\":0,\"vpn\":0,\"relay\":0,\"proxy\":0,\"hosting\":0,\"service\":0}"},"geometry":{"type":"Point","coordinates":[39.57076,52.60311]}},{"type":"Feature","properties":{"country_code":"IRL","city":"Dublin","geoname_id":"2964574","downloaders":"{\"size\":6223,\"mobile\":1119,\"satellite\":0,\"tor\":0,\"tor_exit_nodes\":0,\"vpn\":963,\"relay\":0,\"proxy\":0,\"hosting\":1803,\"service\":899}","uploaders":"{\"size\":2217,\"mobile\":484,\"satellite\":0,\"tor\":0,\"tor_exit_nodes\":0,\"vpn\":236,\"relay\":0,\"proxy\":0,\"hosting\":480,\"service\":219}"},"geometry":{"type":"Point","coordinates":[-6.24889,53.33306]}},{"type":"Feature","properties":{"country_code":"POL","city":"Warsaw","geoname_id":"756135","downloaders":"{\"size\":5985,\"mobile\":575,\"satellite\":0,\"tor\":0,\"tor_exit_nodes\":0,\"vpn\":697,\"relay\":0,\"proxy\":0,\"hosting\":1550,\"service\":632}","uploaders":"{\"size\":1200,\"mobile\":155,\"satellite\":0,\"tor\":0,\"tor_exit_nodes\":0,\"vpn\":117,\"relay\":0,\"proxy\":0,\"hosting\":219,\"service\":111}"},"geometry":{"type":"Point","coordinates":[21.01178,52.22977]}},{"type":"Feature","properties":{"country_code":"USA","city":"Chicago","geoname_id":"4887398","downloaders":"{\"size\":5723,\"mobile\":1049,\"satellite\":5,\"tor\":0,\"tor_exit_nodes\":4,\"vpn\":2154,\"relay\":2,\"proxy\":24,\"hosting\":2859,\"service\":2121}","uploaders":"{\"size\":1160,\"mobile\":277,\"satellite\":2,\"tor\":0,\"tor_exit_nodes\":0,\"vpn\":547,\"relay\":0,\"proxy\":0,\"hosting\":693,\"service\":533}"},"geometry":{"type":"Point","coordinates":[-87.65005,41.85003]}},{"type":"Feature","properties":{"country_code":"CHN","city":"Nanjing","geoname_id":"1799962","downloaders":"{\"size\":5698,\"mobile\":0,\"satellite\":0,\"tor\":0,\"tor_exit_nodes\":0,\"vpn\":78,\"relay\":0,\"proxy\":0,\"hosting\":29,\"service\":0}","uploaders":"{\"size\":890,\"mobile\":0,\"satellite\":0,\"tor\":0,\"tor_exit_nodes\":0,\"vpn\":7,\"relay\":0,\"proxy\":0,\"hosting\":0,\"service\":0}"},"geometry":{"type":"Point","coordinates":[118.77778,32.06167]}},{"type":"Feature","properties":{"country_code":"TWN","city":"Taipei","geoname_id":"1668341","downloaders":"{\"size\":5610,\"mobile\":482,\"satellite\":0,\"tor\":0,\"tor_exit_nodes\":0,\"vpn\":111,\"relay\":0,\"proxy\":0,\"hosting\":129,\"service\":16}","uploaders":"{\"size\":711,\"mobile\":139,\"satellite\":0,\"tor\":0,\"tor_exit_nodes\":0,\"vpn\":14,\"relay\":0,\"proxy\":0,\"hosting\":11,\"service\":6}"},"geometry":{"type":"Point","coordinates":[121.52639,25.05306]}},{"type":"Feature","properties":{"country_code":"SVN","city":"Ljubljana","geoname_id":"3196359","downloaders":"{\"size\":5581,\"mobile\":1401,\"satellite\":0,\"tor\":0,\"tor_exit_nodes\":0,\"vpn\":286,\"relay\":0,\"proxy\":0,\"hosting\":252,\"service\":213}","uploaders":"{\"size\":1533,\"mobile\":468,\"satellite\":0,\"tor\":0,\"tor_exit_nodes\":0,\"vpn\":54,\"relay\":0,\"proxy\":0,\"hosting\":58,\"service\":42}"},"geometry":{"type":"Point","coordinates":[14.50513,46.05108]}},{"type":"Feature","properties":{"country_code":"AUS","city":"Brisbane","geoname_id":"2174003","downloaders":"{\"size\":5406,\"mobile\":719,\"satellite\":0,\"tor\":0,\"tor_exit_nodes\":0,\"vpn\":1425,\"relay\":0,\"proxy\":0,\"hosting\":1503,\"service\":1344}","uploaders":"{\"size\":2085,\"mobile\":228,\"satellite\":0,\"tor\":0,\"tor_exit_nodes\":0,\"vpn\":538,\"relay\":0,\"proxy\":0,\"hosting\":546,\"service\":506}"},"geometry":{"type":"Point","coordinates":[153.02809,-27.46794]}},{"type":"Feature","properties":{"country_code":"FRA","city":"Calais","geoname_id":"3029162","downloaders":"{\"size\":5355,\"mobile\":5,\"satellite\":0,\"tor\":1,\"tor_exit_nodes\":4,\"vpn\":93,\"relay\":0,\"proxy\":4,\"hosting\":5328,\"service\":16}","uploaders":"{\"size\":257,\"mobile\":1,\"satellite\":0,\"tor\":0,\"tor_exit_nodes\":0,\"vpn\":1,\"relay\":0,\"proxy\":0,\"hosting\":256,\"service\":0}"},"geometry":{"type":"Point","coordinates":[1.85635,50.95194]}},{"type":"Feature","properties":{"country_code":"LTU","city":"Vilnius","geoname_id":"593116","downloaders":"{\"size\":5347,\"mobile\":511,\"satellite\":0,\"tor\":0,\"tor_exit_nodes\":0,\"vpn\":300,\"relay\":2,\"proxy\":0,\"hosting\":1002,\"service\":248}","uploaders":"{\"size\":1097,\"mobile\":159,\"satellite\":0,\"tor\":0,\"tor_exit_nodes\":0,\"vpn\":25,\"relay\":0,\"proxy\":0,\"hosting\":109,\"service\":15}"},"geometry":{"type":"Point","coordinates":[25.2798,54.68916]}},{"type":"Feature","properties":{"country_code":"RUS","city":"Cheboksary","geoname_id":"569696","downloaders":"{\"size\":5258,\"mobile\":455,\"satellite\":0,\"tor\":0,\"tor_exit_nodes\":0,\"vpn\":16,\"relay\":0,\"proxy\":0,\"hosting\":0,\"service\":2}","uploaders":"{\"size\":423,\"mobile\":52,\"satellite\":0,\"tor\":0,\"tor_exit_nodes\":0,\"vpn\":0,\"relay\":0,\"proxy\":0,\"hosting\":0,\"service\":0}"},"geometry":{"type":"Point","coordinates":[47.25194,56.13222]}},{"type":"Feature","properties":{"country_code":"RUS","city":"Odintsovo","geoname_id":"516215","downloaders":"{\"size\":5198,\"mobile\":0,\"satellite\":0,\"tor\":0,\"tor_exit_nodes\":0,\"vpn\":55,\"relay\":0,\"proxy\":0,\"hosting\":12,\"service\":0}","uploaders":"{\"size\":453,\"mobile\":0,\"satellite\":0,\"tor\":0,\"tor_exit_nodes\":0,\"vpn\":6,\"relay\":0,\"proxy\":0,\"hosting\":1,\"service\":0}"},"geometry":{"type":"Point","coordinates":[37.27716,55.66977]}},{"type":"Feature","properties":{"country_code":"RUS","city":"Ulyanovsk","geoname_id":"479123","downloaders":"{\"size\":5113,\"mobile\":220,\"satellite\":0,\"tor\":0,\"tor_exit_nodes\":0,\"vpn\":24,\"relay\":0,\"proxy\":0,\"hosting\":0,\"service\":1}","uploaders":"{\"size\":497,\"mobile\":12,\"satellite\":0,\"tor\":0,\"tor_exit_nodes\":0,\"vpn\":0,\"relay\":0,\"proxy\":0,\"hosting\":0,\"service\":0}"},"geometry":{"type":"Point","coordinates":[48.38657,54.32824]}},{"type":"Feature","properties":{"country_code":"KAZ","city":"Almaty","geoname_id":"1526384","downloaders":"{\"size\":5085,\"mobile\":764,\"satellite\":0,\"tor\":0,\"tor_exit_nodes\":0,\"vpn\":21,\"relay\":0,\"proxy\":0,\"hosting\":189,\"service\":4}","uploaders":"{\"size\":1134,\"mobile\":217,\"satellite\":0,\"tor\":0,\"tor_exit_nodes\":0,\"vpn\":5,\"relay\":0,\"proxy\":0,\"hosting\":32,\"service\":3}"},"geometry":{"type":"Point","coordinates":[76.9115,43.25249]}},{"type":"Feature","properties":{"country_code":"GRC","city":"Athens","geoname_id":"264371","downloaders":"{\"size\":5083,\"mobile\":821,\"satellite\":0,\"tor\":0,\"tor_exit_nodes\":0,\"vpn\":126,\"relay\":1,\"proxy\":0,\"hosting\":374,\"service\":113}","uploaders":"{\"size\":2161,\"mobile\":298,\"satellite\":0,\"tor\":0,\"tor_exit_nodes\":0,\"vpn\":65,\"relay\":0,\"proxy\":0,\"hosting\":123,\"service\":60}"},"geometry":{"type":"Point","coordinates":[23.72784,37.98376]}},{"type":"Feature","properties":{"country_code":"RUS","city":"Khabarovsk","geoname_id":"2022890","downloaders":"{\"size\":5075,\"mobile\":603,\"satellite\":19,\"tor\":0,\"tor_exit_nodes\":0,\"vpn\":90,\"relay\":0,\"proxy\":0,\"hosting\":8,\"service\":86}","uploaders":"{\"size\":1033,\"mobile\":76,\"satellite\":3,\"tor\":0,\"tor_exit_nodes\":0,\"vpn\":31,\"relay\":0,\"proxy\":0,\"hosting\":0,\"service\":31}"},"geometry":{"type":"Point","coordinates":[135.08822,48.48032]}},{"type":"Feature","properties":{"country_code":"ETH","city":"Addis Ababa","geoname_id":"344979","downloaders":"{\"size\":5049,\"mobile\":2300,\"satellite\":0,\"tor\":0,\"tor_exit_nodes\":0,\"vpn\":9,\"relay\":0,\"proxy\":0,\"hosting\":0,\"service\":0}","uploaders":"{\"size\":2938,\"mobile\":1268,\"satellite\":0,\"tor\":0,\"tor_exit_nodes\":0,\"vpn\":4,\"relay\":0,\"proxy\":0,\"hosting\":0,\"service\":0}"},"geometry":{"type":"Point","coordinates":[38.74689,9.02497]}},{"type":"Feature","properties":{"country_code":"BGD","city":"Dhaka","geoname_id":"1185241","downloaders":"{\"size\":4891,\"mobile\":486,\"satellite\":0,\"tor\":0,\"tor_exit_nodes\":0,\"vpn\":74,\"relay\":0,\"proxy\":0,\"hosting\":241,\"service\":4}","uploaders":"{\"size\":1461,\"mobile\":103,\"satellite\":0,\"tor\":0,\"tor_exit_nodes\":0,\"vpn\":25,\"relay\":0,\"proxy\":0,\"hosting\":49,\"service\":0}"},"geometry":{"type":"Point","coordinates":[90.40744,23.7104]}},{"type":"Feature","properties":{"country_code":"RUS","city":"Bryansk","geoname_id":"571476","downloaders":"{\"size\":4852,\"mobile\":0,\"satellite\":0,\"tor\":0,\"tor_exit_nodes\":0,\"vpn\":18,\"relay\":0,\"proxy\":0,\"hosting\":0,\"service\":1}","uploaders":"{\"size\":261,\"mobile\":0,\"satellite\":0,\"tor\":0,\"tor_exit_nodes\":0,\"vpn\":0,\"relay\":0,\"proxy\":0,\"hosting\":0,\"service\":0}"},"geometry":{"type":"Point","coordinates":[34.37167,53.25209]}},{"type":"Feature","properties":{"country_code":"NAM","city":"Windhoek","geoname_id":"3352136","downloaders":"{\"size\":4840,\"mobile\":1584,\"satellite\":0,\"tor\":0,\"tor_exit_nodes\":0,\"vpn\":4,\"relay\":0,\"proxy\":0,\"hosting\":72,\"service\":0}","uploaders":"{\"size\":1811,\"mobile\":486,\"satellite\":0,\"tor\":0,\"tor_exit_nodes\":0,\"vpn\":3,\"relay\":0,\"proxy\":0,\"hosting\":49,\"service\":0}"},"geometry":{"type":"Point","coordinates":[17.08323,-22.55941]}},{"type":"Feature","properties":{"country_code":"RUS","city":"Kaliningrad","geoname_id":"554234","downloaders":"{\"size\":4831,\"mobile\":186,\"satellite\":0,\"tor\":0,\"tor_exit_nodes\":0,\"vpn\":15,\"relay\":0,\"proxy\":0,\"hosting\":43,\"service\":0}","uploaders":"{\"size\":1045,\"mobile\":7,\"satellite\":0,\"tor\":0,\"tor_exit_nodes\":0,\"vpn\":3,\"relay\":0,\"proxy\":0,\"hosting\":2,\"service\":0}"},"geometry":{"type":"Point","coordinates":[20.51095,54.70649]}},{"type":"Feature","properties":{"country_code":"BEL","city":"Brussels","geoname_id":"2800866","downloaders":"{\"size\":4822,\"mobile\":544,\"satellite\":0,\"tor\":0,\"tor_exit_nodes\":0,\"vpn\":151,\"relay\":0,\"proxy\":8,\"hosting\":508,\"service\":107}","uploaders":"{\"size\":1650,\"mobile\":283,\"satellite\":0,\"tor\":0,\"tor_exit_nodes\":0,\"vpn\":17,\"relay\":0,\"proxy\":2,\"hosting\":91,\"service\":13}"},"geometry":{"type":"Point","coordinates":[4.34878,50.85045]}},{"type":"Feature","properties":{"country_code":"NZL","city":"Auckland","geoname_id":"2193733","downloaders":"{\"size\":4800,\"mobile\":1847,\"satellite\":0,\"tor\":0,\"tor_exit_nodes\":0,\"vpn\":1228,\"relay\":0,\"proxy\":0,\"hosting\":1255,\"service\":1214}","uploaders":"{\"size\":1499,\"mobile\":691,\"satellite\":0,\"tor\":0,\"tor_exit_nodes\":0,\"vpn\":241,\"relay\":0,\"proxy\":0,\"hosting\":252,\"service\":238}"},"geometry":{"type":"Point","coordinates":[174.76349,-36.84853]}},{"type":"Feature","properties":{"country_code":"RUS","city":"Vladivostok","geoname_id":"2013348","downloaders":"{\"size\":4796,\"mobile\":215,\"satellite\":1,\"tor\":0,\"tor_exit_nodes\":0,\"vpn\":608,\"relay\":0,\"proxy\":0,\"hosting\":36,\"service\":301}","uploaders":"{\"size\":928,\"mobile\":12,\"satellite\":1,\"tor\":0,\"tor_exit_nodes\":0,\"vpn\":111,\"relay\":0,\"proxy\":0,\"hosting\":12,\"service\":73}"},"geometry":{"type":"Point","coordinates":[131.87353,43.10562]}},{"type":"Feature","properties":{"country_code":"RUS","city":"Kirov","geoname_id":"548408","downloaders":"{\"size\":4698,\"mobile\":11,\"satellite\":0,\"tor\":0,\"tor_exit_nodes\":0,\"vpn\":247,\"relay\":0,\"proxy\":0,\"hosting\":0,\"service\":229}","uploaders":"{\"size\":450,\"mobile\":3,\"satellite\":0,\"tor\":0,\"tor_exit_nodes\":0,\"vpn\":32,\"relay\":0,\"proxy\":0,\"hosting\":0,\"service\":32}"},"geometry":{"type":"Point","coordinates":[49.66007,58.59665]}},{"type":"Feature","properties":{"country_code":"RUS","city":"Ivanovo","geoname_id":"555312","downloaders":"{\"size\":4673,\"mobile\":328,\"satellite\":0,\"tor\":0,\"tor_exit_nodes\":0,\"vpn\":49,\"relay\":0,\"proxy\":0,\"hosting\":0,\"service\":2}","uploaders":"{\"size\":337,\"mobile\":51,\"satellite\":0,\"tor\":0,\"tor_exit_nodes\":0,\"vpn\":2,\"relay\":0,\"proxy\":0,\"hosting\":0,\"service\":2}"},"geometry":{"type":"Point","coordinates":[40.97139,56.99719]}},{"type":"Feature","properties":{"country_code":"KOR","city":"Busan","geoname_id":"1838524","downloaders":"{\"size\":4569,\"mobile\":29,\"satellite\":0,\"tor\":0,\"tor_exit_nodes\":0,\"vpn\":21,\"relay\":0,\"proxy\":0,\"hosting\":0,\"service\":9}","uploaders":"{\"size\":288,\"mobile\":1,\"satellite\":0,\"tor\":0,\"tor_exit_nodes\":0,\"vpn\":2,\"relay\":0,\"proxy\":0,\"hosting\":0,\"service\":2}"},"geometry":{"type":"Point","coordinates":[129.03004,35.10168]}},{"type":"Feature","properties":{"country_code":"MKD","city":"Skopje","geoname_id":"785842","downloaders":"{\"size\":4568,\"mobile\":662,\"satellite\":0,\"tor\":0,\"tor_exit_nodes\":0,\"vpn\":45,\"relay\":0,\"proxy\":0,\"hosting\":24,\"service\":5}","uploaders":"{\"size\":2073,\"mobile\":233,\"satellite\":0,\"tor\":0,\"tor_exit_nodes\":0,\"vpn\":21,\"relay\":0,\"proxy\":0,\"hosting\":7,\"service\":1}"},"geometry":{"type":"Point","coordinates":[21.43141,41.99646]}},{"type":"Feature","properties":{"country_code":"IND","city":"Ludhiana","geoname_id":"1264728","downloaders":"{\"size\":4525,\"mobile\":77,\"satellite\":0,\"tor\":0,\"tor_exit_nodes\":0,\"vpn\":0,\"relay\":0,\"proxy\":0,\"hosting\":4,\"service\":0}","uploaders":"{\"size\":209,\"mobile\":23,\"satellite\":0,\"tor\":0,\"tor_exit_nodes\":0,\"vpn\":0,\"relay\":0,\"proxy\":0,\"hosting\":2,\"service\":0}"},"geometry":{"type":"Point","coordinates":[75.85379,30.91204]}},{"type":"Feature","properties":{"country_code":"IDN","city":"Jakarta","geoname_id":"1642911","downloaders":"{\"size\":4520,\"mobile\":2282,\"satellite\":0,\"tor\":0,\"tor_exit_nodes\":0,\"vpn\":50,\"relay\":0,\"proxy\":0,\"hosting\":458,\"service\":2}","uploaders":"{\"size\":1397,\"mobile\":535,\"satellite\":0,\"tor\":0,\"tor_exit_nodes\":0,\"vpn\":6,\"relay\":0,\"proxy\":0,\"hosting\":121,\"service\":0}"},"geometry":{"type":"Point","coordinates":[106.8269,-6.1778]}},{"type":"Feature","properties":{"country_code":"RUS","city":"Ryazan’","geoname_id":"500096","downloaders":"{\"size\":4367,\"mobile\":179,\"satellite\":0,\"tor\":0,\"tor_exit_nodes\":0,\"vpn\":79,\"relay\":0,\"proxy\":0,\"hosting\":11,\"service\":25}","uploaders":"{\"size\":704,\"mobile\":5,\"satellite\":0,\"tor\":0,\"tor_exit_nodes\":0,\"vpn\":19,\"relay\":0,\"proxy\":0,\"hosting\":1,\"service\":12}"},"geometry":{"type":"Point","coordinates":[39.6916,54.6269]}},{"type":"Feature","properties":{"country_code":"RUS","city":"Penza","geoname_id":"511565","downloaders":"{\"size\":4311,\"mobile\":331,\"satellite\":0,\"tor\":0,\"tor_exit_nodes\":0,\"vpn\":62,\"relay\":0,\"proxy\":0,\"hosting\":0,\"service\":2}","uploaders":"{\"size\":455,\"mobile\":44,\"satellite\":0,\"tor\":0,\"tor_exit_nodes\":0,\"vpn\":2,\"relay\":0,\"proxy\":0,\"hosting\":0,\"service\":0}"},"geometry":{"type":"Point","coordinates":[45.00464,53.20066]}},{"type":"Feature","properties":{"country_code":"AUS","city":"Perth","geoname_id":"2063523","downloaders":"{\"size\":4300,\"mobile\":324,\"satellite\":0,\"tor\":0,\"tor_exit_nodes\":0,\"vpn\":1449,\"relay\":0,\"proxy\":0,\"hosting\":1533,\"service\":1407}","uploaders":"{\"size\":1787,\"mobile\":137,\"satellite\":0,\"tor\":0,\"tor_exit_nodes\":0,\"vpn\":588,\"relay\":0,\"proxy\":0,\"hosting\":620,\"service\":583}"},"geometry":{"type":"Point","coordinates":[115.8614,-31.95224]}},{"type":"Feature","properties":{"country_code":"CZE","city":"Prague","geoname_id":"3067696","downloaders":"{\"size\":4295,\"mobile\":177,\"satellite\":2,\"tor\":0,\"tor_exit_nodes\":0,\"vpn\":1047,\"relay\":0,\"proxy\":0,\"hosting\":1932,\"service\":976}","uploaders":"{\"size\":1013,\"mobile\":79,\"satellite\":0,\"tor\":0,\"tor_exit_nodes\":0,\"vpn\":315,\"relay\":0,\"proxy\":0,\"hosting\":387,\"service\":299}"},"geometry":{"type":"Point","coordinates":[14.42076,50.08804]}},{"type":"Feature","properties":{"country_code":"PAK","city":"Islamabad","geoname_id":"1176615","downloaders":"{\"size\":4255,\"mobile\":602,\"satellite\":0,\"tor\":0,\"tor_exit_nodes\":0,\"vpn\":2,\"relay\":0,\"proxy\":0,\"hosting\":20,\"service\":0}","uploaders":"{\"size\":2062,\"mobile\":161,\"satellite\":0,\"tor\":0,\"tor_exit_nodes\":0,\"vpn\":1,\"relay\":0,\"proxy\":0,\"hosting\":11,\"service\":0}"},"geometry":{"type":"Point","coordinates":[73.04329,33.72148]}},{"type":"Feature","properties":{"country_code":"PHL","city":"Quezon City","geoname_id":"1692192","downloaders":"{\"size\":4209,\"mobile\":1347,\"satellite\":0,\"tor\":0,\"tor_exit_nodes\":0,\"vpn\":21,\"relay\":0,\"proxy\":0,\"hosting\":3,\"service\":0}","uploaders":"{\"size\":1384,\"mobile\":451,\"satellite\":0,\"tor\":0,\"tor_exit_nodes\":0,\"vpn\":4,\"relay\":0,\"proxy\":0,\"hosting\":0,\"service\":0}"},"geometry":{"type":"Point","coordinates":[121.0509,14.6488]}},{"type":"Feature","properties":{"country_code":"RUS","city":"Novokuznetsk","geoname_id":"1496990","downloaders":"{\"size\":4173,\"mobile\":7,\"satellite\":0,\"tor\":0,\"tor_exit_nodes\":0,\"vpn\":23,\"relay\":0,\"proxy\":0,\"hosting\":8,\"service\":2}","uploaders":"{\"size\":206,\"mobile\":0,\"satellite\":0,\"tor\":0,\"tor_exit_nodes\":0,\"vpn\":0,\"relay\":0,\"proxy\":0,\"hosting\":0,\"service\":0}"},"geometry":{"type":"Point","coordinates":[87.13599,53.75752]}},{"type":"Feature","properties":{"country_code":"UGA","city":"Kampala","geoname_id":"232422","downloaders":"{\"size\":4142,\"mobile\":1587,\"satellite\":0,\"tor\":0,\"tor_exit_nodes\":0,\"vpn\":22,\"relay\":0,\"proxy\":0,\"hosting\":55,\"service\":0}","uploaders":"{\"size\":1603,\"mobile\":563,\"satellite\":0,\"tor\":0,\"tor_exit_nodes\":0,\"vpn\":8,\"relay\":0,\"proxy\":0,\"hosting\":27,\"service\":0}"},"geometry":{"type":"Point","coordinates":[32.58219,0.31628]}},{"type":"Feature","properties":{"country_code":"TZA","city":"Dar es Salaam","geoname_id":"160263","downloaders":"{\"size\":4120,\"mobile\":1681,\"satellite\":0,\"tor\":0,\"tor_exit_nodes\":0,\"vpn\":101,\"relay\":0,\"proxy\":0,\"hosting\":236,\"service\":0}","uploaders":"{\"size\":1580,\"mobile\":624,\"satellite\":0,\"tor\":0,\"tor_exit_nodes\":0,\"vpn\":53,\"relay\":0,\"proxy\":0,\"hosting\":80,\"service\":0}"},"geometry":{"type":"Point","coordinates":[39.26951,-6.82349]}},{"type":"Feature","properties":{"country_code":"RUS","city":"Noginsk","geoname_id":"520068","downloaders":"{\"size\":4107,\"mobile\":2,\"satellite\":0,\"tor\":0,\"tor_exit_nodes\":0,\"vpn\":117,\"relay\":0,\"proxy\":0,\"hosting\":8,\"service\":78}","uploaders":"{\"size\":366,\"mobile\":0,\"satellite\":0,\"tor\":0,\"tor_exit_nodes\":0,\"vpn\":5,\"relay\":0,\"proxy\":0,\"hosting\":0,\"service\":5}"},"geometry":{"type":"Point","coordinates":[38.44853,55.86486]}},{"type":"Feature","properties":{"country_code":"RUS","city":"Orenburg","geoname_id":"515003","downloaders":"{\"size\":4048,\"mobile\":18,\"satellite\":0,\"tor\":0,\"tor_exit_nodes\":0,\"vpn\":104,\"relay\":0,\"proxy\":0,\"hosting\":0,\"service\":75}","uploaders":"{\"size\":366,\"mobile\":0,\"satellite\":0,\"tor\":0,\"tor_exit_nodes\":0,\"vpn\":11,\"relay\":0,\"proxy\":0,\"hosting\":0,\"service\":11}"},"geometry":{"type":"Point","coordinates":[55.0988,51.7727]}},{"type":"Feature","properties":{"country_code":"CAN","city":"Vancouver","geoname_id":"6173331","downloaders":"{\"size\":4028,\"mobile\":271,\"satellite\":3,\"tor\":0,\"tor_exit_nodes\":0,\"vpn\":1250,\"relay\":0,\"proxy\":0,\"hosting\":2752,\"service\":1223}","uploaders":"{\"size\":1001,\"mobile\":59,\"satellite\":1,\"tor\":0,\"tor_exit_nodes\":0,\"vpn\":324,\"relay\":0,\"proxy\":0,\"hosting\":700,\"service\":322}"},"geometry":{"type":"Point","coordinates":[-123.1298,49.2833]}},{"type":"Feature","properties":{"country_code":"RUS","city":"Vladimir","geoname_id":"473247","downloaders":"{\"size\":4012,\"mobile\":176,\"satellite\":0,\"tor\":0,\"tor_exit_nodes\":0,\"vpn\":11,\"relay\":0,\"proxy\":0,\"hosting\":0,\"service\":0}","uploaders":"{\"size\":279,\"mobile\":13,\"satellite\":0,\"tor\":0,\"tor_exit_nodes\":0,\"vpn\":0,\"relay\":0,\"proxy\":0,\"hosting\":0,\"service\":0}"},"geometry":{"type":"Point","coordinates":[40.39658,56.13655]}},{"type":"Feature","properties":{"country_code":"KOR","city":"Daegu","geoname_id":"1835329","downloaders":"{\"size\":3997,\"mobile\":126,\"satellite\":0,\"tor\":0,\"tor_exit_nodes\":0,\"vpn\":28,\"relay\":0,\"proxy\":0,\"hosting\":68,\"service\":9}","uploaders":"{\"size\":222,\"mobile\":22,\"satellite\":0,\"tor\":0,\"tor_exit_nodes\":0,\"vpn\":4,\"relay\":0,\"proxy\":0,\"hosting\":5,\"service\":2}"},"geometry":{"type":"Point","coordinates":[128.59111,35.87028]}},{"type":"Feature","properties":{"country_code":"PRT","city":"Lisbon","geoname_id":"2267057","downloaders":"{\"size\":3991,\"mobile\":1127,\"satellite\":0,\"tor\":0,\"tor_exit_nodes\":0,\"vpn\":354,\"relay\":0,\"proxy\":0,\"hosting\":507,\"service\":344}","uploaders":"{\"size\":1867,\"mobile\":470,\"satellite\":0,\"tor\":0,\"tor_exit_nodes\":0,\"vpn\":146,\"relay\":0,\"proxy\":0,\"hosting\":182,\"service\":142}"},"geometry":{"type":"Point","coordinates":[-9.1498,38.72509]}},{"type":"Feature","properties":{"country_code":"ARG","city":"Buenos Aires","geoname_id":"3435910","downloaders":"{\"size\":3975,\"mobile\":799,\"satellite\":0,\"tor\":0,\"tor_exit_nodes\":0,\"vpn\":35,\"relay\":0,\"proxy\":0,\"hosting\":321,\"service\":2}","uploaders":"{\"size\":1432,\"mobile\":305,\"satellite\":0,\"tor\":0,\"tor_exit_nodes\":0,\"vpn\":7,\"relay\":0,\"proxy\":0,\"hosting\":82,\"service\":0}"},"geometry":{"type":"Point","coordinates":[-58.37723,-34.61315]}},{"type":"Feature","properties":{"country_code":"RUS","city":"Surgut","geoname_id":"1490624","downloaders":"{\"size\":3923,\"mobile\":745,\"satellite\":0,\"tor\":0,\"tor_exit_nodes\":0,\"vpn\":20,\"relay\":0,\"proxy\":0,\"hosting\":16,\"service\":1}","uploaders":"{\"size\":440,\"mobile\":57,\"satellite\":0,\"tor\":0,\"tor_exit_nodes\":0,\"vpn\":2,\"relay\":0,\"proxy\":0,\"hosting\":2,\"service\":0}"},"geometry":{"type":"Point","coordinates":[73.41775,61.25757]}},{"type":"Feature","properties":{"country_code":"PAK","city":"Karachi","geoname_id":"1174872","downloaders":"{\"size\":3914,\"mobile\":715,\"satellite\":0,\"tor\":0,\"tor_exit_nodes\":0,\"vpn\":10,\"relay\":0,\"proxy\":0,\"hosting\":665,\"service\":3}","uploaders":"{\"size\":1511,\"mobile\":209,\"satellite\":0,\"tor\":0,\"tor_exit_nodes\":0,\"vpn\":3,\"relay\":0,\"proxy\":0,\"hosting\":319,\"service\":2}"},"geometry":{"type":"Point","coordinates":[67.0104,24.8608]}},{"type":"Feature","properties":{"country_code":"PAK","city":"Lahore","geoname_id":"1172451","downloaders":"{\"size\":3914,\"mobile\":314,\"satellite\":0,\"tor\":0,\"tor_exit_nodes\":0,\"vpn\":19,\"relay\":0,\"proxy\":0,\"hosting\":506,\"service\":0}","uploaders":"{\"size\":1856,\"mobile\":91,\"satellite\":0,\"tor\":0,\"tor_exit_nodes\":0,\"vpn\":9,\"relay\":0,\"proxy\":0,\"hosting\":214,\"service\":0}"},"geometry":{"type":"Point","coordinates":[74.35071,31.558]}},{"type":"Feature","properties":{"country_code":"THA","city":"Bangkok","geoname_id":"1609350","downloaders":"{\"size\":3863,\"mobile\":725,\"satellite\":0,\"tor\":0,\"tor_exit_nodes\":0,\"vpn\":53,\"relay\":0,\"proxy\":0,\"hosting\":517,\"service\":28}","uploaders":"{\"size\":832,\"mobile\":159,\"satellite\":0,\"tor\":0,\"tor_exit_nodes\":0,\"vpn\":7,\"relay\":0,\"proxy\":0,\"hosting\":55,\"service\":3}"},"geometry":{"type":"Point","coordinates":[100.50144,13.75398]}},{"type":"Feature","properties":{"country_code":"TUN","city":"Tunis","geoname_id":"2464470","downloaders":"{\"size\":3841,\"mobile\":373,\"satellite\":0,\"tor\":0,\"tor_exit_nodes\":0,\"vpn\":4,\"relay\":0,\"proxy\":0,\"hosting\":383,\"service\":0}","uploaders":"{\"size\":2046,\"mobile\":193,\"satellite\":0,\"tor\":0,\"tor_exit_nodes\":0,\"vpn\":0,\"relay\":0,\"proxy\":0,\"hosting\":185,\"service\":0}"},"geometry":{"type":"Point","coordinates":[10.16579,36.81897]}},{"type":"Feature","properties":{"country_code":"BWA","city":"Gaborone","geoname_id":"933773","downloaders":"{\"size\":3835,\"mobile\":883,\"satellite\":0,\"tor\":0,\"tor_exit_nodes\":0,\"vpn\":3,\"relay\":0,\"proxy\":0,\"hosting\":1,\"service\":0}","uploaders":"{\"size\":1261,\"mobile\":451,\"satellite\":0,\"tor\":0,\"tor_exit_nodes\":0,\"vpn\":0,\"relay\":0,\"proxy\":0,\"hosting\":0,\"service\":0}"},"geometry":{"type":"Point","coordinates":[25.90859,-24.65451]}},{"type":"Feature","properties":{"country_code":"ZWE","city":"Harare","geoname_id":"890299","downloaders":"{\"size\":3831,\"mobile\":290,\"satellite\":0,\"tor\":0,\"tor_exit_nodes\":0,\"vpn\":55,\"relay\":0,\"proxy\":0,\"hosting\":79,\"service\":9}","uploaders":"{\"size\":2120,\"mobile\":122,\"satellite\":0,\"tor\":0,\"tor_exit_nodes\":0,\"vpn\":28,\"relay\":0,\"proxy\":0,\"hosting\":35,\"service\":5}"},"geometry":{"type":"Point","coordinates":[31.05337,-17.82772]}},{"type":"Feature","properties":{"country_code":"RUS","city":"Izhevsk","geoname_id":"554840","downloaders":"{\"size\":3831,\"mobile\":379,\"satellite\":0,\"tor\":0,\"tor_exit_nodes\":0,\"vpn\":21,\"relay\":0,\"proxy\":0,\"hosting\":6,\"service\":0}","uploaders":"{\"size\":399,\"mobile\":46,\"satellite\":0,\"tor\":0,\"tor_exit_nodes\":0,\"vpn\":1,\"relay\":0,\"proxy\":0,\"hosting\":0,\"service\":0}"},"geometry":{"type":"Point","coordinates":[53.20448,56.84976]}},{"type":"Feature","properties":{"country_code":"DEU","city":"Nürnberg","geoname_id":"2861650","downloaders":"{\"size\":3818,\"mobile\":24,\"satellite\":0,\"tor\":27,\"tor_exit_nodes\":27,\"vpn\":68,\"relay\":0,\"proxy\":0,\"hosting\":3734,\"service\":33}","uploaders":"{\"size\":891,\"mobile\":5,\"satellite\":0,\"tor\":0,\"tor_exit_nodes\":0,\"vpn\":0,\"relay\":0,\"proxy\":0,\"hosting\":882,\"service\":0}"},"geometry":{"type":"Point","coordinates":[11.07752,49.45421]}},{"type":"Feature","properties":{"country_code":"TWN","city":"Banqiao","geoname_id":"1670029","downloaders":"{\"size\":3813,\"mobile\":107,\"satellite\":0,\"tor\":0,\"tor_exit_nodes\":0,\"vpn\":65,\"relay\":0,\"proxy\":0,\"hosting\":55,\"service\":0}","uploaders":"{\"size\":386,\"mobile\":21,\"satellite\":0,\"tor\":0,\"tor_exit_nodes\":0,\"vpn\":6,\"relay\":0,\"proxy\":0,\"hosting\":3,\"service\":0}"},"geometry":{"type":"Point","coordinates":[121.46719,25.01427]}},{"type":"Feature","properties":{"country_code":"CHN","city":"Qingdao","geoname_id":"1797929","downloaders":"{\"size\":3707,\"mobile\":0,\"satellite\":0,\"tor\":0,\"tor_exit_nodes\":0,\"vpn\":47,\"relay\":0,\"proxy\":0,\"hosting\":22,\"service\":0}","uploaders":"{\"size\":285,\"mobile\":0,\"satellite\":0,\"tor\":0,\"tor_exit_nodes\":0,\"vpn\":4,\"relay\":0,\"proxy\":0,\"hosting\":0,\"service\":0}"},"geometry":{"type":"Point","coordinates":[120.38042,36.06488]}},{"type":"Feature","properties":{"country_code":"MYS","city":"Kuala Lumpur","geoname_id":"1735161","downloaders":"{\"size\":3662,\"mobile\":813,\"satellite\":0,\"tor\":0,\"tor_exit_nodes\":0,\"vpn\":24,\"relay\":0,\"proxy\":0,\"hosting\":205,\"service\":20}","uploaders":"{\"size\":1027,\"mobile\":191,\"satellite\":0,\"tor\":0,\"tor_exit_nodes\":0,\"vpn\":1,\"relay\":0,\"proxy\":0,\"hosting\":44,\"service\":1}"},"geometry":{"type":"Point","coordinates":[101.68653,3.1412]}},{"type":"Feature","properties":{"country_code":"USA","city":"Atlanta","geoname_id":"4180439","downloaders":"{\"size\":3619,\"mobile\":68,\"satellite\":0,\"tor\":0,\"tor_exit_nodes\":0,\"vpn\":1515,\"relay\":0,\"proxy\":0,\"hosting\":2208,\"service\":1498}","uploaders":"{\"size\":493,\"mobile\":16,\"satellite\":0,\"tor\":0,\"tor_exit_nodes\":0,\"vpn\":291,\"relay\":0,\"proxy\":0,\"hosting\":398,\"service\":288}"},"geometry":{"type":"Point","coordinates":[-84.38798,33.749]}},{"type":"Feature","properties":{"country_code":"RUS","city":"Smolensk","geoname_id":"491687","downloaders":"{\"size\":3557,\"mobile\":17,\"satellite\":0,\"tor\":0,\"tor_exit_nodes\":0,\"vpn\":40,\"relay\":0,\"proxy\":0,\"hosting\":0,\"service\":0}","uploaders":"{\"size\":445,\"mobile\":3,\"satellite\":0,\"tor\":0,\"tor_exit_nodes\":0,\"vpn\":4,\"relay\":0,\"proxy\":0,\"hosting\":0,\"service\":0}"},"geometry":{"type":"Point","coordinates":[32.04371,54.77944]}},{"type":"Feature","properties":{"country_code":"RUS","city":"Podolsk","geoname_id":"508101","downloaders":"{\"size\":3556,\"mobile\":2,\"satellite\":0,\"tor\":0,\"tor_exit_nodes\":0,\"vpn\":49,\"relay\":0,\"proxy\":0,\"hosting\":54,\"service\":0}","uploaders":"{\"size\":146,\"mobile\":2,\"satellite\":0,\"tor\":0,\"tor_exit_nodes\":0,\"vpn\":5,\"relay\":0,\"proxy\":0,\"hosting\":2,\"service\":0}"},"geometry":{"type":"Point","coordinates":[37.55472,55.42419]}},{"type":"Feature","properties":{"country_code":"RUS","city":"Kursk","geoname_id":"538560","downloaders":"{\"size\":3555,\"mobile\":22,\"satellite\":0,\"tor\":0,\"tor_exit_nodes\":0,\"vpn\":65,\"relay\":0,\"proxy\":0,\"hosting\":74,\"service\":0}","uploaders":"{\"size\":431,\"mobile\":1,\"satellite\":0,\"tor\":0,\"tor_exit_nodes\":0,\"vpn\":4,\"relay\":0,\"proxy\":0,\"hosting\":6,\"service\":0}"},"geometry":{"type":"Point","coordinates":[36.18712,51.73758]}},{"type":"Feature","properties":{"country_code":"EST","city":"Tallinn","geoname_id":"588409","downloaders":"{\"size\":3546,\"mobile\":379,\"satellite\":0,\"tor\":0,\"tor_exit_nodes\":0,\"vpn\":177,\"relay\":0,\"proxy\":0,\"hosting\":401,\"service\":123}","uploaders":"{\"size\":761,\"mobile\":92,\"satellite\":0,\"tor\":0,\"tor_exit_nodes\":0,\"vpn\":37,\"relay\":0,\"proxy\":0,\"hosting\":75,\"service\":31}"},"geometry":{"type":"Point","coordinates":[24.75353,59.43696]}},{"type":"Feature","properties":{"country_code":"CHN","city":"Zhengzhou","geoname_id":"1784658","downloaders":"{\"size\":3532,\"mobile\":0,\"satellite\":0,\"tor\":0,\"tor_exit_nodes\":0,\"vpn\":150,\"relay\":0,\"proxy\":0,\"hosting\":2,\"service\":0}","uploaders":"{\"size\":193,\"mobile\":0,\"satellite\":0,\"tor\":0,\"tor_exit_nodes\":0,\"vpn\":10,\"relay\":0,\"proxy\":0,\"hosting\":0,\"service\":0}"},"geometry":{"type":"Point","coordinates":[113.64861,34.75778]}},{"type":"Feature","properties":{"country_code":"ROU","city":"Bucharest","geoname_id":"683506","downloaders":"{\"size\":3518,\"mobile\":446,\"satellite\":0,\"tor\":3,\"tor_exit_nodes\":5,\"vpn\":886,\"relay\":0,\"proxy\":0,\"hosting\":1245,\"service\":810}","uploaders":"{\"size\":1013,\"mobile\":114,\"satellite\":0,\"tor\":0,\"tor_exit_nodes\":0,\"vpn\":298,\"relay\":0,\"proxy\":0,\"hosting\":518,\"service\":290}"},"geometry":{"type":"Point","coordinates":[26.10626,44.43225]}},{"type":"Feature","properties":{"country_code":"UKR","city":"Odesa","geoname_id":"698740","downloaders":"{\"size\":3471,\"mobile\":46,\"satellite\":0,\"tor\":0,\"tor_exit_nodes\":0,\"vpn\":27,\"relay\":0,\"proxy\":0,\"hosting\":10,\"service\":2}","uploaders":"{\"size\":1053,\"mobile\":18,\"satellite\":0,\"tor\":0,\"tor_exit_nodes\":0,\"vpn\":4,\"relay\":0,\"proxy\":0,\"hosting\":5,\"service\":2}"},"geometry":{"type":"Point","coordinates":[30.74383,46.48572]}},{"type":"Feature","properties":{"country_code":"KOR","city":"Suwon","geoname_id":"1835553","downloaders":"{\"size\":3430,\"mobile\":2,\"satellite\":0,\"tor\":0,\"tor_exit_nodes\":0,\"vpn\":24,\"relay\":0,\"proxy\":0,\"hosting\":0,\"service\":0}","uploaders":"{\"size\":113,\"mobile\":0,\"satellite\":0,\"tor\":0,\"tor_exit_nodes\":0,\"vpn\":0,\"relay\":0,\"proxy\":0,\"hosting\":0,\"service\":0}"},"geometry":{"type":"Point","coordinates":[127.00889,37.29111]}},{"type":"Feature","properties":{"country_code":"RUS","city":"Lyubertsy","geoname_id":"532615","downloaders":"{\"size\":3402,\"mobile\":1,\"satellite\":0,\"tor\":0,\"tor_exit_nodes\":0,\"vpn\":78,\"relay\":0,\"proxy\":0,\"hosting\":329,\"service\":1}","uploaders":"{\"size\":194,\"mobile\":0,\"satellite\":0,\"tor\":0,\"tor_exit_nodes\":0,\"vpn\":5,\"relay\":0,\"proxy\":0,\"hosting\":15,\"service\":1}"},"geometry":{"type":"Point","coordinates":[37.89322,55.67719]}},{"type":"Feature","properties":{"country_code":"LKA","city":"Colombo","geoname_id":"1248991","downloaders":"{\"size\":3386,\"mobile\":1787,\"satellite\":0,\"tor\":0,\"tor_exit_nodes\":0,\"vpn\":4,\"relay\":0,\"proxy\":0,\"hosting\":0,\"service\":0}","uploaders":"{\"size\":1337,\"mobile\":585,\"satellite\":0,\"tor\":0,\"tor_exit_nodes\":0,\"vpn\":1,\"relay\":0,\"proxy\":0,\"hosting\":0,\"service\":0}"},"geometry":{"type":"Point","coordinates":[79.84868,6.93548]}},{"type":"Feature","properties":{"country_code":"RUS","city":"Stavropol’","geoname_id":"487846","downloaders":"{\"size\":3361,\"mobile\":1382,\"satellite\":0,\"tor\":0,\"tor_exit_nodes\":0,\"vpn\":16,\"relay\":0,\"proxy\":0,\"hosting\":0,\"service\":3}","uploaders":"{\"size\":550,\"mobile\":298,\"satellite\":0,\"tor\":0,\"tor_exit_nodes\":0,\"vpn\":2,\"relay\":0,\"proxy\":0,\"hosting\":0,\"service\":0}"},"geometry":{"type":"Point","coordinates":[41.9734,45.0428]}},{"type":"Feature","properties":{"country_code":"ZAF","city":"Pretoria","geoname_id":"964137","downloaders":"{\"size\":3358,\"mobile\":2274,\"satellite\":0,\"tor\":0,\"tor_exit_nodes\":0,\"vpn\":25,\"relay\":0,\"proxy\":0,\"hosting\":7,\"service\":0}","uploaders":"{\"size\":1521,\"mobile\":966,\"satellite\":0,\"tor\":0,\"tor_exit_nodes\":0,\"vpn\":16,\"relay\":0,\"proxy\":0,\"hosting\":1,\"service\":0}"},"geometry":{"type":"Point","coordinates":[28.18783,-25.74486]}},{"type":"Feature","properties":{"country_code":"RUS","city":"Naberezhnyye Chelny","geoname_id":"523750","downloaders":"{\"size\":3352,\"mobile\":292,\"satellite\":0,\"tor\":0,\"tor_exit_nodes\":0,\"vpn\":44,\"relay\":0,\"proxy\":0,\"hosting\":0,\"service\":0}","uploaders":"{\"size\":264,\"mobile\":14,\"satellite\":0,\"tor\":0,\"tor_exit_nodes\":0,\"vpn\":1,\"relay\":0,\"proxy\":0,\"hosting\":0,\"service\":0}"},"geometry":{"type":"Point","coordinates":[52.41122,55.72545]}},{"type":"Feature","properties":{"country_code":"TWN","city":"Taichung","geoname_id":"1668399","downloaders":"{\"size\":3314,\"mobile\":115,\"satellite\":0,\"tor\":0,\"tor_exit_nodes\":0,\"vpn\":44,\"relay\":0,\"proxy\":0,\"hosting\":2,\"service\":0}","uploaders":"{\"size\":215,\"mobile\":19,\"satellite\":0,\"tor\":0,\"tor_exit_nodes\":0,\"vpn\":0,\"relay\":0,\"proxy\":0,\"hosting\":0,\"service\":0}"},"geometry":{"type":"Point","coordinates":[120.6839,24.1469]}},{"type":"Feature","properties":{"country_code":"NOR","city":"Oslo","geoname_id":"3143244","downloaders":"{\"size\":3289,\"mobile\":74,\"satellite\":0,\"tor\":2,\"tor_exit_nodes\":4,\"vpn\":1277,\"relay\":0,\"proxy\":0,\"hosting\":1138,\"service\":1255}","uploaders":"{\"size\":487,\"mobile\":28,\"satellite\":0,\"tor\":0,\"tor_exit_nodes\":0,\"vpn\":253,\"relay\":0,\"proxy\":0,\"hosting\":254,\"service\":250}"},"geometry":{"type":"Point","coordinates":[10.7461,59.9127]}},{"type":"Feature","properties":{"country_code":"IND","city":"Kolkata","geoname_id":"1275004","downloaders":"{\"size\":3205,\"mobile\":997,\"satellite\":0,\"tor\":0,\"tor_exit_nodes\":0,\"vpn\":3,\"relay\":0,\"proxy\":0,\"hosting\":101,\"service\":0}","uploaders":"{\"size\":1120,\"mobile\":317,\"satellite\":0,\"tor\":0,\"tor_exit_nodes\":0,\"vpn\":2,\"relay\":0,\"proxy\":0,\"hosting\":26,\"service\":0}"},"geometry":{"type":"Point","coordinates":[88.36304,22.56263]}},{"type":"Feature","properties":{"country_code":"UKR","city":"Lviv","geoname_id":"702550","downloaders":"{\"size\":3200,\"mobile\":1533,\"satellite\":0,\"tor\":0,\"tor_exit_nodes\":0,\"vpn\":18,\"relay\":0,\"proxy\":0,\"hosting\":6,\"service\":0}","uploaders":"{\"size\":717,\"mobile\":233,\"satellite\":0,\"tor\":0,\"tor_exit_nodes\":0,\"vpn\":6,\"relay\":0,\"proxy\":0,\"hosting\":0,\"service\":0}"},"geometry":{"type":"Point","coordinates":[24.02324,49.83826]}},{"type":"Feature","properties":{"country_code":"IND","city":"Bengaluru","geoname_id":"1277333","downloaders":"{\"size\":3190,\"mobile\":327,\"satellite\":0,\"tor\":0,\"tor_exit_nodes\":0,\"vpn\":83,\"relay\":0,\"proxy\":0,\"hosting\":91,\"service\":79}","uploaders":"{\"size\":801,\"mobile\":85,\"satellite\":0,\"tor\":0,\"tor_exit_nodes\":0,\"vpn\":28,\"relay\":0,\"proxy\":0,\"hosting\":26,\"service\":26}"},"geometry":{"type":"Point","coordinates":[77.59369,12.97194]}},{"type":"Feature","properties":{"country_code":"TUR","city":"Istanbul","geoname_id":"745044","downloaders":"{\"size\":3151,\"mobile\":563,\"satellite\":0,\"tor\":0,\"tor_exit_nodes\":0,\"vpn\":43,\"relay\":0,\"proxy\":0,\"hosting\":252,\"service\":34}","uploaders":"{\"size\":846,\"mobile\":203,\"satellite\":0,\"tor\":0,\"tor_exit_nodes\":0,\"vpn\":8,\"relay\":0,\"proxy\":0,\"hosting\":14,\"service\":6}"},"geometry":{"type":"Point","coordinates":[28.94966,41.01384]}},{"type":"Feature","properties":{"country_code":"RUS","city":"Angarsk","geoname_id":"2027667","downloaders":"{\"size\":3101,\"mobile\":0,\"satellite\":0,\"tor\":0,\"tor_exit_nodes\":0,\"vpn\":14,\"relay\":0,\"proxy\":0,\"hosting\":0,\"service\":0}","uploaders":"{\"size\":615,\"mobile\":0,\"satellite\":0,\"tor\":0,\"tor_exit_nodes\":0,\"vpn\":0,\"relay\":0,\"proxy\":0,\"hosting\":0,\"service\":0}"},"geometry":{"type":"Point","coordinates":[103.91413,52.55968]}},{"type":"Feature","properties":{"country_code":"ITA","city":"Rome","geoname_id":"3169070","downloaders":"{\"size\":3090,\"mobile\":1510,\"satellite\":1,\"tor\":0,\"tor_exit_nodes\":0,\"vpn\":18,\"relay\":0,\"proxy\":0,\"hosting\":46,\"service\":0}","uploaders":"{\"size\":970,\"mobile\":472,\"satellite\":0,\"tor\":0,\"tor_exit_nodes\":0,\"vpn\":0,\"relay\":0,\"proxy\":0,\"hosting\":3,\"service\":0}"},"geometry":{"type":"Point","coordinates":[12.51133,41.89193]}},{"type":"Feature","properties":{"country_code":"CHN","city":"Ningbo","geoname_id":"1799397","downloaders":"{\"size\":2973,\"mobile\":0,\"satellite\":0,\"tor\":0,\"tor_exit_nodes\":0,\"vpn\":8,\"relay\":0,\"proxy\":0,\"hosting\":2,\"service\":0}","uploaders":"{\"size\":418,\"mobile\":0,\"satellite\":0,\"tor\":0,\"tor_exit_nodes\":0,\"vpn\":0,\"relay\":0,\"proxy\":0,\"hosting\":1,\"service\":0}"},"geometry":{"type":"Point","coordinates":[121.54945,29.87819]}},{"type":"Feature","properties":{"country_code":"USA","city":"Phoenix","geoname_id":"5308655","downloaders":"{\"size\":2956,\"mobile\":10,\"satellite\":1,\"tor\":0,\"tor_exit_nodes\":1,\"vpn\":441,\"relay\":0,\"proxy\":0,\"hosting\":1688,\"service\":380}","uploaders":"{\"size\":558,\"mobile\":1,\"satellite\":0,\"tor\":0,\"tor_exit_nodes\":0,\"vpn\":130,\"relay\":0,\"proxy\":0,\"hosting\":499,\"service\":110}"},"geometry":{"type":"Point","coordinates":[-112.0421,33.4413]}},{"type":"Feature","properties":{"country_code":"JAM","city":"Kingston","geoname_id":"3489854","downloaders":"{\"size\":2940,\"mobile\":1551,\"satellite\":0,\"tor\":0,\"tor_exit_nodes\":0,\"vpn\":24,\"relay\":0,\"proxy\":0,\"hosting\":91,\"service\":14}","uploaders":"{\"size\":1484,\"mobile\":798,\"satellite\":0,\"tor\":0,\"tor_exit_nodes\":0,\"vpn\":9,\"relay\":0,\"proxy\":0,\"hosting\":37,\"service\":5}"},"geometry":{"type":"Point","coordinates":[-76.79358,17.99702]}},{"type":"Feature","properties":{"country_code":"GRC","city":"Thessaloníki","geoname_id":"734077","downloaders":"{\"size\":2892,\"mobile\":265,\"satellite\":0,\"tor\":0,\"tor_exit_nodes\":0,\"vpn\":8,\"relay\":0,\"proxy\":0,\"hosting\":38,\"service\":4}","uploaders":"{\"size\":1163,\"mobile\":96,\"satellite\":0,\"tor\":0,\"tor_exit_nodes\":0,\"vpn\":2,\"relay\":0,\"proxy\":0,\"hosting\":9,\"service\":0}"},"geometry":{"type":"Point","coordinates":[22.93086,40.64361]}},{"type":"Feature","properties":{"country_code":"RUS","city":"Magnitogorsk","geoname_id":"532288","downloaders":"{\"size\":2853,\"mobile\":277,\"satellite\":0,\"tor\":0,\"tor_exit_nodes\":0,\"vpn\":1172,\"relay\":0,\"proxy\":0,\"hosting\":0,\"service\":0}","uploaders":"{\"size\":279,\"mobile\":67,\"satellite\":0,\"tor\":0,\"tor_exit_nodes\":0,\"vpn\":122,\"relay\":0,\"proxy\":0,\"hosting\":0,\"service\":0}"},"geometry":{"type":"Point","coordinates":[59.0066,53.39808]}},{"type":"Feature","properties":{"country_code":"PHL","city":"Cebu City","geoname_id":"1717512","downloaders":"{\"size\":2850,\"mobile\":1446,\"satellite\":0,\"tor\":0,\"tor_exit_nodes\":0,\"vpn\":0,\"relay\":0,\"proxy\":0,\"hosting\":0,\"service\":0}","uploaders":"{\"size\":1082,\"mobile\":507,\"satellite\":0,\"tor\":0,\"tor_exit_nodes\":0,\"vpn\":0,\"relay\":0,\"proxy\":0,\"hosting\":0,\"service\":0}"},"geometry":{"type":"Point","coordinates":[123.89071,10.31672]}},{"type":"Feature","properties":{"country_code":"CHL","city":"Santiago","geoname_id":"3871336","downloaders":"{\"size\":2848,\"mobile\":1464,\"satellite\":2,\"tor\":0,\"tor_exit_nodes\":0,\"vpn\":108,\"relay\":0,\"proxy\":0,\"hosting\":325,\"service\":96}","uploaders":"{\"size\":711,\"mobile\":397,\"satellite\":0,\"tor\":0,\"tor_exit_nodes\":0,\"vpn\":22,\"relay\":0,\"proxy\":0,\"hosting\":67,\"service\":22}"},"geometry":{"type":"Point","coordinates":[-70.64827,-33.45694]}},{"type":"Feature","properties":{"country_code":"CHN","city":"Hangzhou","geoname_id":"1808926","downloaders":"{\"size\":2834,\"mobile\":0,\"satellite\":0,\"tor\":0,\"tor_exit_nodes\":0,\"vpn\":19,\"relay\":0,\"proxy\":0,\"hosting\":680,\"service\":0}","uploaders":"{\"size\":854,\"mobile\":0,\"satellite\":0,\"tor\":0,\"tor_exit_nodes\":0,\"vpn\":1,\"relay\":0,\"proxy\":0,\"hosting\":381,\"service\":0}"},"geometry":{"type":"Point","coordinates":[120.16142,30.29365]}},{"type":"Feature","properties":{"country_code":"SAU","city":"Riyadh","geoname_id":"108410","downloaders":"{\"size\":2816,\"mobile\":1582,\"satellite\":0,\"tor\":0,\"tor_exit_nodes\":0,\"vpn\":2,\"relay\":0,\"proxy\":0,\"hosting\":18,\"service\":0}","uploaders":"{\"size\":1183,\"mobile\":690,\"satellite\":0,\"tor\":0,\"tor_exit_nodes\":0,\"vpn\":0,\"relay\":0,\"proxy\":0,\"hosting\":5,\"service\":0}"},"geometry":{"type":"Point","coordinates":[46.72185,24.68773]}},{"type":"Feature","properties":{"country_code":"UKR","city":"Dnipro","geoname_id":"709930","downloaders":"{\"size\":2808,\"mobile\":479,\"satellite\":0,\"tor\":0,\"tor_exit_nodes\":0,\"vpn\":20,\"relay\":0,\"proxy\":0,\"hosting\":516,\"service\":3}","uploaders":"{\"size\":779,\"mobile\":84,\"satellite\":0,\"tor\":0,\"tor_exit_nodes\":0,\"vpn\":1,\"relay\":0,\"proxy\":0,\"hosting\":124,\"service\":0}"},"geometry":{"type":"Point","coordinates":[35.04066,48.46664]}},{"type":"Feature","properties":{"country_code":"USA","city":"Washington","geoname_id":"4140963","downloaders":"{\"size\":2786,\"mobile\":48,\"satellite\":0,\"tor\":0,\"tor_exit_nodes\":0,\"vpn\":953,\"relay\":0,\"proxy\":0,\"hosting\":1616,\"service\":948}","uploaders":"{\"size\":870,\"mobile\":14,\"satellite\":0,\"tor\":0,\"tor_exit_nodes\":0,\"vpn\":191,\"relay\":0,\"proxy\":0,\"hosting\":758,\"service\":190}"},"geometry":{"type":"Point","coordinates":[-77.03637,38.89511]}},{"type":"Feature","properties":{"country_code":"SEN","city":"Dakar","geoname_id":"2253354","downloaders":"{\"size\":2774,\"mobile\":201,\"satellite\":0,\"tor\":0,\"tor_exit_nodes\":0,\"vpn\":0,\"relay\":0,\"proxy\":0,\"hosting\":3,\"service\":0}","uploaders":"{\"size\":981,\"mobile\":79,\"satellite\":0,\"tor\":0,\"tor_exit_nodes\":0,\"vpn\":0,\"relay\":0,\"proxy\":0,\"hosting\":0,\"service\":0}"},"geometry":{"type":"Point","coordinates":[-17.44406,14.6937]}},{"type":"Feature","properties":{"country_code":"RUS","city":"Saransk","geoname_id":"498698","downloaders":"{\"size\":2763,\"mobile\":122,\"satellite\":0,\"tor\":0,\"tor_exit_nodes\":0,\"vpn\":5,\"relay\":0,\"proxy\":0,\"hosting\":0,\"service\":0}","uploaders":"{\"size\":161,\"mobile\":23,\"satellite\":0,\"tor\":0,\"tor_exit_nodes\":0,\"vpn\":0,\"relay\":0,\"proxy\":0,\"hosting\":0,\"service\":0}"},"geometry":{"type":"Point","coordinates":[45.1749,54.1838]}},{"type":"Feature","properties":{"country_code":"RUS","city":"Murmansk","geoname_id":"524305","downloaders":"{\"size\":2747,\"mobile\":127,\"satellite\":0,\"tor\":0,\"tor_exit_nodes\":0,\"vpn\":5,\"relay\":0,\"proxy\":0,\"hosting\":0,\"service\":0}","uploaders":"{\"size\":311,\"mobile\":26,\"satellite\":0,\"tor\":0,\"tor_exit_nodes\":0,\"vpn\":0,\"relay\":0,\"proxy\":0,\"hosting\":0,\"service\":0}"},"geometry":{"type":"Point","coordinates":[33.09747,68.97398]}},{"type":"Feature","properties":{"country_code":"KOR","city":"Daejeon","geoname_id":"1835235","downloaders":"{\"size\":2742,\"mobile\":2,\"satellite\":0,\"tor\":0,\"tor_exit_nodes\":0,\"vpn\":17,\"relay\":0,\"proxy\":0,\"hosting\":0,\"service\":4}","uploaders":"{\"size\":124,\"mobile\":0,\"satellite\":0,\"tor\":0,\"tor_exit_nodes\":0,\"vpn\":1,\"relay\":0,\"proxy\":0,\"hosting\":0,\"service\":0}"},"geometry":{"type":"Point","coordinates":[127.38493,36.34913]}},{"type":"Feature","properties":{"country_code":"RUS","city":"Kaluga","geoname_id":"553915","downloaders":"{\"size\":2710,\"mobile\":44,\"satellite\":0,\"tor\":0,\"tor_exit_nodes\":0,\"vpn\":36,\"relay\":0,\"proxy\":0,\"hosting\":1,\"service\":0}","uploaders":"{\"size\":318,\"mobile\":1,\"satellite\":0,\"tor\":0,\"tor_exit_nodes\":0,\"vpn\":0,\"relay\":0,\"proxy\":0,\"hosting\":0,\"service\":0}"},"geometry":{"type":"Point","coordinates":[36.27542,54.5293]}},{"type":"Feature","properties":{"country_code":"RUS","city":"Korolev","geoname_id":"554233","downloaders":"{\"size\":2690,\"mobile\":0,\"satellite\":0,\"tor\":0,\"tor_exit_nodes\":0,\"vpn\":64,\"relay\":0,\"proxy\":0,\"hosting\":174,\"service\":1}","uploaders":"{\"size\":153,\"mobile\":0,\"satellite\":0,\"tor\":0,\"tor_exit_nodes\":0,\"vpn\":6,\"relay\":0,\"proxy\":0,\"hosting\":5,\"service\":0}"},"geometry":{"type":"Point","coordinates":[37.82556,55.91417]}},{"type":"Feature","properties":{"country_code":"MWI","city":"Blantyre","geoname_id":"931755","downloaders":"{\"size\":2679,\"mobile\":1639,\"satellite\":0,\"tor\":0,\"tor_exit_nodes\":0,\"vpn\":6,\"relay\":0,\"proxy\":0,\"hosting\":0,\"service\":0}","uploaders":"{\"size\":847,\"mobile\":565,\"satellite\":0,\"tor\":0,\"tor_exit_nodes\":0,\"vpn\":0,\"relay\":0,\"proxy\":0,\"hosting\":0,\"service\":0}"},"geometry":{"type":"Point","coordinates":[35.00854,-15.78499]}},{"type":"Feature","properties":{"country_code":"AUT","city":"Vienna","geoname_id":"2761369","downloaders":"{\"size\":2676,\"mobile\":661,\"satellite\":0,\"tor\":0,\"tor_exit_nodes\":0,\"vpn\":623,\"relay\":0,\"proxy\":1,\"hosting\":731,\"service\":588}","uploaders":"{\"size\":633,\"mobile\":174,\"satellite\":0,\"tor\":0,\"tor_exit_nodes\":0,\"vpn\":174,\"relay\":0,\"proxy\":0,\"hosting\":209,\"service\":168}"},"geometry":{"type":"Point","coordinates":[16.37208,48.20849]}},{"type":"Feature","properties":{"country_code":"RUS","city":"Mytishchi","geoname_id":"523812","downloaders":"{\"size\":2614,\"mobile\":0,\"satellite\":0,\"tor\":0,\"tor_exit_nodes\":0,\"vpn\":68,\"relay\":0,\"proxy\":0,\"hosting\":35,\"service\":0}","uploaders":"{\"size\":264,\"mobile\":0,\"satellite\":0,\"tor\":0,\"tor_exit_nodes\":0,\"vpn\":5,\"relay\":0,\"proxy\":0,\"hosting\":0,\"service\":0}"},"geometry":{"type":"Point","coordinates":[37.72964,55.91099]}},{"type":"Feature","properties":{"country_code":"RUS","city":"Sergiyev Posad","geoname_id":"496638","downloaders":"{\"size\":2576,\"mobile\":0,\"satellite\":0,\"tor\":0,\"tor_exit_nodes\":0,\"vpn\":7,\"relay\":0,\"proxy\":0,\"hosting\":6,\"service\":0}","uploaders":"{\"size\":174,\"mobile\":0,\"satellite\":0,\"tor\":0,\"tor_exit_nodes\":0,\"vpn\":2,\"relay\":0,\"proxy\":0,\"hosting\":0,\"service\":0}"},"geometry":{"type":"Point","coordinates":[38.13869,56.31204]}},{"type":"Feature","properties":{"country_code":"RUS","city":"Yoshkar-Ola","geoname_id":"466806","downloaders":"{\"size\":2574,\"mobile\":95,\"satellite\":0,\"tor\":0,\"tor_exit_nodes\":0,\"vpn\":21,\"relay\":0,\"proxy\":0,\"hosting\":0,\"service\":4}","uploaders":"{\"size\":207,\"mobile\":6,\"satellite\":0,\"tor\":0,\"tor_exit_nodes\":0,\"vpn\":0,\"relay\":0,\"proxy\":0,\"hosting\":0,\"service\":0}"},"geometry":{"type":"Point","coordinates":[47.89078,56.63877]}},{"type":"Feature","properties":{"country_code":"KOR","city":"Seongnam-si","geoname_id":"1897000","downloaders":"{\"size\":2569,\"mobile\":14,\"satellite\":0,\"tor\":0,\"tor_exit_nodes\":0,\"vpn\":27,\"relay\":0,\"proxy\":0,\"hosting\":0,\"service\":10}","uploaders":"{\"size\":104,\"mobile\":0,\"satellite\":0,\"tor\":0,\"tor_exit_nodes\":0,\"vpn\":0,\"relay\":0,\"proxy\":0,\"hosting\":0,\"service\":0}"},"geometry":{"type":"Point","coordinates":[127.13778,37.43861]}},{"type":"Feature","properties":{"country_code":"RUS","city":"Shchyolkovo","geoname_id":"495344","downloaders":"{\"size\":2497,\"mobile\":0,\"satellite\":0,\"tor\":0,\"tor_exit_nodes\":0,\"vpn\":95,\"relay\":0,\"proxy\":0,\"hosting\":106,\"service\":6}","uploaders":"{\"size\":100,\"mobile\":0,\"satellite\":0,\"tor\":0,\"tor_exit_nodes\":0,\"vpn\":1,\"relay\":0,\"proxy\":0,\"hosting\":5,\"service\":0}"},"geometry":{"type":"Point","coordinates":[37.97218,55.92497]}},{"type":"Feature","properties":{"country_code":"KAZ","city":"Astana","geoname_id":"1526273","downloaders":"{\"size\":2475,\"mobile\":792,\"satellite\":0,\"tor\":0,\"tor_exit_nodes\":0,\"vpn\":77,\"relay\":0,\"proxy\":0,\"hosting\":251,\"service\":45}","uploaders":"{\"size\":357,\"mobile\":149,\"satellite\":0,\"tor\":0,\"tor_exit_nodes\":0,\"vpn\":5,\"relay\":0,\"proxy\":0,\"hosting\":7,\"service\":2}"},"geometry":{"type":"Point","coordinates":[71.44598,51.1801]}},{"type":"Feature","properties":{"country_code":"CHN","city":"Chengdu","geoname_id":"1815286","downloaders":"{\"size\":2472,\"mobile\":0,\"satellite\":0,\"tor\":0,\"tor_exit_nodes\":0,\"vpn\":43,\"relay\":0,\"proxy\":0,\"hosting\":65,\"service\":0}","uploaders":"{\"size\":383,\"mobile\":0,\"satellite\":0,\"tor\":0,\"tor_exit_nodes\":0,\"vpn\":7,\"relay\":0,\"proxy\":0,\"hosting\":5,\"service\":0}"},"geometry":{"type":"Point","coordinates":[104.06667,30.66667]}},{"type":"Feature","properties":{"country_code":"ARE","city":"Dubai","geoname_id":"292223","downloaders":"{\"size\":2466,\"mobile\":678,\"satellite\":0,\"tor\":0,\"tor_exit_nodes\":0,\"vpn\":109,\"relay\":0,\"proxy\":0,\"hosting\":380,\"service\":77}","uploaders":"{\"size\":904,\"mobile\":279,\"satellite\":0,\"tor\":0,\"tor_exit_nodes\":0,\"vpn\":31,\"relay\":0,\"proxy\":0,\"hosting\":72,\"service\":19}"},"geometry":{"type":"Point","coordinates":[55.30927,25.07725]}},{"type":"Feature","properties":{"country_code":"ZMB","city":"Lusaka","geoname_id":"909137","downloaders":"{\"size\":2460,\"mobile\":1274,\"satellite\":0,\"tor\":0,\"tor_exit_nodes\":0,\"vpn\":113,\"relay\":0,\"proxy\":0,\"hosting\":41,\"service\":0}","uploaders":"{\"size\":1324,\"mobile\":751,\"satellite\":0,\"tor\":0,\"tor_exit_nodes\":0,\"vpn\":45,\"relay\":0,\"proxy\":0,\"hosting\":25,\"service\":0}"},"geometry":{"type":"Point","coordinates":[28.28713,-15.40669]}},{"type":"Feature","properties":{"country_code":"RUS","city":"Orël","geoname_id":"515012","downloaders":"{\"size\":2447,\"mobile\":10,\"satellite\":0,\"tor\":0,\"tor_exit_nodes\":0,\"vpn\":13,\"relay\":0,\"proxy\":0,\"hosting\":0,\"service\":0}","uploaders":"{\"size\":154,\"mobile\":0,\"satellite\":0,\"tor\":0,\"tor_exit_nodes\":0,\"vpn\":1,\"relay\":0,\"proxy\":0,\"hosting\":0,\"service\":0}"},"geometry":{"type":"Point","coordinates":[36.07805,52.95932]}},{"type":"Feature","properties":{"country_code":"USA","city":"San Jose","geoname_id":"5392171","downloaders":"{\"size\":2431,\"mobile\":16,\"satellite\":0,\"tor\":16,\"tor_exit_nodes\":16,\"vpn\":177,\"relay\":0,\"proxy\":0,\"hosting\":1878,\"service\":167}","uploaders":"{\"size\":555,\"mobile\":4,\"satellite\":0,\"tor\":0,\"tor_exit_nodes\":0,\"vpn\":50,\"relay\":0,\"proxy\":0,\"hosting\":505,\"service\":49}"},"geometry":{"type":"Point","coordinates":[-121.89496,37.33939]}},{"type":"Feature","properties":{"country_code":"RUS","city":"Kostroma","geoname_id":"543878","downloaders":"{\"size\":2426,\"mobile\":1,\"satellite\":0,\"tor\":0,\"tor_exit_nodes\":0,\"vpn\":38,\"relay\":0,\"proxy\":0,\"hosting\":0,\"service\":28}","uploaders":"{\"size\":216,\"mobile\":1,\"satellite\":0,\"tor\":0,\"tor_exit_nodes\":0,\"vpn\":2,\"relay\":0,\"proxy\":0,\"hosting\":0,\"service\":2}"},"geometry":{"type":"Point","coordinates":[40.92686,57.76647]}},{"type":"Feature","properties":{"country_code":"RUS","city":"Cherepovets","geoname_id":"569223","downloaders":"{\"size\":2414,\"mobile\":33,\"satellite\":0,\"tor\":0,\"tor_exit_nodes\":0,\"vpn\":6,\"relay\":0,\"proxy\":0,\"hosting\":0,\"service\":4}","uploaders":"{\"size\":380,\"mobile\":1,\"satellite\":0,\"tor\":0,\"tor_exit_nodes\":0,\"vpn\":0,\"relay\":0,\"proxy\":0,\"hosting\":0,\"service\":0}"},"geometry":{"type":"Point","coordinates":[37.9,59.13333]}},{"type":"Feature","properties":{"country_code":"RUS","city":"Blagoveshchensk","geoname_id":"2026609","downloaders":"{\"size\":2411,\"mobile\":177,\"satellite\":0,\"tor\":0,\"tor_exit_nodes\":0,\"vpn\":8,\"relay\":0,\"proxy\":0,\"hosting\":0,\"service\":7}","uploaders":"{\"size\":411,\"mobile\":21,\"satellite\":0,\"tor\":0,\"tor_exit_nodes\":0,\"vpn\":1,\"relay\":0,\"proxy\":0,\"hosting\":0,\"service\":0}"},"geometry":{"type":"Point","coordinates":[127.5405,50.27961]}},{"type":"Feature","properties":{"country_code":"NPL","city":"Kathmandu","geoname_id":"1283240","downloaders":"{\"size\":2376,\"mobile\":70,\"satellite\":0,\"tor\":0,\"tor_exit_nodes\":0,\"vpn\":16,\"relay\":0,\"proxy\":0,\"hosting\":340,\"service\":0}","uploaders":"{\"size\":1209,\"mobile\":36,\"satellite\":0,\"tor\":0,\"tor_exit_nodes\":0,\"vpn\":4,\"relay\":0,\"proxy\":0,\"hosting\":149,\"service\":0}"},"geometry":{"type":"Point","coordinates":[85.3206,27.70169]}},{"type":"Feature","properties":{"country_code":"ESP","city":"Barcelona","geoname_id":"3128760","downloaders":"{\"size\":2375,\"mobile\":762,\"satellite\":0,\"tor\":0,\"tor_exit_nodes\":0,\"vpn\":47,\"relay\":0,\"proxy\":0,\"hosting\":51,\"service\":40}","uploaders":"{\"size\":616,\"mobile\":209,\"satellite\":0,\"tor\":0,\"tor_exit_nodes\":0,\"vpn\":4,\"relay\":0,\"proxy\":0,\"hosting\":6,\"service\":4}"},"geometry":{"type":"Point","coordinates":[2.2005,41.3984]}},{"type":"Feature","properties":{"country_code":"FRA","city":"Villecresnes","geoname_id":"2968823","downloaders":"{\"size\":2368,\"mobile\":1,\"satellite\":0,\"tor\":0,\"tor_exit_nodes\":0,\"vpn\":909,\"relay\":0,\"proxy\":0,\"hosting\":2367,\"service\":646}","uploaders":"{\"size\":127,\"mobile\":0,\"satellite\":0,\"tor\":0,\"tor_exit_nodes\":0,\"vpn\":26,\"relay\":0,\"proxy\":0,\"hosting\":127,\"service\":26}"},"geometry":{"type":"Point","coordinates":[2.5394,48.72002]}},{"type":"Feature","properties":{"country_code":"GBR","city":"Manchester","geoname_id":"2643123","downloaders":"{\"size\":2345,\"mobile\":361,\"satellite\":0,\"tor\":0,\"tor_exit_nodes\":0,\"vpn\":1284,\"relay\":0,\"proxy\":0,\"hosting\":1114,\"service\":1210}","uploaders":"{\"size\":624,\"mobile\":97,\"satellite\":0,\"tor\":0,\"tor_exit_nodes\":0,\"vpn\":372,\"relay\":0,\"proxy\":0,\"hosting\":370,\"service\":363}"},"geometry":{"type":"Point","coordinates":[-2.23743,53.48095]}},{"type":"Feature","properties":{"country_code":"IND","city":"Hyderabad","geoname_id":"1269843","downloaders":"{\"size\":2335,\"mobile\":949,\"satellite\":0,\"tor\":0,\"tor_exit_nodes\":0,\"vpn\":2,\"relay\":0,\"proxy\":0,\"hosting\":195,\"service\":0}","uploaders":"{\"size\":475,\"mobile\":147,\"satellite\":0,\"tor\":0,\"tor_exit_nodes\":0,\"vpn\":2,\"relay\":0,\"proxy\":0,\"hosting\":43,\"service\":0}"},"geometry":{"type":"Point","coordinates":[78.45636,17.38405]}},{"type":"Feature","properties":{"country_code":"USA","city":"Kansas City","geoname_id":"4393217","downloaders":"{\"size\":2323,\"mobile\":11,\"satellite\":0,\"tor\":0,\"tor_exit_nodes\":0,\"vpn\":747,\"relay\":0,\"proxy\":0,\"hosting\":1915,\"service\":742}","uploaders":"{\"size\":573,\"mobile\":1,\"satellite\":0,\"tor\":0,\"tor_exit_nodes\":0,\"vpn\":221,\"relay\":0,\"proxy\":0,\"hosting\":545,\"service\":221}"},"geometry":{"type":"Point","coordinates":[-94.57857,39.09973]}},{"type":"Feature","properties":{"country_code":"USA","city":"San Francisco","geoname_id":"5391959","downloaders":"{\"size\":2279,\"mobile\":116,\"satellite\":0,\"tor\":0,\"tor_exit_nodes\":0,\"vpn\":1049,\"relay\":0,\"proxy\":0,\"hosting\":1170,\"service\":890}","uploaders":"{\"size\":510,\"mobile\":23,\"satellite\":0,\"tor\":0,\"tor_exit_nodes\":0,\"vpn\":260,\"relay\":0,\"proxy\":0,\"hosting\":285,\"service\":195}"},"geometry":{"type":"Point","coordinates":[-122.41942,37.77493]}},{"type":"Feature","properties":{"country_code":"KOR","city":"Hwaseong-si","geoname_id":"1843847","downloaders":"{\"size\":2278,\"mobile\":0,\"satellite\":0,\"tor\":0,\"tor_exit_nodes\":0,\"vpn\":26,\"relay\":0,\"proxy\":0,\"hosting\":0,\"service\":2}","uploaders":"{\"size\":75,\"mobile\":0,\"satellite\":0,\"tor\":0,\"tor_exit_nodes\":0,\"vpn\":0,\"relay\":0,\"proxy\":0,\"hosting\":0,\"service\":0}"},"geometry":{"type":"Point","coordinates":[126.8169,37.20682]}},{"type":"Feature","properties":{"country_code":"USA","city":"Houston","geoname_id":"4699066","downloaders":"{\"size\":2264,\"mobile\":135,\"satellite\":0,\"tor\":0,\"tor_exit_nodes\":0,\"vpn\":536,\"relay\":0,\"proxy\":0,\"hosting\":701,\"service\":365}","uploaders":"{\"size\":294,\"mobile\":26,\"satellite\":0,\"tor\":0,\"tor_exit_nodes\":0,\"vpn\":121,\"relay\":0,\"proxy\":0,\"hosting\":203,\"service\":104}"},"geometry":{"type":"Point","coordinates":[-95.3011,29.6876]}},{"type":"Feature","properties":{"country_code":"KOR","city":"Goyang-si","geoname_id":"1842485","downloaders":"{\"size\":2262,\"mobile\":0,\"satellite\":0,\"tor\":0,\"tor_exit_nodes\":0,\"vpn\":21,\"relay\":0,\"proxy\":0,\"hosting\":0,\"service\":4}","uploaders":"{\"size\":87,\"mobile\":0,\"satellite\":0,\"tor\":0,\"tor_exit_nodes\":0,\"vpn\":2,\"relay\":0,\"proxy\":0,\"hosting\":0,\"service\":0}"},"geometry":{"type":"Point","coordinates":[126.835,37.65639]}},{"type":"Feature","properties":{"country_code":"USA","city":"Denver","geoname_id":"5419384","downloaders":"{\"size\":2252,\"mobile\":100,\"satellite\":4,\"tor\":0,\"tor_exit_nodes\":0,\"vpn\":909,\"relay\":0,\"proxy\":0,\"hosting\":1547,\"service\":908}","uploaders":"{\"size\":536,\"mobile\":25,\"satellite\":1,\"tor\":0,\"tor_exit_nodes\":0,\"vpn\":334,\"relay\":0,\"proxy\":0,\"hosting\":484,\"service\":334}"},"geometry":{"type":"Point","coordinates":[-104.9847,39.73915]}},{"type":"Feature","properties":{"country_code":"RUS","city":"Vidnoye","geoname_id":"473778","downloaders":"{\"size\":2249,\"mobile\":0,\"satellite\":0,\"tor\":0,\"tor_exit_nodes\":0,\"vpn\":9,\"relay\":0,\"proxy\":0,\"hosting\":34,\"service\":0}","uploaders":"{\"size\":334,\"mobile\":0,\"satellite\":0,\"tor\":0,\"tor_exit_nodes\":0,\"vpn\":0,\"relay\":0,\"proxy\":0,\"hosting\":4,\"service\":0}"},"geometry":{"type":"Point","coordinates":[37.70885,55.5523]}},{"type":"Feature","properties":{"country_code":"SRB","city":"Pančevo","geoname_id":"787237","downloaders":"{\"size\":2235,\"mobile\":324,\"satellite\":0,\"tor\":0,\"tor_exit_nodes\":0,\"vpn\":55,\"relay\":0,\"proxy\":0,\"hosting\":95,\"service\":42}","uploaders":"{\"size\":980,\"mobile\":161,\"satellite\":0,\"tor\":0,\"tor_exit_nodes\":0,\"vpn\":7,\"relay\":0,\"proxy\":0,\"hosting\":24,\"service\":4}"},"geometry":{"type":"Point","coordinates":[20.64167,44.87177]}},{"type":"Feature","properties":{"country_code":"JPN","city":"Osaka","geoname_id":"1853909","downloaders":"{\"size\":2233,\"mobile\":88,\"satellite\":0,\"tor\":0,\"tor_exit_nodes\":0,\"vpn\":65,\"relay\":0,\"proxy\":0,\"hosting\":342,\"service\":33}","uploaders":"{\"size\":146,\"mobile\":0,\"satellite\":0,\"tor\":0,\"tor_exit_nodes\":0,\"vpn\":2,\"relay\":0,\"proxy\":0,\"hosting\":111,\"service\":2}"},"geometry":{"type":"Point","coordinates":[135.50107,34.69379]}},{"type":"Feature","properties":{"country_code":"RUS","city":"Pushkino","geoname_id":"503977","downloaders":"{\"size\":2225,\"mobile\":2,\"satellite\":0,\"tor\":0,\"tor_exit_nodes\":0,\"vpn\":96,\"relay\":0,\"proxy\":0,\"hosting\":27,\"service\":43}","uploaders":"{\"size\":142,\"mobile\":0,\"satellite\":0,\"tor\":0,\"tor_exit_nodes\":0,\"vpn\":2,\"relay\":0,\"proxy\":0,\"hosting\":0,\"service\":0}"},"geometry":{"type":"Point","coordinates":[37.82897,55.99456]}},{"type":"Feature","properties":{"country_code":"RUS","city":"Pervouralsk","geoname_id":"510808","downloaders":"{\"size\":2220,\"mobile\":0,\"satellite\":0,\"tor\":0,\"tor_exit_nodes\":0,\"vpn\":1970,\"relay\":0,\"proxy\":0,\"hosting\":145,\"service\":1}","uploaders":"{\"size\":82,\"mobile\":0,\"satellite\":0,\"tor\":0,\"tor_exit_nodes\":0,\"vpn\":65,\"relay\":0,\"proxy\":0,\"hosting\":6,\"service\":0}"},"geometry":{"type":"Point","coordinates":[59.94361,56.90528]}},{"type":"Feature","properties":{"country_code":"NGA","city":"Abuja","geoname_id":"2352778","downloaders":"{\"size\":2218,\"mobile\":1412,\"satellite\":0,\"tor\":0,\"tor_exit_nodes\":0,\"vpn\":17,\"relay\":0,\"proxy\":0,\"hosting\":3,\"service\":0}","uploaders":"{\"size\":656,\"mobile\":304,\"satellite\":0,\"tor\":0,\"tor_exit_nodes\":0,\"vpn\":11,\"relay\":0,\"proxy\":0,\"hosting\":1,\"service\":0}"},"geometry":{"type":"Point","coordinates":[7.49508,9.05785]}},{"type":"Feature","properties":{"country_code":"UKR","city":"Sevastopol","geoname_id":"694423","downloaders":"{\"size\":2216,\"mobile\":0,\"satellite\":0,\"tor\":0,\"tor_exit_nodes\":0,\"vpn\":677,\"relay\":0,\"proxy\":0,\"hosting\":1969,\"service\":201}","uploaders":"{\"size\":352,\"mobile\":0,\"satellite\":0,\"tor\":0,\"tor_exit_nodes\":0,\"vpn\":110,\"relay\":0,\"proxy\":0,\"hosting\":307,\"service\":45}"},"geometry":{"type":"Point","coordinates":[33.52134,44.60795]}},{"type":"Feature","properties":{"country_code":"URY","city":"Montevideo","geoname_id":"3441575","downloaders":"{\"size\":2204,\"mobile\":211,\"satellite\":0,\"tor\":0,\"tor_exit_nodes\":0,\"vpn\":8,\"relay\":0,\"proxy\":0,\"hosting\":0,\"service\":0}","uploaders":"{\"size\":1099,\"mobile\":84,\"satellite\":0,\"tor\":0,\"tor_exit_nodes\":0,\"vpn\":3,\"relay\":0,\"proxy\":0,\"hosting\":0,\"service\":0}"},"geometry":{"type":"Point","coordinates":[-56.18816,-34.90328]}},{"type":"Feature","properties":{"country_code":"RUS","city":"Belgorod","geoname_id":"578072","downloaders":"{\"size\":2200,\"mobile\":47,\"satellite\":0,\"tor\":0,\"tor_exit_nodes\":0,\"vpn\":12,\"relay\":0,\"proxy\":0,\"hosting\":0,\"service\":2}","uploaders":"{\"size\":179,\"mobile\":3,\"satellite\":0,\"tor\":0,\"tor_exit_nodes\":0,\"vpn\":0,\"relay\":0,\"proxy\":0,\"hosting\":0,\"service\":0}"},"geometry":{"type":"Point","coordinates":[36.58015,50.61074]}},