{"type":"FeatureCollection","id":"Kindred","swarm_features":183,"features":[{"type":"Feature","properties":{"country_code":"RUS","city":"Moscow","geoname_id":"524901","downloaders":"{\"size\":40441,\"mobile\":2224,\"satellite\":0,\"tor\":0,\"tor_exit_nodes\":0,\"vpn\":1471,\"relay\":0,\"proxy\":4,\"hosting\":4196,\"service\":226}","uploaders":"{\"size\":1218,\"mobile\":174,\"satellite\":0,\"tor\":0,\"tor_exit_nodes\":0,\"vpn\":9,\"relay\":0,\"proxy\":0,\"hosting\":87,\"service\":1}"},"geometry":{"type":"Point","coordinates":[37.61556,55.75222]}},{"type":"Feature","properties":{"country_code":"KOR","city":"Seoul","geoname_id":"1835848","downloaders":"{\"size\":22932,\"mobile\":48,\"satellite\":0,\"tor\":0,\"tor_exit_nodes\":0,\"vpn\":299,\"relay\":0,\"proxy\":0,\"hosting\":138,\"service\":64}","uploaders":"{\"size\":196,\"mobile\":4,\"satellite\":0,\"tor\":0,\"tor_exit_nodes\":0,\"vpn\":3,\"relay\":0,\"proxy\":0,\"hosting\":0,\"service\":1}"},"geometry":{"type":"Point","coordinates":[126.9784,37.566]}},{"type":"Feature","properties":{"country_code":"NLD","city":"Amsterdam","geoname_id":"2759794","downloaders":"{\"size\":20547,\"mobile\":44,\"satellite\":0,\"tor\":1,\"tor_exit_nodes\":1,\"vpn\":4393,\"relay\":0,\"proxy\":30,\"hosting\":18827,\"service\":2921}","uploaders":"{\"size\":2310,\"mobile\":17,\"satellite\":0,\"tor\":0,\"tor_exit_nodes\":0,\"vpn\":630,\"relay\":0,\"proxy\":0,\"hosting\":1895,\"service\":511}"},"geometry":{"type":"Point","coordinates":[4.88969,52.37403]}},{"type":"Feature","properties":{"country_code":"USA","city":"Ashburn","geoname_id":"4744870","downloaders":"{\"size\":17382,\"mobile\":159,\"satellite\":2,\"tor\":0,\"tor_exit_nodes\":0,\"vpn\":921,\"relay\":0,\"proxy\":0,\"hosting\":17105,\"service\":908}","uploaders":"{\"size\":13108,\"mobile\":47,\"satellite\":0,\"tor\":0,\"tor_exit_nodes\":0,\"vpn\":340,\"relay\":0,\"proxy\":0,\"hosting\":13034,\"service\":340}"},"geometry":{"type":"Point","coordinates":[-77.48749,39.04372]}},{"type":"Feature","properties":{"country_code":"RUS","city":"Saint Petersburg","geoname_id":"498817","downloaders":"{\"size\":16540,\"mobile\":919,\"satellite\":0,\"tor\":0,\"tor_exit_nodes\":0,\"vpn\":231,\"relay\":0,\"proxy\":1,\"hosting\":741,\"service\":23}","uploaders":"{\"size\":359,\"mobile\":49,\"satellite\":0,\"tor\":0,\"tor_exit_nodes\":0,\"vpn\":3,\"relay\":0,\"proxy\":0,\"hosting\":58,\"service\":2}"},"geometry":{"type":"Point","coordinates":[30.31413,59.93863]}},{"type":"Feature","properties":{"country_code":"GBR","city":"London","geoname_id":"2643743","downloaders":"{\"size\":14026,\"mobile\":738,\"satellite\":1,\"tor\":0,\"tor_exit_nodes\":0,\"vpn\":3714,\"relay\":1,\"proxy\":2,\"hosting\":4491,\"service\":3182}","uploaders":"{\"size\":2706,\"mobile\":179,\"satellite\":0,\"tor\":0,\"tor_exit_nodes\":0,\"vpn\":1102,\"relay\":0,\"proxy\":0,\"hosting\":1386,\"service\":963}"},"geometry":{"type":"Point","coordinates":[-0.12574,51.50853]}},{"type":"Feature","properties":{"country_code":"TUR","city":"Istanbul","geoname_id":"745044","downloaders":"{\"size\":12633,\"mobile\":904,\"satellite\":0,\"tor\":0,\"tor_exit_nodes\":0,\"vpn\":21,\"relay\":0,\"proxy\":0,\"hosting\":38,\"service\":16}","uploaders":"{\"size\":182,\"mobile\":12,\"satellite\":0,\"tor\":0,\"tor_exit_nodes\":0,\"vpn\":12,\"relay\":0,\"proxy\":0,\"hosting\":13,\"service\":11}"},"geometry":{"type":"Point","coordinates":[28.94966,41.01384]}},{"type":"Feature","properties":{"country_code":"FRA","city":"Paris","geoname_id":"2988507","downloaders":"{\"size\":12434,\"mobile\":1468,\"satellite\":2,\"tor\":1,\"tor_exit_nodes\":3,\"vpn\":1193,\"relay\":0,\"proxy\":0,\"hosting\":3728,\"service\":770}","uploaders":"{\"size\":673,\"mobile\":105,\"satellite\":1,\"tor\":0,\"tor_exit_nodes\":0,\"vpn\":161,\"relay\":0,\"proxy\":0,\"hosting\":323,\"service\":119}"},"geometry":{"type":"Point","coordinates":[2.3488,48.85341]}},{"type":"Feature","properties":{"country_code":"CHN","city":"Shanghai","geoname_id":"1796236","downloaders":"{\"size\":11034,\"mobile\":98,\"satellite\":0,\"tor\":0,\"tor_exit_nodes\":0,\"vpn\":57,\"relay\":0,\"proxy\":0,\"hosting\":552,\"service\":0}","uploaders":"{\"size\":1114,\"mobile\":7,\"satellite\":0,\"tor\":0,\"tor_exit_nodes\":0,\"vpn\":3,\"relay\":0,\"proxy\":0,\"hosting\":102,\"service\":0}"},"geometry":{"type":"Point","coordinates":[121.45806,31.22222]}},{"type":"Feature","properties":{"country_code":"USA","city":"New York City","geoname_id":"5128581","downloaders":"{\"size\":8463,\"mobile\":344,\"satellite\":14,\"tor\":0,\"tor_exit_nodes\":0,\"vpn\":4118,\"relay\":1,\"proxy\":4,\"hosting\":5110,\"service\":3800}","uploaders":"{\"size\":1919,\"mobile\":111,\"satellite\":2,\"tor\":0,\"tor_exit_nodes\":0,\"vpn\":1366,\"relay\":0,\"proxy\":0,\"hosting\":1478,\"service\":1306}"},"geometry":{"type":"Point","coordinates":[-74.00597,40.71427]}},{"type":"Feature","properties":{"country_code":"USA","city":"Dallas","geoname_id":"4684888","downloaders":"{\"size\":8231,\"mobile\":90,\"satellite\":13,\"tor\":0,\"tor_exit_nodes\":0,\"vpn\":1762,\"relay\":0,\"proxy\":0,\"hosting\":7378,\"service\":1673}","uploaders":"{\"size\":2884,\"mobile\":36,\"satellite\":4,\"tor\":0,\"tor_exit_nodes\":0,\"vpn\":449,\"relay\":0,\"proxy\":0,\"hosting\":2748,\"service\":429}"},"geometry":{"type":"Point","coordinates":[-96.9177,32.69]}},{"type":"Feature","properties":{"country_code":"BRA","city":"São Paulo","geoname_id":"3448439","downloaders":"{\"size\":7910,\"mobile\":823,\"satellite\":0,\"tor\":0,\"tor_exit_nodes\":0,\"vpn\":407,\"relay\":0,\"proxy\":0,\"hosting\":710,\"service\":386}","uploaders":"{\"size\":661,\"mobile\":96,\"satellite\":0,\"tor\":0,\"tor_exit_nodes\":0,\"vpn\":100,\"relay\":0,\"proxy\":0,\"hosting\":149,\"service\":98}"},"geometry":{"type":"Point","coordinates":[-46.63611,-23.5475]}},{"type":"Feature","properties":{"country_code":"HUN","city":"Budapest","geoname_id":"3054643","downloaders":"{\"size\":7553,\"mobile\":381,\"satellite\":0,\"tor\":0,\"tor_exit_nodes\":0,\"vpn\":176,\"relay\":0,\"proxy\":0,\"hosting\":217,\"service\":33}","uploaders":"{\"size\":83,\"mobile\":4,\"satellite\":0,\"tor\":0,\"tor_exit_nodes\":0,\"vpn\":2,\"relay\":0,\"proxy\":0,\"hosting\":4,\"service\":2}"},"geometry":{"type":"Point","coordinates":[19.04045,47.49835]}},{"type":"Feature","properties":{"country_code":"ZAF","city":"Johannesburg","geoname_id":"993800","downloaders":"{\"size\":7259,\"mobile\":4170,\"satellite\":0,\"tor\":0,\"tor_exit_nodes\":0,\"vpn\":141,\"relay\":0,\"proxy\":0,\"hosting\":600,\"service\":95}","uploaders":"{\"size\":3055,\"mobile\":1701,\"satellite\":0,\"tor\":0,\"tor_exit_nodes\":0,\"vpn\":49,\"relay\":0,\"proxy\":0,\"hosting\":289,\"service\":26}"},"geometry":{"type":"Point","coordinates":[27.8667,-26.2167]}},{"type":"Feature","properties":{"country_code":"RUS","city":"Yekaterinburg","geoname_id":"1486209","downloaders":"{\"size\":6941,\"mobile\":508,\"satellite\":0,\"tor\":0,\"tor_exit_nodes\":0,\"vpn\":162,\"relay\":0,\"proxy\":0,\"hosting\":416,\"service\":11}","uploaders":"{\"size\":188,\"mobile\":21,\"satellite\":0,\"tor\":0,\"tor_exit_nodes\":0,\"vpn\":2,\"relay\":0,\"proxy\":0,\"hosting\":8,\"service\":0}"},"geometry":{"type":"Point","coordinates":[60.6122,56.8519]}},{"type":"Feature","properties":{"country_code":"KEN","city":"Nairobi","geoname_id":"184745","downloaders":"{\"size\":6690,\"mobile\":2249,\"satellite\":13,\"tor\":0,\"tor_exit_nodes\":0,\"vpn\":51,\"relay\":0,\"proxy\":0,\"hosting\":115,\"service\":0}","uploaders":"{\"size\":3763,\"mobile\":1278,\"satellite\":2,\"tor\":0,\"tor_exit_nodes\":0,\"vpn\":22,\"relay\":0,\"proxy\":0,\"hosting\":59,\"service\":0}"},"geometry":{"type":"Point","coordinates":[36.81667,-1.28333]}},{"type":"Feature","properties":{"country_code":"CAN","city":"Toronto","geoname_id":"6167865","downloaders":"{\"size\":6614,\"mobile\":235,\"satellite\":59,\"tor\":3,\"tor_exit_nodes\":40,\"vpn\":3555,\"relay\":2,\"proxy\":0,\"hosting\":4592,\"service\":3434}","uploaders":"{\"size\":1805,\"mobile\":59,\"satellite\":39,\"tor\":2,\"tor_exit_nodes\":22,\"vpn\":1164,\"relay\":2,\"proxy\":0,\"hosting\":1387,\"service\":1138}"},"geometry":{"type":"Point","coordinates":[-79.39864,43.70643]}},{"type":"Feature","properties":{"country_code":"DEU","city":"Frankfurt am Main","geoname_id":"2925533","downloaders":"{\"size\":6607,\"mobile\":148,\"satellite\":0,\"tor\":0,\"tor_exit_nodes\":6,\"vpn\":1632,\"relay\":0,\"proxy\":13,\"hosting\":5504,\"service\":1560}","uploaders":"{\"size\":891,\"mobile\":0,\"satellite\":0,\"tor\":0,\"tor_exit_nodes\":0,\"vpn\":407,\"relay\":0,\"proxy\":0,\"hosting\":833,\"service\":390}"},"geometry":{"type":"Point","coordinates":[8.68417,50.11552]}},{"type":"Feature","properties":{"country_code":"POL","city":"Warsaw","geoname_id":"756135","downloaders":"{\"size\":6546,\"mobile\":236,\"satellite\":16,\"tor\":0,\"tor_exit_nodes\":0,\"vpn\":167,\"relay\":0,\"proxy\":0,\"hosting\":816,\"service\":128}","uploaders":"{\"size\":513,\"mobile\":36,\"satellite\":1,\"tor\":0,\"tor_exit_nodes\":0,\"vpn\":32,\"relay\":0,\"proxy\":0,\"hosting\":292,\"service\":31}"},"geometry":{"type":"Point","coordinates":[21.01178,52.22977]}},{"type":"Feature","properties":{"country_code":"AUS","city":"Sydney","geoname_id":"2147714","downloaders":"{\"size\":5930,\"mobile\":508,\"satellite\":253,\"tor\":0,\"tor_exit_nodes\":0,\"vpn\":3105,\"relay\":0,\"proxy\":0,\"hosting\":3431,\"service\":2665}","uploaders":"{\"size\":1726,\"mobile\":257,\"satellite\":65,\"tor\":0,\"tor_exit_nodes\":0,\"vpn\":699,\"relay\":0,\"proxy\":0,\"hosting\":777,\"service\":623}"},"geometry":{"type":"Point","coordinates":[151.12602,-33.79558]}},{"type":"Feature","properties":{"country_code":"CAN","city":"Montréal","geoname_id":"6077243","downloaders":"{\"size\":5594,\"mobile\":257,\"satellite\":0,\"tor\":0,\"tor_exit_nodes\":0,\"vpn\":2055,\"relay\":0,\"proxy\":2,\"hosting\":3287,\"service\":2011}","uploaders":"{\"size\":1509,\"mobile\":20,\"satellite\":0,\"tor\":0,\"tor_exit_nodes\":0,\"vpn\":768,\"relay\":0,\"proxy\":0,\"hosting\":1143,\"service\":767}"},"geometry":{"type":"Point","coordinates":[-73.58781,45.50884]}},{"type":"Feature","properties":{"country_code":"RUS","city":"Nizhniy Novgorod","geoname_id":"520555","downloaders":"{\"size\":5296,\"mobile\":1205,\"satellite\":0,\"tor\":0,\"tor_exit_nodes\":0,\"vpn\":58,\"relay\":0,\"proxy\":2,\"hosting\":4,\"service\":7}","uploaders":"{\"size\":166,\"mobile\":43,\"satellite\":0,\"tor\":0,\"tor_exit_nodes\":0,\"vpn\":0,\"relay\":0,\"proxy\":0,\"hosting\":0,\"service\":0}"},"geometry":{"type":"Point","coordinates":[44.00205,56.32867]}},{"type":"Feature","properties":{"country_code":"ESP","city":"Madrid","geoname_id":"3117735","downloaders":"{\"size\":5218,\"mobile\":2133,\"satellite\":1,\"tor\":0,\"tor_exit_nodes\":1,\"vpn\":648,\"relay\":0,\"proxy\":0,\"hosting\":720,\"service\":620}","uploaders":"{\"size\":635,\"mobile\":112,\"satellite\":1,\"tor\":0,\"tor_exit_nodes\":0,\"vpn\":403,\"relay\":0,\"proxy\":0,\"hosting\":419,\"service\":398}"},"geometry":{"type":"Point","coordinates":[-3.70256,40.4165]}},{"type":"Feature","properties":{"country_code":"BGR","city":"Sofia","geoname_id":"727011","downloaders":"{\"size\":5151,\"mobile\":510,\"satellite\":0,\"tor\":0,\"tor_exit_nodes\":0,\"vpn\":250,\"relay\":0,\"proxy\":0,\"hosting\":649,\"service\":158}","uploaders":"{\"size\":171,\"mobile\":18,\"satellite\":0,\"tor\":0,\"tor_exit_nodes\":0,\"vpn\":54,\"relay\":0,\"proxy\":0,\"hosting\":102,\"service\":54}"},"geometry":{"type":"Point","coordinates":[23.32415,42.69751]}},{"type":"Feature","properties":{"country_code":"SWE","city":"Stockholm","geoname_id":"2673730","downloaders":"{\"size\":5147,\"mobile\":129,\"satellite\":0,\"tor\":0,\"tor_exit_nodes\":0,\"vpn\":3078,\"relay\":0,\"proxy\":0,\"hosting\":2977,\"service\":3045}","uploaders":"{\"size\":492,\"mobile\":12,\"satellite\":0,\"tor\":0,\"tor_exit_nodes\":0,\"vpn\":329,\"relay\":0,\"proxy\":0,\"hosting\":305,\"service\":329}"},"geometry":{"type":"Point","coordinates":[18.06871,59.32938]}},{"type":"Feature","properties":{"country_code":"RUS","city":"Novosibirsk","geoname_id":"1496747","downloaders":"{\"size\":5054,\"mobile\":402,\"satellite\":0,\"tor\":0,\"tor_exit_nodes\":0,\"vpn\":15,\"relay\":0,\"proxy\":0,\"hosting\":22,\"service\":7}","uploaders":"{\"size\":162,\"mobile\":18,\"satellite\":0,\"tor\":0,\"tor_exit_nodes\":0,\"vpn\":2,\"relay\":0,\"proxy\":0,\"hosting\":2,\"service\":2}"},"geometry":{"type":"Point","coordinates":[82.94339,55.03442]}},{"type":"Feature","properties":{"country_code":"BEL","city":"Brussels","geoname_id":"2800866","downloaders":"{\"size\":4802,\"mobile\":106,\"satellite\":0,\"tor\":0,\"tor_exit_nodes\":4,\"vpn\":213,\"relay\":0,\"proxy\":0,\"hosting\":37,\"service\":182}","uploaders":"{\"size\":244,\"mobile\":28,\"satellite\":0,\"tor\":0,\"tor_exit_nodes\":1,\"vpn\":55,\"relay\":0,\"proxy\":0,\"hosting\":11,\"service\":52}"},"geometry":{"type":"Point","coordinates":[4.34878,50.85045]}},{"type":"Feature","properties":{"country_code":"MEX","city":"Mexico City","geoname_id":"3530597","downloaders":"{\"size\":4682,\"mobile\":52,\"satellite\":9,\"tor\":0,\"tor_exit_nodes\":0,\"vpn\":44,\"relay\":0,\"proxy\":0,\"hosting\":49,\"service\":43}","uploaders":"{\"size\":111,\"mobile\":16,\"satellite\":2,\"tor\":0,\"tor_exit_nodes\":0,\"vpn\":14,\"relay\":0,\"proxy\":0,\"hosting\":14,\"service\":14}"},"geometry":{"type":"Point","coordinates":[-99.12766,19.42847]}},{"type":"Feature","properties":{"country_code":"CHN","city":"Shenzhen","geoname_id":"1795565","downloaders":"{\"size\":4613,\"mobile\":6,\"satellite\":0,\"tor\":0,\"tor_exit_nodes\":0,\"vpn\":50,\"relay\":0,\"proxy\":0,\"hosting\":79,\"service\":0}","uploaders":"{\"size\":296,\"mobile\":1,\"satellite\":0,\"tor\":0,\"tor_exit_nodes\":0,\"vpn\":3,\"relay\":0,\"proxy\":0,\"hosting\":41,\"service\":0}"},"geometry":{"type":"Point","coordinates":[114.0683,22.54554]}},{"type":"Feature","properties":{"country_code":"NLD","city":"Lelystad","geoname_id":"2751738","downloaders":"{\"size\":4462,\"mobile\":0,\"satellite\":0,\"tor\":4,\"tor_exit_nodes\":1,\"vpn\":548,\"relay\":0,\"proxy\":0,\"hosting\":4318,\"service\":241}","uploaders":"{\"size\":374,\"mobile\":0,\"satellite\":0,\"tor\":2,\"tor_exit_nodes\":0,\"vpn\":64,\"relay\":0,\"proxy\":0,\"hosting\":368,\"service\":54}"},"geometry":{"type":"Point","coordinates":[5.475,52.50833]}},{"type":"Feature","properties":{"country_code":"RUS","city":"Krasnodar","geoname_id":"542420","downloaders":"{\"size\":4367,\"mobile\":1156,\"satellite\":0,\"tor\":0,\"tor_exit_nodes\":0,\"vpn\":96,\"relay\":0,\"proxy\":0,\"hosting\":300,\"service\":70}","uploaders":"{\"size\":243,\"mobile\":76,\"satellite\":0,\"tor\":0,\"tor_exit_nodes\":0,\"vpn\":3,\"relay\":0,\"proxy\":0,\"hosting\":13,\"service\":2}"},"geometry":{"type":"Point","coordinates":[38.97603,45.04484]}},{"type":"Feature","properties":{"country_code":"USA","city":"Los Angeles","geoname_id":"5368361","downloaders":"{\"size\":4297,\"mobile\":176,\"satellite\":34,\"tor\":0,\"tor_exit_nodes\":0,\"vpn\":2704,\"relay\":4,\"proxy\":0,\"hosting\":3300,\"service\":2360}","uploaders":"{\"size\":1148,\"mobile\":84,\"satellite\":9,\"tor\":0,\"tor_exit_nodes\":0,\"vpn\":723,\"relay\":4,\"proxy\":0,\"hosting\":940,\"service\":642}"},"geometry":{"type":"Point","coordinates":[-118.2666,34.0559]}},{"type":"Feature","properties":{"country_code":"RUS","city":"Ufa","geoname_id":"479561","downloaders":"{\"size\":4277,\"mobile\":125,\"satellite\":0,\"tor\":0,\"tor_exit_nodes\":0,\"vpn\":18,\"relay\":0,\"proxy\":0,\"hosting\":0,\"service\":8}","uploaders":"{\"size\":79,\"mobile\":6,\"satellite\":0,\"tor\":0,\"tor_exit_nodes\":0,\"vpn\":0,\"relay\":0,\"proxy\":0,\"hosting\":0,\"service\":0}"},"geometry":{"type":"Point","coordinates":[55.96779,54.74306]}},{"type":"Feature","properties":{"country_code":"RUS","city":"Samara","geoname_id":"499099","downloaders":"{\"size\":4169,\"mobile\":592,\"satellite\":0,\"tor\":0,\"tor_exit_nodes\":0,\"vpn\":78,\"relay\":0,\"proxy\":0,\"hosting\":2,\"service\":45}","uploaders":"{\"size\":95,\"mobile\":17,\"satellite\":0,\"tor\":0,\"tor_exit_nodes\":0,\"vpn\":6,\"relay\":0,\"proxy\":0,\"hosting\":0,\"service\":5}"},"geometry":{"type":"Point","coordinates":[50.15,53.20007]}},{"type":"Feature","properties":{"country_code":"RUS","city":"Voronezh","geoname_id":"472045","downloaders":"{\"size\":4165,\"mobile\":54,\"satellite\":0,\"tor\":0,\"tor_exit_nodes\":0,\"vpn\":30,\"relay\":0,\"proxy\":0,\"hosting\":160,\"service\":1}","uploaders":"{\"size\":77,\"mobile\":8,\"satellite\":0,\"tor\":0,\"tor_exit_nodes\":0,\"vpn\":0,\"relay\":0,\"proxy\":0,\"hosting\":1,\"service\":0}"},"geometry":{"type":"Point","coordinates":[39.1843,51.67204]}},{"type":"Feature","properties":{"country_code":"TUR","city":"Ankara","geoname_id":"323786","downloaders":"{\"size\":4084,\"mobile\":255,\"satellite\":0,\"tor\":0,\"tor_exit_nodes\":0,\"vpn\":3,\"relay\":0,\"proxy\":0,\"hosting\":1,\"service\":3}","uploaders":"{\"size\":52,\"mobile\":8,\"satellite\":0,\"tor\":0,\"tor_exit_nodes\":0,\"vpn\":0,\"relay\":0,\"proxy\":0,\"hosting\":0,\"service\":0}"},"geometry":{"type":"Point","coordinates":[32.85427,39.91987]}},{"type":"Feature","properties":{"country_code":"KOR","city":"Incheon","geoname_id":"1843564","downloaders":"{\"size\":4076,\"mobile\":1,\"satellite\":0,\"tor\":0,\"tor_exit_nodes\":0,\"vpn\":31,\"relay\":0,\"proxy\":0,\"hosting\":198,\"service\":6}","uploaders":"{\"size\":11,\"mobile\":0,\"satellite\":0,\"tor\":0,\"tor_exit_nodes\":0,\"vpn\":0,\"relay\":0,\"proxy\":0,\"hosting\":1,\"service\":0}"},"geometry":{"type":"Point","coordinates":[126.70515,37.45646]}},{"type":"Feature","properties":{"country_code":"USA","city":"Seattle","geoname_id":"5809844","downloaders":"{\"size\":3941,\"mobile\":127,\"satellite\":14,\"tor\":0,\"tor_exit_nodes\":0,\"vpn\":1639,\"relay\":0,\"proxy\":0,\"hosting\":3178,\"service\":1601}","uploaders":"{\"size\":1194,\"mobile\":45,\"satellite\":9,\"tor\":0,\"tor_exit_nodes\":0,\"vpn\":756,\"relay\":0,\"proxy\":0,\"hosting\":1058,\"service\":742}"},"geometry":{"type":"Point","coordinates":[-122.3129,47.5413]}},{"type":"Feature","properties":{"country_code":"USA","city":"Chicago","geoname_id":"4887398","downloaders":"{\"size\":3932,\"mobile\":606,\"satellite\":6,\"tor\":0,\"tor_exit_nodes\":0,\"vpn\":1798,\"relay\":1,\"proxy\":0,\"hosting\":1694,\"service\":1490}","uploaders":"{\"size\":1197,\"mobile\":305,\"satellite\":0,\"tor\":0,\"tor_exit_nodes\":0,\"vpn\":550,\"relay\":0,\"proxy\":0,\"hosting\":524,\"service\":484}"},"geometry":{"type":"Point","coordinates":[-87.7474,41.9453]}},{"type":"Feature","properties":{"country_code":"RUS","city":"Chelyabinsk","geoname_id":"1508291","downloaders":"{\"size\":3562,\"mobile\":290,\"satellite\":0,\"tor\":0,\"tor_exit_nodes\":0,\"vpn\":22,\"relay\":0,\"proxy\":0,\"hosting\":2,\"service\":12}","uploaders":"{\"size\":87,\"mobile\":16,\"satellite\":0,\"tor\":0,\"tor_exit_nodes\":0,\"vpn\":0,\"relay\":0,\"proxy\":0,\"hosting\":0,\"service\":0}"},"geometry":{"type":"Point","coordinates":[61.42915,55.15402]}},{"type":"Feature","properties":{"country_code":"FRA","city":"Dunkerque","geoname_id":"3020686","downloaders":"{\"size\":3460,\"mobile\":37,\"satellite\":0,\"tor\":0,\"tor_exit_nodes\":0,\"vpn\":69,\"relay\":0,\"proxy\":0,\"hosting\":3346,\"service\":58}","uploaders":"{\"size\":242,\"mobile\":0,\"satellite\":0,\"tor\":0,\"tor_exit_nodes\":0,\"vpn\":5,\"relay\":0,\"proxy\":0,\"hosting\":242,\"service\":5}"},"geometry":{"type":"Point","coordinates":[2.37681,51.0344]}},{"type":"Feature","properties":{"country_code":"RUS","city":"Tyumen","geoname_id":"1488754","downloaders":"{\"size\":3429,\"mobile\":472,\"satellite\":0,\"tor\":0,\"tor_exit_nodes\":0,\"vpn\":26,\"relay\":0,\"proxy\":0,\"hosting\":0,\"service\":1}","uploaders":"{\"size\":82,\"mobile\":31,\"satellite\":0,\"tor\":0,\"tor_exit_nodes\":0,\"vpn\":0,\"relay\":0,\"proxy\":0,\"hosting\":0,\"service\":0}"},"geometry":{"type":"Point","coordinates":[65.52722,57.15222]}},{"type":"Feature","properties":{"country_code":"FIN","city":"Helsinki","geoname_id":"658225","downloaders":"{\"size\":3401,\"mobile\":154,\"satellite\":0,\"tor\":0,\"tor_exit_nodes\":0,\"vpn\":550,\"relay\":0,\"proxy\":0,\"hosting\":2923,\"service\":328}","uploaders":"{\"size\":485,\"mobile\":39,\"satellite\":0,\"tor\":0,\"tor_exit_nodes\":0,\"vpn\":247,\"relay\":0,\"proxy\":0,\"hosting\":420,\"service\":116}"},"geometry":{"type":"Point","coordinates":[24.93545,60.16952]}},{"type":"Feature","properties":{"country_code":"HKG","city":"Hong Kong","geoname_id":"1819729","downloaders":"{\"size\":3355,\"mobile\":37,\"satellite\":0,\"tor\":0,\"tor_exit_nodes\":0,\"vpn\":247,\"relay\":0,\"proxy\":0,\"hosting\":763,\"service\":191}","uploaders":"{\"size\":355,\"mobile\":5,\"satellite\":0,\"tor\":0,\"tor_exit_nodes\":0,\"vpn\":25,\"relay\":0,\"proxy\":0,\"hosting\":189,\"service\":18}"},"geometry":{"type":"Point","coordinates":[114.17469,22.27832]}},{"type":"Feature","properties":{"country_code":"ITA","city":"Rome","geoname_id":"3169070","downloaders":"{\"size\":3339,\"mobile\":994,\"satellite\":0,\"tor\":0,\"tor_exit_nodes\":0,\"vpn\":9,\"relay\":1,\"proxy\":0,\"hosting\":16,\"service\":1}","uploaders":"{\"size\":232,\"mobile\":166,\"satellite\":0,\"tor\":0,\"tor_exit_nodes\":0,\"vpn\":0,\"relay\":0,\"proxy\":0,\"hosting\":4,\"service\":0}"},"geometry":{"type":"Point","coordinates":[12.51133,41.89193]}},{"type":"Feature","properties":{"country_code":"BLR","city":"Minsk","geoname_id":"625144","downloaders":"{\"size\":3318,\"mobile\":27,\"satellite\":0,\"tor\":0,\"tor_exit_nodes\":0,\"vpn\":47,\"relay\":0,\"proxy\":0,\"hosting\":86,\"service\":10}","uploaders":"{\"size\":214,\"mobile\":0,\"satellite\":0,\"tor\":0,\"tor_exit_nodes\":0,\"vpn\":4,\"relay\":0,\"proxy\":0,\"hosting\":3,\"service\":3}"},"geometry":{"type":"Point","coordinates":[27.56653,53.90019]}},{"type":"Feature","properties":{"country_code":"RUS","city":"Perm","geoname_id":"511196","downloaders":"{\"size\":3279,\"mobile\":189,\"satellite\":0,\"tor\":0,\"tor_exit_nodes\":0,\"vpn\":31,\"relay\":0,\"proxy\":0,\"hosting\":2,\"service\":1}","uploaders":"{\"size\":91,\"mobile\":3,\"satellite\":0,\"tor\":0,\"tor_exit_nodes\":0,\"vpn\":0,\"relay\":0,\"proxy\":0,\"hosting\":0,\"service\":0}"},"geometry":{"type":"Point","coordinates":[56.25017,58.01046]}},{"type":"Feature","properties":{"country_code":"DEU","city":"Falkenstein","geoname_id":"2927913","downloaders":"{\"size\":3201,\"mobile\":0,\"satellite\":0,\"tor\":0,\"tor_exit_nodes\":0,\"vpn\":2,\"relay\":0,\"proxy\":0,\"hosting\":3201,\"service\":2}","uploaders":"{\"size\":373,\"mobile\":0,\"satellite\":0,\"tor\":0,\"tor_exit_nodes\":0,\"vpn\":0,\"relay\":0,\"proxy\":0,\"hosting\":373,\"service\":0}"},"geometry":{"type":"Point","coordinates":[12.37129,50.47788]}},{"type":"Feature","properties":{"country_code":"CHL","city":"Santiago","geoname_id":"3871336","downloaders":"{\"size\":3090,\"mobile\":698,\"satellite\":1,\"tor\":0,\"tor_exit_nodes\":0,\"vpn\":6,\"relay\":0,\"proxy\":0,\"hosting\":242,\"service\":2}","uploaders":"{\"size\":73,\"mobile\":24,\"satellite\":0,\"tor\":0,\"tor_exit_nodes\":0,\"vpn\":2,\"relay\":0,\"proxy\":0,\"hosting\":18,\"service\":2}"},"geometry":{"type":"Point","coordinates":[-70.64827,-33.45694]}},{"type":"Feature","properties":{"country_code":"USA","city":"Atlanta","geoname_id":"4180439","downloaders":"{\"size\":3087,\"mobile\":173,\"satellite\":1,\"tor\":0,\"tor_exit_nodes\":0,\"vpn\":1737,\"relay\":0,\"proxy\":0,\"hosting\":2072,\"service\":1700}","uploaders":"{\"size\":781,\"mobile\":31,\"satellite\":0,\"tor\":0,\"tor_exit_nodes\":0,\"vpn\":505,\"relay\":0,\"proxy\":0,\"hosting\":665,\"service\":491}"},"geometry":{"type":"Point","coordinates":[-84.38798,33.749]}},{"type":"Feature","properties":{"country_code":"TWN","city":"Taipei","geoname_id":"1668341","downloaders":"{\"size\":2979,\"mobile\":229,\"satellite\":0,\"tor\":0,\"tor_exit_nodes\":0,\"vpn\":102,\"relay\":0,\"proxy\":0,\"hosting\":95,\"service\":60}","uploaders":"{\"size\":919,\"mobile\":108,\"satellite\":0,\"tor\":0,\"tor_exit_nodes\":0,\"vpn\":10,\"relay\":0,\"proxy\":0,\"hosting\":19,\"service\":6}"},"geometry":{"type":"Point","coordinates":[121.52639,25.05306]}},{"type":"Feature","properties":{"country_code":"ZAF","city":"Cape Town","geoname_id":"3369157","downloaders":"{\"size\":2977,\"mobile\":970,\"satellite\":0,\"tor\":0,\"tor_exit_nodes\":0,\"vpn\":5,\"relay\":0,\"proxy\":0,\"hosting\":353,\"service\":0}","uploaders":"{\"size\":1567,\"mobile\":465,\"satellite\":0,\"tor\":0,\"tor_exit_nodes\":0,\"vpn\":3,\"relay\":0,\"proxy\":0,\"hosting\":170,\"service\":0}"},"geometry":{"type":"Point","coordinates":[18.42322,-33.92584]}},{"type":"Feature","properties":{"country_code":"AUS","city":"Melbourne","geoname_id":"2158177","downloaders":"{\"size\":2969,\"mobile\":188,\"satellite\":1,\"tor\":0,\"tor_exit_nodes\":0,\"vpn\":739,\"relay\":0,\"proxy\":0,\"hosting\":1019,\"service\":610}","uploaders":"{\"size\":1013,\"mobile\":65,\"satellite\":0,\"tor\":0,\"tor_exit_nodes\":0,\"vpn\":303,\"relay\":0,\"proxy\":0,\"hosting\":405,\"service\":256}"},"geometry":{"type":"Point","coordinates":[144.96332,-37.814]}},{"type":"Feature","properties":{"country_code":"NLD","city":"Roosendaal","geoname_id":"2747930","downloaders":"{\"size\":2958,\"mobile\":0,\"satellite\":0,\"tor\":0,\"tor_exit_nodes\":0,\"vpn\":61,\"relay\":0,\"proxy\":0,\"hosting\":2707,\"service\":61}","uploaders":"{\"size\":335,\"mobile\":0,\"satellite\":0,\"tor\":0,\"tor_exit_nodes\":0,\"vpn\":16,\"relay\":0,\"proxy\":0,\"hosting\":292,\"service\":16}"},"geometry":{"type":"Point","coordinates":[4.46528,51.53083]}},{"type":"Feature","properties":{"country_code":"TUR","city":"İzmir","geoname_id":"311046","downloaders":"{\"size\":2845,\"mobile\":530,\"satellite\":0,\"tor\":0,\"tor_exit_nodes\":0,\"vpn\":1,\"relay\":0,\"proxy\":0,\"hosting\":0,\"service\":0}","uploaders":"{\"size\":32,\"mobile\":2,\"satellite\":0,\"tor\":0,\"tor_exit_nodes\":0,\"vpn\":0,\"relay\":0,\"proxy\":0,\"hosting\":0,\"service\":0}"},"geometry":{"type":"Point","coordinates":[27.13838,38.41273]}},{"type":"Feature","properties":{"country_code":"RUS","city":"Rostov-na-Donu","geoname_id":"501175","downloaders":"{\"size\":2819,\"mobile\":250,\"satellite\":0,\"tor\":0,\"tor_exit_nodes\":0,\"vpn\":58,\"relay\":0,\"proxy\":0,\"hosting\":0,\"service\":2}","uploaders":"{\"size\":160,\"mobile\":51,\"satellite\":0,\"tor\":0,\"tor_exit_nodes\":0,\"vpn\":4,\"relay\":0,\"proxy\":0,\"hosting\":0,\"service\":0}"},"geometry":{"type":"Point","coordinates":[39.72328,47.23135]}},{"type":"Feature","properties":{"country_code":"ITA","city":"Milan","geoname_id":"3173435","downloaders":"{\"size\":2788,\"mobile\":673,\"satellite\":0,\"tor\":0,\"tor_exit_nodes\":0,\"vpn\":239,\"relay\":0,\"proxy\":0,\"hosting\":298,\"service\":221}","uploaders":"{\"size\":144,\"mobile\":28,\"satellite\":0,\"tor\":0,\"tor_exit_nodes\":0,\"vpn\":29,\"relay\":0,\"proxy\":0,\"hosting\":32,\"service\":29}"},"geometry":{"type":"Point","coordinates":[9.18951,45.46427]}},{"type":"Feature","properties":{"country_code":"DEU","city":"Nürnberg","geoname_id":"2861650","downloaders":"{\"size\":2734,\"mobile\":94,\"satellite\":0,\"tor\":8,\"tor_exit_nodes\":8,\"vpn\":37,\"relay\":0,\"proxy\":0,\"hosting\":2577,\"service\":12}","uploaders":"{\"size\":742,\"mobile\":0,\"satellite\":0,\"tor\":0,\"tor_exit_nodes\":0,\"vpn\":1,\"relay\":0,\"proxy\":0,\"hosting\":742,\"service\":0}"},"geometry":{"type":"Point","coordinates":[11.07752,49.45421]}},{"type":"Feature","properties":{"country_code":"CHN","city":"Nanjing","geoname_id":"1799962","downloaders":"{\"size\":2685,\"mobile\":0,\"satellite\":0,\"tor\":0,\"tor_exit_nodes\":0,\"vpn\":35,\"relay\":0,\"proxy\":0,\"hosting\":18,\"service\":0}","uploaders":"{\"size\":118,\"mobile\":0,\"satellite\":0,\"tor\":0,\"tor_exit_nodes\":0,\"vpn\":1,\"relay\":0,\"proxy\":0,\"hosting\":1,\"service\":0}"},"geometry":{"type":"Point","coordinates":[118.77778,32.06167]}},{"type":"Feature","properties":{"country_code":"BRA","city":"Rio de Janeiro","geoname_id":"3451190","downloaders":"{\"size\":2667,\"mobile\":213,\"satellite\":0,\"tor\":0,\"tor_exit_nodes\":0,\"vpn\":19,\"relay\":0,\"proxy\":0,\"hosting\":16,\"service\":0}","uploaders":"{\"size\":287,\"mobile\":37,\"satellite\":0,\"tor\":0,\"tor_exit_nodes\":0,\"vpn\":5,\"relay\":0,\"proxy\":0,\"hosting\":1,\"service\":0}"},"geometry":{"type":"Point","coordinates":[-43.18223,-22.90642]}},{"type":"Feature","properties":{"country_code":"RUS","city":"Tolyatti","geoname_id":"482283","downloaders":"{\"size\":2583,\"mobile\":0,\"satellite\":0,\"tor\":0,\"tor_exit_nodes\":0,\"vpn\":12,\"relay\":0,\"proxy\":0,\"hosting\":0,\"service\":0}","uploaders":"{\"size\":107,\"mobile\":0,\"satellite\":0,\"tor\":0,\"tor_exit_nodes\":0,\"vpn\":0,\"relay\":0,\"proxy\":0,\"hosting\":0,\"service\":0}"},"geometry":{"type":"Point","coordinates":[49.3461,53.5303]}},{"type":"Feature","properties":{"country_code":"RUS","city":"Omsk","geoname_id":"1496153","downloaders":"{\"size\":2558,\"mobile\":5,\"satellite\":0,\"tor\":0,\"tor_exit_nodes\":0,\"vpn\":3,\"relay\":0,\"proxy\":0,\"hosting\":0,\"service\":2}","uploaders":"{\"size\":43,\"mobile\":0,\"satellite\":0,\"tor\":0,\"tor_exit_nodes\":0,\"vpn\":0,\"relay\":0,\"proxy\":0,\"hosting\":0,\"service\":0}"},"geometry":{"type":"Point","coordinates":[73.36859,54.99244]}},{"type":"Feature","properties":{"country_code":"IRL","city":"Dublin","geoname_id":"2964574","downloaders":"{\"size\":2546,\"mobile\":329,\"satellite\":0,\"tor\":0,\"tor_exit_nodes\":0,\"vpn\":404,\"relay\":0,\"proxy\":0,\"hosting\":867,\"service\":362}","uploaders":"{\"size\":587,\"mobile\":107,\"satellite\":0,\"tor\":0,\"tor_exit_nodes\":0,\"vpn\":120,\"relay\":0,\"proxy\":0,\"hosting\":163,\"service\":98}"},"geometry":{"type":"Point","coordinates":[-6.24889,53.33306]}},{"type":"Feature","properties":{"country_code":"RUS","city":"Krasnoyarsk","geoname_id":"1502026","downloaders":"{\"size\":2519,\"mobile\":159,\"satellite\":0,\"tor\":0,\"tor_exit_nodes\":0,\"vpn\":16,\"relay\":0,\"proxy\":0,\"hosting\":7,\"service\":8}","uploaders":"{\"size\":94,\"mobile\":16,\"satellite\":0,\"tor\":0,\"tor_exit_nodes\":0,\"vpn\":1,\"relay\":0,\"proxy\":0,\"hosting\":0,\"service\":0}"},"geometry":{"type":"Point","coordinates":[92.90765,56.02668]}},{"type":"Feature","properties":{"country_code":"CHN","city":"Qingdao","geoname_id":"1797929","downloaders":"{\"size\":2516,\"mobile\":0,\"satellite\":0,\"tor\":0,\"tor_exit_nodes\":0,\"vpn\":21,\"relay\":0,\"proxy\":0,\"hosting\":52,\"service\":0}","uploaders":"{\"size\":73,\"mobile\":0,\"satellite\":0,\"tor\":0,\"tor_exit_nodes\":0,\"vpn\":0,\"relay\":0,\"proxy\":0,\"hosting\":0,\"service\":0}"},"geometry":{"type":"Point","coordinates":[120.38042,36.06488]}},{"type":"Feature","properties":{"country_code":"FRA","city":"Calais","geoname_id":"3029162","downloaders":"{\"size\":2502,\"mobile\":29,\"satellite\":0,\"tor\":0,\"tor_exit_nodes\":2,\"vpn\":49,\"relay\":0,\"proxy\":2,\"hosting\":2439,\"service\":5}","uploaders":"{\"size\":118,\"mobile\":0,\"satellite\":0,\"tor\":0,\"tor_exit_nodes\":0,\"vpn\":0,\"relay\":0,\"proxy\":0,\"hosting\":118,\"service\":0}"},"geometry":{"type":"Point","coordinates":[1.85635,50.95194]}},{"type":"Feature","properties":{"country_code":"LVA","city":"Riga","geoname_id":"456172","downloaders":"{\"size\":2501,\"mobile\":64,\"satellite\":0,\"tor\":0,\"tor_exit_nodes\":0,\"vpn\":92,\"relay\":0,\"proxy\":0,\"hosting\":165,\"service\":66}","uploaders":"{\"size\":153,\"mobile\":10,\"satellite\":0,\"tor\":0,\"tor_exit_nodes\":0,\"vpn\":20,\"relay\":0,\"proxy\":0,\"hosting\":22,\"service\":20}"},"geometry":{"type":"Point","coordinates":[24.10589,56.946]}},{"type":"Feature","properties":{"country_code":"JPN","city":"Tokyo","geoname_id":"1850147","downloaders":"{\"size\":2484,\"mobile\":197,\"satellite\":0,\"tor\":0,\"tor_exit_nodes\":0,\"vpn\":328,\"relay\":0,\"proxy\":1,\"hosting\":751,\"service\":308}","uploaders":"{\"size\":144,\"mobile\":9,\"satellite\":0,\"tor\":0,\"tor_exit_nodes\":0,\"vpn\":40,\"relay\":0,\"proxy\":0,\"hosting\":63,\"service\":40}"},"geometry":{"type":"Point","coordinates":[139.69171,35.6895]}},{"type":"Feature","properties":{"country_code":"RUS","city":"Saratov","geoname_id":"498677","downloaders":"{\"size\":2468,\"mobile\":91,\"satellite\":0,\"tor\":0,\"tor_exit_nodes\":0,\"vpn\":11,\"relay\":0,\"proxy\":0,\"hosting\":0,\"service\":1}","uploaders":"{\"size\":30,\"mobile\":3,\"satellite\":0,\"tor\":0,\"tor_exit_nodes\":0,\"vpn\":0,\"relay\":0,\"proxy\":0,\"hosting\":0,\"service\":0}"},"geometry":{"type":"Point","coordinates":[46.00861,51.54056]}},{"type":"Feature","properties":{"country_code":"ZAF","city":"Pretoria","geoname_id":"964137","downloaders":"{\"size\":2441,\"mobile\":632,\"satellite\":0,\"tor\":0,\"tor_exit_nodes\":0,\"vpn\":0,\"relay\":0,\"proxy\":0,\"hosting\":6,\"service\":0}","uploaders":"{\"size\":700,\"mobile\":251,\"satellite\":0,\"tor\":0,\"tor_exit_nodes\":0,\"vpn\":0,\"relay\":0,\"proxy\":0,\"hosting\":2,\"service\":0}"},"geometry":{"type":"Point","coordinates":[28.18783,-25.74486]}},{"type":"Feature","properties":{"country_code":"LTU","city":"Vilnius","geoname_id":"593116","downloaders":"{\"size\":2440,\"mobile\":83,\"satellite\":0,\"tor\":0,\"tor_exit_nodes\":0,\"vpn\":48,\"relay\":0,\"proxy\":0,\"hosting\":150,\"service\":29}","uploaders":"{\"size\":89,\"mobile\":20,\"satellite\":0,\"tor\":0,\"tor_exit_nodes\":0,\"vpn\":8,\"relay\":0,\"proxy\":0,\"hosting\":14,\"service\":8}"},"geometry":{"type":"Point","coordinates":[25.2798,54.68916]}},{"type":"Feature","properties":{"country_code":"UKR","city":"Kyiv","geoname_id":"703448","downloaders":"{\"size\":2430,\"mobile\":134,\"satellite\":38,\"tor\":0,\"tor_exit_nodes\":0,\"vpn\":50,\"relay\":0,\"proxy\":0,\"hosting\":380,\"service\":20}","uploaders":"{\"size\":288,\"mobile\":16,\"satellite\":15,\"tor\":0,\"tor_exit_nodes\":0,\"vpn\":5,\"relay\":0,\"proxy\":0,\"hosting\":56,\"service\":5}"},"geometry":{"type":"Point","coordinates":[30.5238,50.45466]}},{"type":"Feature","properties":{"country_code":"USA","city":"Miami","geoname_id":"4164138","downloaders":"{\"size\":2413,\"mobile\":27,\"satellite\":3,\"tor\":0,\"tor_exit_nodes\":0,\"vpn\":1451,\"relay\":0,\"proxy\":0,\"hosting\":1842,\"service\":1431}","uploaders":"{\"size\":662,\"mobile\":11,\"satellite\":2,\"tor\":0,\"tor_exit_nodes\":0,\"vpn\":496,\"relay\":0,\"proxy\":0,\"hosting\":536,\"service\":490}"},"geometry":{"type":"Point","coordinates":[-80.19366,25.77427]}},{"type":"Feature","properties":{"country_code":"GRC","city":"Thessaloníki","geoname_id":"734077","downloaders":"{\"size\":2374,\"mobile\":60,\"satellite\":0,\"tor\":0,\"tor_exit_nodes\":0,\"vpn\":1,\"relay\":0,\"proxy\":0,\"hosting\":22,\"service\":1}","uploaders":"{\"size\":475,\"mobile\":23,\"satellite\":0,\"tor\":0,\"tor_exit_nodes\":0,\"vpn\":0,\"relay\":0,\"proxy\":0,\"hosting\":6,\"service\":0}"},"geometry":{"type":"Point","coordinates":[22.93086,40.64361]}},{"type":"Feature","properties":{"country_code":"KOR","city":"Busan","geoname_id":"1838524","downloaders":"{\"size\":2314,\"mobile\":2,\"satellite\":0,\"tor\":0,\"tor_exit_nodes\":0,\"vpn\":5,\"relay\":0,\"proxy\":0,\"hosting\":0,\"service\":2}","uploaders":"{\"size\":17,\"mobile\":0,\"satellite\":0,\"tor\":0,\"tor_exit_nodes\":0,\"vpn\":0,\"relay\":0,\"proxy\":0,\"hosting\":0,\"service\":0}"},"geometry":{"type":"Point","coordinates":[129.03004,35.10168]}},{"type":"Feature","properties":{"country_code":"CHE","city":"Zürich","geoname_id":"2657896","downloaders":"{\"size\":2294,\"mobile\":442,\"satellite\":0,\"tor\":3,\"tor_exit_nodes\":1,\"vpn\":903,\"relay\":0,\"proxy\":1,\"hosting\":985,\"service\":822}","uploaders":"{\"size\":513,\"mobile\":65,\"satellite\":0,\"tor\":0,\"tor_exit_nodes\":0,\"vpn\":317,\"relay\":0,\"proxy\":0,\"hosting\":351,\"service\":304}"},"geometry":{"type":"Point","coordinates":[8.55,47.36667]}},{"type":"Feature","properties":{"country_code":"CHN","city":"Beijing","geoname_id":"1816670","downloaders":"{\"size\":2280,\"mobile\":0,\"satellite\":0,\"tor\":0,\"tor_exit_nodes\":0,\"vpn\":22,\"relay\":0,\"proxy\":0,\"hosting\":427,\"service\":0}","uploaders":"{\"size\":261,\"mobile\":0,\"satellite\":0,\"tor\":0,\"tor_exit_nodes\":0,\"vpn\":0,\"relay\":0,\"proxy\":0,\"hosting\":105,\"service\":0}"},"geometry":{"type":"Point","coordinates":[116.39723,39.9075]}},{"type":"Feature","properties":{"country_code":"TUR","city":"Bursa","geoname_id":"750269","downloaders":"{\"size\":2266,\"mobile\":201,\"satellite\":0,\"tor\":0,\"tor_exit_nodes\":0,\"vpn\":2,\"relay\":0,\"proxy\":0,\"hosting\":31,\"service\":0}","uploaders":"{\"size\":13,\"mobile\":0,\"satellite\":0,\"tor\":0,\"tor_exit_nodes\":0,\"vpn\":0,\"relay\":0,\"proxy\":0,\"hosting\":0,\"service\":0}"},"geometry":{"type":"Point","coordinates":[29.06013,40.19559]}},{"type":"Feature","properties":{"country_code":"RUS","city":"Tver","geoname_id":"480060","downloaders":"{\"size\":2235,\"mobile\":76,\"satellite\":0,\"tor\":0,\"tor_exit_nodes\":0,\"vpn\":23,\"relay\":0,\"proxy\":0,\"hosting\":9,\"service\":2}","uploaders":"{\"size\":81,\"mobile\":7,\"satellite\":0,\"tor\":0,\"tor_exit_nodes\":0,\"vpn\":4,\"relay\":0,\"proxy\":0,\"hosting\":1,\"service\":0}"},"geometry":{"type":"Point","coordinates":[35.90057,56.85836]}},{"type":"Feature","properties":{"country_code":"DEU","city":"Berlin","geoname_id":"2950159","downloaders":"{\"size\":2235,\"mobile\":1048,\"satellite\":33,\"tor\":8,\"tor_exit_nodes\":8,\"vpn\":82,\"relay\":0,\"proxy\":0,\"hosting\":127,\"service\":76}","uploaders":"{\"size\":49,\"mobile\":5,\"satellite\":9,\"tor\":2,\"tor_exit_nodes\":2,\"vpn\":15,\"relay\":0,\"proxy\":0,\"hosting\":19,\"service\":15}"},"geometry":{"type":"Point","coordinates":[13.41053,52.52437]}},{"type":"Feature","properties":{"country_code":"ESP","city":"Barcelona","geoname_id":"3128760","downloaders":"{\"size\":2232,\"mobile\":898,\"satellite\":0,\"tor\":0,\"tor_exit_nodes\":0,\"vpn\":7,\"relay\":0,\"proxy\":0,\"hosting\":5,\"service\":3}","uploaders":"{\"size\":141,\"mobile\":27,\"satellite\":0,\"tor\":0,\"tor_exit_nodes\":0,\"vpn\":1,\"relay\":0,\"proxy\":0,\"hosting\":1,\"service\":1}"},"geometry":{"type":"Point","coordinates":[2.15899,41.38879]}},{"type":"Feature","properties":{"country_code":"RUS","city":"Kazan","geoname_id":"551487","downloaders":"{\"size\":2140,\"mobile\":312,\"satellite\":0,\"tor\":0,\"tor_exit_nodes\":0,\"vpn\":20,\"relay\":0,\"proxy\":0,\"hosting\":4,\"service\":0}","uploaders":"{\"size\":92,\"mobile\":11,\"satellite\":0,\"tor\":0,\"tor_exit_nodes\":0,\"vpn\":0,\"relay\":0,\"proxy\":0,\"hosting\":1,\"service\":0}"},"geometry":{"type":"Point","coordinates":[49.12214,55.78874]}},{"type":"Feature","properties":{"country_code":"ROU","city":"Bucharest","geoname_id":"683506","downloaders":"{\"size\":2091,\"mobile\":327,\"satellite\":0,\"tor\":0,\"tor_exit_nodes\":0,\"vpn\":256,\"relay\":0,\"proxy\":0,\"hosting\":344,\"service\":183}","uploaders":"{\"size\":243,\"mobile\":6,\"satellite\":0,\"tor\":0,\"tor_exit_nodes\":0,\"vpn\":65,\"relay\":0,\"proxy\":0,\"hosting\":89,\"service\":51}"},"geometry":{"type":"Point","coordinates":[26.10626,44.43225]}},{"type":"Feature","properties":{"country_code":"RUS","city":"Khimki","geoname_id":"550280","downloaders":"{\"size\":2080,\"mobile\":0,\"satellite\":1,\"tor\":0,\"tor_exit_nodes\":0,\"vpn\":160,\"relay\":0,\"proxy\":0,\"hosting\":397,\"service\":52}","uploaders":"{\"size\":81,\"mobile\":0,\"satellite\":0,\"tor\":0,\"tor_exit_nodes\":0,\"vpn\":3,\"relay\":0,\"proxy\":0,\"hosting\":3,\"service\":3}"},"geometry":{"type":"Point","coordinates":[37.42848,55.9001]}},{"type":"Feature","properties":{"country_code":"ARG","city":"Buenos Aires","geoname_id":"3435910","downloaders":"{\"size\":2057,\"mobile\":450,\"satellite\":0,\"tor\":0,\"tor_exit_nodes\":0,\"vpn\":9,\"relay\":0,\"proxy\":0,\"hosting\":63,\"service\":7}","uploaders":"{\"size\":180,\"mobile\":18,\"satellite\":0,\"tor\":0,\"tor_exit_nodes\":0,\"vpn\":6,\"relay\":0,\"proxy\":0,\"hosting\":22,\"service\":4}"},"geometry":{"type":"Point","coordinates":[-58.37723,-34.61315]}},{"type":"Feature","properties":{"country_code":"CAN","city":"Vancouver","geoname_id":"6173331","downloaders":"{\"size\":2047,\"mobile\":390,\"satellite\":3,\"tor\":0,\"tor_exit_nodes\":0,\"vpn\":964,\"relay\":0,\"proxy\":0,\"hosting\":904,\"service\":900}","uploaders":"{\"size\":809,\"mobile\":283,\"satellite\":0,\"tor\":0,\"tor_exit_nodes\":0,\"vpn\":317,\"relay\":0,\"proxy\":0,\"hosting\":315,\"service\":299}"},"geometry":{"type":"Point","coordinates":[-123.11934,49.24966]}},{"type":"Feature","properties":{"country_code":"RUS","city":"Tomsk","geoname_id":"1489425","downloaders":"{\"size\":2047,\"mobile\":2,\"satellite\":0,\"tor\":0,\"tor_exit_nodes\":0,\"vpn\":2,\"relay\":0,\"proxy\":0,\"hosting\":1,\"service\":0}","uploaders":"{\"size\":23,\"mobile\":0,\"satellite\":0,\"tor\":0,\"tor_exit_nodes\":0,\"vpn\":0,\"relay\":0,\"proxy\":0,\"hosting\":0,\"service\":0}"},"geometry":{"type":"Point","coordinates":[84.98204,56.50032]}},{"type":"Feature","properties":{"country_code":"GHA","city":"Accra","geoname_id":"2306104","downloaders":"{\"size\":2033,\"mobile\":1845,\"satellite\":0,\"tor\":0,\"tor_exit_nodes\":0,\"vpn\":12,\"relay\":0,\"proxy\":0,\"hosting\":10,\"service\":0}","uploaders":"{\"size\":1080,\"mobile\":995,\"satellite\":0,\"tor\":0,\"tor_exit_nodes\":0,\"vpn\":2,\"relay\":0,\"proxy\":0,\"hosting\":7,\"service\":0}"},"geometry":{"type":"Point","coordinates":[-0.1969,5.55602]}},{"type":"Feature","properties":{"country_code":"RUS","city":"Tula","geoname_id":"480562","downloaders":"{\"size\":2008,\"mobile\":394,\"satellite\":0,\"tor\":0,\"tor_exit_nodes\":0,\"vpn\":16,\"relay\":0,\"proxy\":0,\"hosting\":30,\"service\":0}","uploaders":"{\"size\":34,\"mobile\":13,\"satellite\":0,\"tor\":0,\"tor_exit_nodes\":0,\"vpn\":0,\"relay\":0,\"proxy\":0,\"hosting\":2,\"service\":0}"},"geometry":{"type":"Point","coordinates":[37.61822,54.19609]}},{"type":"Feature","properties":{"country_code":"CZE","city":"Prague","geoname_id":"3067696","downloaders":"{\"size\":1980,\"mobile\":140,\"satellite\":1,\"tor\":0,\"tor_exit_nodes\":0,\"vpn\":216,\"relay\":0,\"proxy\":0,\"hosting\":308,\"service\":192}","uploaders":"{\"size\":138,\"mobile\":22,\"satellite\":0,\"tor\":0,\"tor_exit_nodes\":0,\"vpn\":62,\"relay\":0,\"proxy\":0,\"hosting\":77,\"service\":62}"},"geometry":{"type":"Point","coordinates":[14.42076,50.08804]}},{"type":"Feature","properties":{"country_code":"RUS","city":"Barnaul","geoname_id":"1510853","downloaders":"{\"size\":1980,\"mobile\":1,\"satellite\":0,\"tor\":0,\"tor_exit_nodes\":0,\"vpn\":4,\"relay\":0,\"proxy\":0,\"hosting\":0,\"service\":4}","uploaders":"{\"size\":89,\"mobile\":0,\"satellite\":0,\"tor\":0,\"tor_exit_nodes\":0,\"vpn\":0,\"relay\":0,\"proxy\":0,\"hosting\":0,\"service\":0}"},"geometry":{"type":"Point","coordinates":[83.7456,53.3598]}},{"type":"Feature","properties":{"country_code":"USA","city":"Phoenix","geoname_id":"5308655","downloaders":"{\"size\":1970,\"mobile\":6,\"satellite\":7,\"tor\":0,\"tor_exit_nodes\":0,\"vpn\":440,\"relay\":0,\"proxy\":0,\"hosting\":1255,\"service\":416}","uploaders":"{\"size\":291,\"mobile\":4,\"satellite\":2,\"tor\":0,\"tor_exit_nodes\":0,\"vpn\":97,\"relay\":0,\"proxy\":0,\"hosting\":242,\"service\":87}"},"geometry":{"type":"Point","coordinates":[-112.07404,33.44838]}},{"type":"Feature","properties":{"country_code":"AUS","city":"Perth","geoname_id":"2063523","downloaders":"{\"size\":1954,\"mobile\":431,\"satellite\":0,\"tor\":0,\"tor_exit_nodes\":0,\"vpn\":536,\"relay\":0,\"proxy\":0,\"hosting\":561,\"service\":525}","uploaders":"{\"size\":767,\"mobile\":292,\"satellite\":0,\"tor\":0,\"tor_exit_nodes\":0,\"vpn\":150,\"relay\":0,\"proxy\":0,\"hosting\":172,\"service\":146}"},"geometry":{"type":"Point","coordinates":[115.8614,-31.95224]}},{"type":"Feature","properties":{"country_code":"KOR","city":"Daegu","geoname_id":"1835329","downloaders":"{\"size\":1951,\"mobile\":0,\"satellite\":0,\"tor\":0,\"tor_exit_nodes\":0,\"vpn\":10,\"relay\":0,\"proxy\":0,\"hosting\":45,\"service\":3}","uploaders":"{\"size\":11,\"mobile\":0,\"satellite\":0,\"tor\":0,\"tor_exit_nodes\":0,\"vpn\":0,\"relay\":0,\"proxy\":0,\"hosting\":0,\"service\":0}"},"geometry":{"type":"Point","coordinates":[128.59111,35.87028]}},{"type":"Feature","properties":{"country_code":"NGA","city":"Lagos","geoname_id":"2332459","downloaders":"{\"size\":1947,\"mobile\":1057,\"satellite\":0,\"tor\":0,\"tor_exit_nodes\":0,\"vpn\":5,\"relay\":0,\"proxy\":0,\"hosting\":39,\"service\":1}","uploaders":"{\"size\":729,\"mobile\":413,\"satellite\":0,\"tor\":0,\"tor_exit_nodes\":0,\"vpn\":2,\"relay\":0,\"proxy\":0,\"hosting\":11,\"service\":0}"},"geometry":{"type":"Point","coordinates":[3.39467,6.45407]}},{"type":"Feature","properties":{"country_code":"HRV","city":"Zagreb","geoname_id":"3186886","downloaders":"{\"size\":1946,\"mobile\":391,\"satellite\":0,\"tor\":0,\"tor_exit_nodes\":0,\"vpn\":34,\"relay\":0,\"proxy\":0,\"hosting\":38,\"service\":23}","uploaders":"{\"size\":550,\"mobile\":216,\"satellite\":0,\"tor\":0,\"tor_exit_nodes\":0,\"vpn\":7,\"relay\":0,\"proxy\":0,\"hosting\":4,\"service\":4}"},"geometry":{"type":"Point","coordinates":[15.97798,45.81444]}},{"type":"Feature","properties":{"country_code":"ISR","city":"Tel Aviv","geoname_id":"293397","downloaders":"{\"size\":1927,\"mobile\":475,\"satellite\":0,\"tor\":0,\"tor_exit_nodes\":0,\"vpn\":329,\"relay\":0,\"proxy\":0,\"hosting\":371,\"service\":327}","uploaders":"{\"size\":663,\"mobile\":184,\"satellite\":0,\"tor\":0,\"tor_exit_nodes\":0,\"vpn\":96,\"relay\":0,\"proxy\":0,\"hosting\":104,\"service\":96}"},"geometry":{"type":"Point","coordinates":[34.78057,32.08088]}},{"type":"Feature","properties":{"country_code":"RUS","city":"Lipetsk","geoname_id":"535121","downloaders":"{\"size\":1905,\"mobile\":216,\"satellite\":0,\"tor\":0,\"tor_exit_nodes\":0,\"vpn\":8,\"relay\":0,\"proxy\":0,\"hosting\":0,\"service\":0}","uploaders":"{\"size\":32,\"mobile\":7,\"satellite\":0,\"tor\":0,\"tor_exit_nodes\":0,\"vpn\":0,\"relay\":0,\"proxy\":0,\"hosting\":0,\"service\":0}"},"geometry":{"type":"Point","coordinates":[39.57076,52.60311]}},{"type":"Feature","properties":{"country_code":"SGP","city":"Singapore","geoname_id":"1880252","downloaders":"{\"size\":1865,\"mobile\":116,\"satellite\":0,\"tor\":0,\"tor_exit_nodes\":0,\"vpn\":573,\"relay\":0,\"proxy\":0,\"hosting\":1121,\"service\":562}","uploaders":"{\"size\":293,\"mobile\":38,\"satellite\":0,\"tor\":0,\"tor_exit_nodes\":0,\"vpn\":106,\"relay\":0,\"proxy\":0,\"hosting\":186,\"service\":105}"},"geometry":{"type":"Point","coordinates":[103.85007,1.28967]}},{"type":"Feature","properties":{"country_code":"BWA","city":"Gaborone","geoname_id":"933773","downloaders":"{\"size\":1862,\"mobile\":632,\"satellite\":78,\"tor\":0,\"tor_exit_nodes\":0,\"vpn\":2,\"relay\":0,\"proxy\":0,\"hosting\":0,\"service\":0}","uploaders":"{\"size\":693,\"mobile\":303,\"satellite\":6,\"tor\":0,\"tor_exit_nodes\":0,\"vpn\":0,\"relay\":0,\"proxy\":0,\"hosting\":0,\"service\":0}"},"geometry":{"type":"Point","coordinates":[25.90859,-24.65451]}},{"type":"Feature","properties":{"country_code":"RUS","city":"Yaroslavl","geoname_id":"468902","downloaders":"{\"size\":1849,\"mobile\":183,\"satellite\":0,\"tor\":0,\"tor_exit_nodes\":0,\"vpn\":16,\"relay\":0,\"proxy\":0,\"hosting\":0,\"service\":0}","uploaders":"{\"size\":27,\"mobile\":8,\"satellite\":0,\"tor\":0,\"tor_exit_nodes\":0,\"vpn\":0,\"relay\":0,\"proxy\":0,\"hosting\":0,\"service\":0}"},"geometry":{"type":"Point","coordinates":[39.87368,57.62987]}},{"type":"Feature","properties":{"country_code":"TWN","city":"Taoyuan City","geoname_id":"6696918","downloaders":"{\"size\":1827,\"mobile\":15,\"satellite\":0,\"tor\":0,\"tor_exit_nodes\":0,\"vpn\":16,\"relay\":0,\"proxy\":0,\"hosting\":0,\"service\":0}","uploaders":"{\"size\":703,\"mobile\":13,\"satellite\":0,\"tor\":0,\"tor_exit_nodes\":0,\"vpn\":6,\"relay\":0,\"proxy\":0,\"hosting\":0,\"service\":0}"},"geometry":{"type":"Point","coordinates":[121.29696,24.99368]}},{"type":"Feature","properties":{"country_code":"AUS","city":"Brisbane","geoname_id":"2174003","downloaders":"{\"size\":1814,\"mobile\":334,\"satellite\":62,\"tor\":0,\"tor_exit_nodes\":0,\"vpn\":438,\"relay\":0,\"proxy\":0,\"hosting\":443,\"service\":414}","uploaders":"{\"size\":713,\"mobile\":147,\"satellite\":4,\"tor\":0,\"tor_exit_nodes\":0,\"vpn\":188,\"relay\":0,\"proxy\":0,\"hosting\":193,\"service\":186}"},"geometry":{"type":"Point","coordinates":[153.02809,-27.46794]}},{"type":"Feature","properties":{"country_code":"USA","city":"San Jose","geoname_id":"5392171","downloaders":"{\"size\":1749,\"mobile\":3,\"satellite\":1,\"tor\":10,\"tor_exit_nodes\":10,\"vpn\":689,\"relay\":1,\"proxy\":0,\"hosting\":1485,\"service\":677}","uploaders":"{\"size\":507,\"mobile\":2,\"satellite\":0,\"tor\":0,\"tor_exit_nodes\":0,\"vpn\":267,\"relay\":0,\"proxy\":0,\"hosting\":459,\"service\":262}"},"geometry":{"type":"Point","coordinates":[-121.89496,37.33939]}},{"type":"Feature","properties":{"country_code":"KAZ","city":"Almaty","geoname_id":"1526384","downloaders":"{\"size\":1741,\"mobile\":377,\"satellite\":0,\"tor\":0,\"tor_exit_nodes\":0,\"vpn\":7,\"relay\":0,\"proxy\":0,\"hosting\":160,\"service\":1}","uploaders":"{\"size\":126,\"mobile\":51,\"satellite\":0,\"tor\":0,\"tor_exit_nodes\":0,\"vpn\":0,\"relay\":0,\"proxy\":0,\"hosting\":1,\"service\":0}"},"geometry":{"type":"Point","coordinates":[76.9115,43.25249]}},{"type":"Feature","properties":{"country_code":"RUS","city":"Balashikha","geoname_id":"579464","downloaders":"{\"size\":1731,\"mobile\":36,\"satellite\":0,\"tor\":0,\"tor_exit_nodes\":0,\"vpn\":61,\"relay\":0,\"proxy\":0,\"hosting\":105,\"service\":6}","uploaders":"{\"size\":29,\"mobile\":0,\"satellite\":0,\"tor\":0,\"tor_exit_nodes\":0,\"vpn\":0,\"relay\":0,\"proxy\":0,\"hosting\":0,\"service\":0}"},"geometry":{"type":"Point","coordinates":[37.94794,55.79479]}},{"type":"Feature","properties":{"country_code":"RUS","city":"Penza","geoname_id":"511565","downloaders":"{\"size\":1710,\"mobile\":237,\"satellite\":0,\"tor\":0,\"tor_exit_nodes\":0,\"vpn\":15,\"relay\":0,\"proxy\":0,\"hosting\":0,\"service\":2}","uploaders":"{\"size\":19,\"mobile\":6,\"satellite\":0,\"tor\":0,\"tor_exit_nodes\":0,\"vpn\":0,\"relay\":0,\"proxy\":0,\"hosting\":0,\"service\":0}"},"geometry":{"type":"Point","coordinates":[45.00464,53.20066]}},{"type":"Feature","properties":{"country_code":"RUS","city":"Kirov","geoname_id":"548408","downloaders":"{\"size\":1705,\"mobile\":7,\"satellite\":0,\"tor\":0,\"tor_exit_nodes\":0,\"vpn\":127,\"relay\":0,\"proxy\":0,\"hosting\":0,\"service\":120}","uploaders":"{\"size\":167,\"mobile\":0,\"satellite\":0,\"tor\":0,\"tor_exit_nodes\":0,\"vpn\":13,\"relay\":0,\"proxy\":0,\"hosting\":0,\"service\":12}"},"geometry":{"type":"Point","coordinates":[49.66007,58.59665]}},{"type":"Feature","properties":{"country_code":"ITA","city":"Naples","geoname_id":"3172394","downloaders":"{\"size\":1704,\"mobile\":467,\"satellite\":0,\"tor\":0,\"tor_exit_nodes\":0,\"vpn\":3,\"relay\":0,\"proxy\":0,\"hosting\":0,\"service\":0}","uploaders":"{\"size\":7,\"mobile\":4,\"satellite\":0,\"tor\":0,\"tor_exit_nodes\":0,\"vpn\":0,\"relay\":0,\"proxy\":0,\"hosting\":0,\"service\":0}"},"geometry":{"type":"Point","coordinates":[14.26811,40.85216]}},{"type":"Feature","properties":{"country_code":"RUS","city":"Volgograd","geoname_id":"472757","downloaders":"{\"size\":1684,\"mobile\":69,\"satellite\":0,\"tor\":0,\"tor_exit_nodes\":0,\"vpn\":22,\"relay\":0,\"proxy\":0,\"hosting\":0,\"service\":1}","uploaders":"{\"size\":46,\"mobile\":0,\"satellite\":0,\"tor\":0,\"tor_exit_nodes\":0,\"vpn\":0,\"relay\":0,\"proxy\":0,\"hosting\":0,\"service\":0}"},"geometry":{"type":"Point","coordinates":[44.50183,48.71939]}},{"type":"Feature","properties":{"country_code":"KOR","city":"Suwon","geoname_id":"1835553","downloaders":"{\"size\":1648,\"mobile\":0,\"satellite\":0,\"tor\":0,\"tor_exit_nodes\":0,\"vpn\":23,\"relay\":0,\"proxy\":0,\"hosting\":1,\"service\":3}","uploaders":"{\"size\":9,\"mobile\":0,\"satellite\":0,\"tor\":0,\"tor_exit_nodes\":0,\"vpn\":0,\"relay\":0,\"proxy\":0,\"hosting\":0,\"service\":0}"},"geometry":{"type":"Point","coordinates":[127.00889,37.29111]}},{"type":"Feature","properties":{"country_code":"MEX","city":"Guadalajara","geoname_id":"4005539","downloaders":"{\"size\":1643,\"mobile\":0,\"satellite\":0,\"tor\":0,\"tor_exit_nodes\":0,\"vpn\":0,\"relay\":0,\"proxy\":0,\"hosting\":1,\"service\":0}","uploaders":"{\"size\":18,\"mobile\":0,\"satellite\":0,\"tor\":0,\"tor_exit_nodes\":0,\"vpn\":0,\"relay\":0,\"proxy\":0,\"hosting\":0,\"service\":0}"},"geometry":{"type":"Point","coordinates":[-103.34749,20.67738]}},{"type":"Feature","properties":{"country_code":"RUS","city":"Bryansk","geoname_id":"571476","downloaders":"{\"size\":1627,\"mobile\":0,\"satellite\":0,\"tor\":0,\"tor_exit_nodes\":0,\"vpn\":6,\"relay\":0,\"proxy\":0,\"hosting\":0,\"service\":1}","uploaders":"{\"size\":35,\"mobile\":0,\"satellite\":0,\"tor\":0,\"tor_exit_nodes\":0,\"vpn\":0,\"relay\":0,\"proxy\":0,\"hosting\":0,\"service\":0}"},"geometry":{"type":"Point","coordinates":[34.37167,53.25209]}},{"type":"Feature","properties":{"country_code":"AUT","city":"Vienna","geoname_id":"2761369","downloaders":"{\"size\":1617,\"mobile\":222,\"satellite\":0,\"tor\":0,\"tor_exit_nodes\":0,\"vpn\":147,\"relay\":0,\"proxy\":2,\"hosting\":177,\"service\":121}","uploaders":"{\"size\":106,\"mobile\":32,\"satellite\":0,\"tor\":0,\"tor_exit_nodes\":0,\"vpn\":25,\"relay\":0,\"proxy\":0,\"hosting\":31,\"service\":20}"},"geometry":{"type":"Point","coordinates":[16.37208,48.20849]}},{"type":"Feature","properties":{"country_code":"GRC","city":"Athens","geoname_id":"264371","downloaders":"{\"size\":1615,\"mobile\":277,\"satellite\":0,\"tor\":0,\"tor_exit_nodes\":0,\"vpn\":60,\"relay\":0,\"proxy\":0,\"hosting\":70,\"service\":35}","uploaders":"{\"size\":454,\"mobile\":149,\"satellite\":0,\"tor\":0,\"tor_exit_nodes\":0,\"vpn\":32,\"relay\":0,\"proxy\":0,\"hosting\":34,\"service\":22}"},"geometry":{"type":"Point","coordinates":[23.72784,37.98376]}},{"type":"Feature","properties":{"country_code":"POL","city":"Ursynów","geoname_id":"6545326","downloaders":"{\"size\":1531,\"mobile\":0,\"satellite\":0,\"tor\":0,\"tor_exit_nodes\":0,\"vpn\":24,\"relay\":0,\"proxy\":1,\"hosting\":35,\"service\":24}","uploaders":"{\"size\":28,\"mobile\":0,\"satellite\":0,\"tor\":0,\"tor_exit_nodes\":0,\"vpn\":7,\"relay\":0,\"proxy\":0,\"hosting\":7,\"service\":7}"},"geometry":{"type":"Point","coordinates":[21.0068,52.1552]}},{"type":"Feature","properties":{"country_code":"RUS","city":"Cheboksary","geoname_id":"569696","downloaders":"{\"size\":1523,\"mobile\":212,\"satellite\":0,\"tor\":0,\"tor_exit_nodes\":0,\"vpn\":3,\"relay\":0,\"proxy\":0,\"hosting\":0,\"service\":0}","uploaders":"{\"size\":15,\"mobile\":3,\"satellite\":0,\"tor\":0,\"tor_exit_nodes\":0,\"vpn\":0,\"relay\":0,\"proxy\":0,\"hosting\":0,\"service\":0}"},"geometry":{"type":"Point","coordinates":[47.25194,56.13222]}},{"type":"Feature","properties":{"country_code":"RUS","city":"Ryazan’","geoname_id":"500096","downloaders":"{\"size\":1517,\"mobile\":126,\"satellite\":0,\"tor\":0,\"tor_exit_nodes\":0,\"vpn\":39,\"relay\":0,\"proxy\":0,\"hosting\":2,\"service\":5}","uploaders":"{\"size\":22,\"mobile\":2,\"satellite\":0,\"tor\":0,\"tor_exit_nodes\":0,\"vpn\":0,\"relay\":0,\"proxy\":0,\"hosting\":0,\"service\":0}"},"geometry":{"type":"Point","coordinates":[39.6916,54.6269]}},{"type":"Feature","properties":{"country_code":"NZL","city":"Auckland","geoname_id":"2193733","downloaders":"{\"size\":1481,\"mobile\":536,\"satellite\":5,\"tor\":0,\"tor_exit_nodes\":0,\"vpn\":221,\"relay\":0,\"proxy\":0,\"hosting\":234,\"service\":211}","uploaders":"{\"size\":591,\"mobile\":208,\"satellite\":0,\"tor\":0,\"tor_exit_nodes\":0,\"vpn\":96,\"relay\":0,\"proxy\":0,\"hosting\":106,\"service\":94}"},"geometry":{"type":"Point","coordinates":[174.76349,-36.84853]}},{"type":"Feature","properties":{"country_code":"ZAF","city":"Benoni","geoname_id":"1020098","downloaders":"{\"size\":1479,\"mobile\":1399,\"satellite\":0,\"tor\":0,\"tor_exit_nodes\":0,\"vpn\":2,\"relay\":0,\"proxy\":0,\"hosting\":0,\"service\":0}","uploaders":"{\"size\":483,\"mobile\":429,\"satellite\":0,\"tor\":0,\"tor_exit_nodes\":0,\"vpn\":2,\"relay\":0,\"proxy\":0,\"hosting\":0,\"service\":0}"},"geometry":{"type":"Point","coordinates":[28.32078,-26.18848]}},{"type":"Feature","properties":{"country_code":"RUS","city":"Kemerovo","geoname_id":"1503901","downloaders":"{\"size\":1470,\"mobile\":0,\"satellite\":0,\"tor\":0,\"tor_exit_nodes\":0,\"vpn\":3,\"relay\":0,\"proxy\":0,\"hosting\":4,\"service\":0}","uploaders":"{\"size\":26,\"mobile\":0,\"satellite\":0,\"tor\":0,\"tor_exit_nodes\":0,\"vpn\":0,\"relay\":0,\"proxy\":0,\"hosting\":0,\"service\":0}"},"geometry":{"type":"Point","coordinates":[86.08333,55.33333]}},{"type":"Feature","properties":{"country_code":"SVN","city":"Ljubljana","geoname_id":"3196359","downloaders":"{\"size\":1456,\"mobile\":59,\"satellite\":0,\"tor\":0,\"tor_exit_nodes\":0,\"vpn\":51,\"relay\":0,\"proxy\":0,\"hosting\":44,\"service\":34}","uploaders":"{\"size\":85,\"mobile\":20,\"satellite\":0,\"tor\":0,\"tor_exit_nodes\":0,\"vpn\":2,\"relay\":0,\"proxy\":0,\"hosting\":2,\"service\":2}"},"geometry":{"type":"Point","coordinates":[14.50513,46.05108]}},{"type":"Feature","properties":{"country_code":"DEU","city":"Hamburg","geoname_id":"2911298","downloaders":"{\"size\":1440,\"mobile\":914,\"satellite\":0,\"tor\":0,\"tor_exit_nodes\":0,\"vpn\":3,\"relay\":0,\"proxy\":0,\"hosting\":0,\"service\":0}","uploaders":"{\"size\":36,\"mobile\":35,\"satellite\":0,\"tor\":0,\"tor_exit_nodes\":0,\"vpn\":0,\"relay\":0,\"proxy\":0,\"hosting\":0,\"service\":0}"},"geometry":{"type":"Point","coordinates":[9.99302,53.55073]}},{"type":"Feature","properties":{"country_code":"POL","city":"Mokotów","geoname_id":"764484","downloaders":"{\"size\":1422,\"mobile\":15,\"satellite\":0,\"tor\":0,\"tor_exit_nodes\":0,\"vpn\":0,\"relay\":0,\"proxy\":0,\"hosting\":0,\"service\":0}","uploaders":"{\"size\":20,\"mobile\":3,\"satellite\":0,\"tor\":0,\"tor_exit_nodes\":0,\"vpn\":0,\"relay\":0,\"proxy\":0,\"hosting\":0,\"service\":0}"},"geometry":{"type":"Point","coordinates":[20.9944,52.177]}},{"type":"Feature","properties":{"country_code":"RUS","city":"Orenburg","geoname_id":"515003","downloaders":"{\"size\":1417,\"mobile\":7,\"satellite\":0,\"tor\":0,\"tor_exit_nodes\":0,\"vpn\":41,\"relay\":0,\"proxy\":0,\"hosting\":0,\"service\":38}","uploaders":"{\"size\":39,\"mobile\":0,\"satellite\":0,\"tor\":0,\"tor_exit_nodes\":0,\"vpn\":0,\"relay\":0,\"proxy\":0,\"hosting\":0,\"service\":0}"},"geometry":{"type":"Point","coordinates":[55.0988,51.7727]}},{"type":"Feature","properties":{"country_code":"KOR","city":"Daejeon","geoname_id":"1835235","downloaders":"{\"size\":1415,\"mobile\":0,\"satellite\":0,\"tor\":0,\"tor_exit_nodes\":0,\"vpn\":24,\"relay\":0,\"proxy\":0,\"hosting\":0,\"service\":5}","uploaders":"{\"size\":5,\"mobile\":0,\"satellite\":0,\"tor\":0,\"tor_exit_nodes\":0,\"vpn\":0,\"relay\":0,\"proxy\":0,\"hosting\":0,\"service\":0}"},"geometry":{"type":"Point","coordinates":[127.38493,36.34913]}},{"type":"Feature","properties":{"country_code":"TZA","city":"Dar es Salaam","geoname_id":"160263","downloaders":"{\"size\":1397,\"mobile\":752,\"satellite\":0,\"tor\":0,\"tor_exit_nodes\":0,\"vpn\":18,\"relay\":0,\"proxy\":0,\"hosting\":76,\"service\":0}","uploaders":"{\"size\":635,\"mobile\":319,\"satellite\":0,\"tor\":0,\"tor_exit_nodes\":0,\"vpn\":7,\"relay\":0,\"proxy\":0,\"hosting\":28,\"service\":0}"},"geometry":{"type":"Point","coordinates":[39.26951,-6.82349]}},{"type":"Feature","properties":{"country_code":"RUS","city":"Ulyanovsk","geoname_id":"479123","downloaders":"{\"size\":1378,\"mobile\":70,\"satellite\":0,\"tor\":0,\"tor_exit_nodes\":0,\"vpn\":6,\"relay\":0,\"proxy\":0,\"hosting\":0,\"service\":0}","uploaders":"{\"size\":26,\"mobile\":1,\"satellite\":0,\"tor\":0,\"tor_exit_nodes\":0,\"vpn\":0,\"relay\":0,\"proxy\":0,\"hosting\":0,\"service\":0}"},"geometry":{"type":"Point","coordinates":[48.38657,54.32824]}},{"type":"Feature","properties":{"country_code":"CHN","city":"Hangzhou","geoname_id":"1808926","downloaders":"{\"size\":1375,\"mobile\":0,\"satellite\":0,\"tor\":0,\"tor_exit_nodes\":0,\"vpn\":8,\"relay\":0,\"proxy\":0,\"hosting\":120,\"service\":0}","uploaders":"{\"size\":631,\"mobile\":0,\"satellite\":0,\"tor\":0,\"tor_exit_nodes\":0,\"vpn\":0,\"relay\":0,\"proxy\":0,\"hosting\":38,\"service\":0}"},"geometry":{"type":"Point","coordinates":[120.16142,30.29365]}},{"type":"Feature","properties":{"country_code":"RUS","city":"Kaliningrad","geoname_id":"554234","downloaders":"{\"size\":1340,\"mobile\":7,\"satellite\":0,\"tor\":0,\"tor_exit_nodes\":0,\"vpn\":9,\"relay\":0,\"proxy\":0,\"hosting\":3,\"service\":0}","uploaders":"{\"size\":131,\"mobile\":0,\"satellite\":0,\"tor\":0,\"tor_exit_nodes\":0,\"vpn\":0,\"relay\":0,\"proxy\":0,\"hosting\":0,\"service\":0}"},"geometry":{"type":"Point","coordinates":[20.51095,54.70649]}},{"type":"Feature","properties":{"country_code":"POL","city":"Poznań","geoname_id":"3088171","downloaders":"{\"size\":1336,\"mobile\":71,\"satellite\":0,\"tor\":0,\"tor_exit_nodes\":0,\"vpn\":7,\"relay\":0,\"proxy\":0,\"hosting\":6,\"service\":0}","uploaders":"{\"size\":26,\"mobile\":4,\"satellite\":0,\"tor\":0,\"tor_exit_nodes\":0,\"vpn\":0,\"relay\":0,\"proxy\":0,\"hosting\":0,\"service\":0}"},"geometry":{"type":"Point","coordinates":[16.92993,52.40692]}},{"type":"Feature","properties":{"country_code":"USA","city":"Houston","geoname_id":"4699066","downloaders":"{\"size\":1313,\"mobile\":127,\"satellite\":0,\"tor\":0,\"tor_exit_nodes\":0,\"vpn\":239,\"relay\":0,\"proxy\":0,\"hosting\":268,\"service\":227}","uploaders":"{\"size\":225,\"mobile\":58,\"satellite\":0,\"tor\":0,\"tor_exit_nodes\":0,\"vpn\":68,\"relay\":0,\"proxy\":0,\"hosting\":79,\"service\":68}"},"geometry":{"type":"Point","coordinates":[-95.36327,29.76328]}},{"type":"Feature","properties":{"country_code":"EGY","city":"Cairo","geoname_id":"360630","downloaders":"{\"size\":1309,\"mobile\":25,\"satellite\":0,\"tor\":0,\"tor_exit_nodes\":0,\"vpn\":1,\"relay\":0,\"proxy\":0,\"hosting\":3,\"service\":0}","uploaders":"{\"size\":68,\"mobile\":4,\"satellite\":0,\"tor\":0,\"tor_exit_nodes\":0,\"vpn\":0,\"relay\":0,\"proxy\":0,\"hosting\":0,\"service\":0}"},"geometry":{"type":"Point","coordinates":[31.24967,30.06263]}},{"type":"Feature","properties":{"country_code":"PRT","city":"Lisbon","geoname_id":"2267057","downloaders":"{\"size\":1300,\"mobile\":88,\"satellite\":0,\"tor\":0,\"tor_exit_nodes\":0,\"vpn\":33,\"relay\":0,\"proxy\":0,\"hosting\":84,\"service\":28}","uploaders":"{\"size\":189,\"mobile\":39,\"satellite\":0,\"tor\":0,\"tor_exit_nodes\":0,\"vpn\":10,\"relay\":0,\"proxy\":0,\"hosting\":34,\"service\":8}"},"geometry":{"type":"Point","coordinates":[-9.1498,38.72509]}},{"type":"Feature","properties":{"country_code":"RUS","city":"Irkutsk","geoname_id":"2023469","downloaders":"{\"size\":1283,\"mobile\":126,\"satellite\":0,\"tor\":0,\"tor_exit_nodes\":0,\"vpn\":5,\"relay\":0,\"proxy\":0,\"hosting\":0,\"service\":1}","uploaders":"{\"size\":48,\"mobile\":2,\"satellite\":0,\"tor\":0,\"tor_exit_nodes\":0,\"vpn\":0,\"relay\":0,\"proxy\":0,\"hosting\":0,\"service\":0}"},"geometry":{"type":"Point","coordinates":[104.29585,52.29795]}},{"type":"Feature","properties":{"country_code":"IRQ","city":"Baghdad","geoname_id":"98182","downloaders":"{\"size\":1281,\"mobile\":10,\"satellite\":0,\"tor\":0,\"tor_exit_nodes\":0,\"vpn\":0,\"relay\":0,\"proxy\":0,\"hosting\":0,\"service\":0}","uploaders":"{\"size\":6,\"mobile\":6,\"satellite\":0,\"tor\":0,\"tor_exit_nodes\":0,\"vpn\":0,\"relay\":0,\"proxy\":0,\"hosting\":0,\"service\":0}"},"geometry":{"type":"Point","coordinates":[44.40088,33.34058]}},{"type":"Feature","properties":{"country_code":"RUS","city":"Ivanovo","geoname_id":"555312","downloaders":"{\"size\":1268,\"mobile\":63,\"satellite\":0,\"tor\":0,\"tor_exit_nodes\":0,\"vpn\":17,\"relay\":0,\"proxy\":0,\"hosting\":0,\"service\":1}","uploaders":"{\"size\":16,\"mobile\":0,\"satellite\":0,\"tor\":0,\"tor_exit_nodes\":0,\"vpn\":0,\"relay\":0,\"proxy\":0,\"hosting\":0,\"service\":0}"},"geometry":{"type":"Point","coordinates":[40.97139,56.99719]}},{"type":"Feature","properties":{"country_code":"KOR","city":"Seongnam-si","geoname_id":"1897000","downloaders":"{\"size\":1261,\"mobile\":0,\"satellite\":0,\"tor\":0,\"tor_exit_nodes\":0,\"vpn\":19,\"relay\":0,\"proxy\":0,\"hosting\":0,\"service\":5}","uploaders":"{\"size\":17,\"mobile\":0,\"satellite\":0,\"tor\":0,\"tor_exit_nodes\":0,\"vpn\":0,\"relay\":0,\"proxy\":0,\"hosting\":0,\"service\":0}"},"geometry":{"type":"Point","coordinates":[127.13778,37.43861]}},{"type":"Feature","properties":{"country_code":"GBR","city":"Manchester","geoname_id":"2643123","downloaders":"{\"size\":1261,\"mobile\":67,\"satellite\":0,\"tor\":0,\"tor_exit_nodes\":0,\"vpn\":753,\"relay\":0,\"proxy\":0,\"hosting\":504,\"service\":709}","uploaders":"{\"size\":300,\"mobile\":13,\"satellite\":0,\"tor\":0,\"tor_exit_nodes\":0,\"vpn\":214,\"relay\":0,\"proxy\":0,\"hosting\":173,\"service\":212}"},"geometry":{"type":"Point","coordinates":[-2.23743,53.48095]}},{"type":"Feature","properties":{"country_code":"PRT","city":"Porto","geoname_id":"2735943","downloaders":"{\"size\":1258,\"mobile\":76,\"satellite\":0,\"tor\":0,\"tor_exit_nodes\":0,\"vpn\":6,\"relay\":0,\"proxy\":0,\"hosting\":1,\"service\":0}","uploaders":"{\"size\":78,\"mobile\":15,\"satellite\":0,\"tor\":0,\"tor_exit_nodes\":0,\"vpn\":0,\"relay\":0,\"proxy\":0,\"hosting\":0,\"service\":0}"},"geometry":{"type":"Point","coordinates":[-8.61099,41.14961]}},{"type":"Feature","properties":{"country_code":"TUR","city":"Antalya","geoname_id":"323777","downloaders":"{\"size\":1251,\"mobile\":531,\"satellite\":0,\"tor\":0,\"tor_exit_nodes\":0,\"vpn\":0,\"relay\":0,\"proxy\":0,\"hosting\":0,\"service\":0}","uploaders":"{\"size\":8,\"mobile\":4,\"satellite\":0,\"tor\":0,\"tor_exit_nodes\":0,\"vpn\":0,\"relay\":0,\"proxy\":0,\"hosting\":0,\"service\":0}"},"geometry":{"type":"Point","coordinates":[30.69556,36.90812]}},{"type":"Feature","properties":{"country_code":"MDA","city":"Chisinau","geoname_id":"618426","downloaders":"{\"size\":1239,\"mobile\":20,\"satellite\":0,\"tor\":0,\"tor_exit_nodes\":0,\"vpn\":29,\"relay\":0,\"proxy\":0,\"hosting\":38,\"service\":24}","uploaders":"{\"size\":27,\"mobile\":0,\"satellite\":0,\"tor\":0,\"tor_exit_nodes\":0,\"vpn\":3,\"relay\":0,\"proxy\":0,\"hosting\":3,\"service\":3}"},"geometry":{"type":"Point","coordinates":[28.85938,47.00902]}},{"type":"Feature","properties":{"country_code":"FRA","city":"Villecresnes","geoname_id":"2968823","downloaders":"{\"size\":1236,\"mobile\":0,\"satellite\":0,\"tor\":0,\"tor_exit_nodes\":0,\"vpn\":642,\"relay\":0,\"proxy\":0,\"hosting\":1236,\"service\":353}","uploaders":"{\"size\":49,\"mobile\":0,\"satellite\":0,\"tor\":0,\"tor_exit_nodes\":0,\"vpn\":14,\"relay\":0,\"proxy\":0,\"hosting\":49,\"service\":14}"},"geometry":{"type":"Point","coordinates":[2.5394,48.72002]}},{"type":"Feature","properties":{"country_code":"EST","city":"Tallinn","geoname_id":"588409","downloaders":"{\"size\":1235,\"mobile\":58,\"satellite\":0,\"tor\":0,\"tor_exit_nodes\":0,\"vpn\":73,\"relay\":0,\"proxy\":0,\"hosting\":131,\"service\":60}","uploaders":"{\"size\":165,\"mobile\":18,\"satellite\":0,\"tor\":0,\"tor_exit_nodes\":0,\"vpn\":10,\"relay\":0,\"proxy\":0,\"hosting\":31,\"service\":9}"},"geometry":{"type":"Point","coordinates":[24.75353,59.43696]}},{"type":"Feature","properties":{"country_code":"USA","city":"Santa Clara","geoname_id":"5393015","downloaders":"{\"size\":1231,\"mobile\":2,\"satellite\":0,\"tor\":0,\"tor_exit_nodes\":0,\"vpn\":915,\"relay\":0,\"proxy\":0,\"hosting\":629,\"service\":763}","uploaders":"{\"size\":265,\"mobile\":0,\"satellite\":0,\"tor\":0,\"tor_exit_nodes\":0,\"vpn\":221,\"relay\":0,\"proxy\":0,\"hosting\":178,\"service\":191}"},"geometry":{"type":"Point","coordinates":[-121.95524,37.35411]}},{"type":"Feature","properties":{"country_code":"RUS","city":"Vladimir","geoname_id":"473247","downloaders":"{\"size\":1225,\"mobile\":51,\"satellite\":0,\"tor\":0,\"tor_exit_nodes\":0,\"vpn\":9,\"relay\":0,\"proxy\":0,\"hosting\":0,\"service\":0}","uploaders":"{\"size\":23,\"mobile\":3,\"satellite\":0,\"tor\":0,\"tor_exit_nodes\":0,\"vpn\":0,\"relay\":0,\"proxy\":0,\"hosting\":0,\"service\":0}"},"geometry":{"type":"Point","coordinates":[40.39658,56.13655]}},{"type":"Feature","properties":{"country_code":"USA","city":"Denver","geoname_id":"5419384","downloaders":"{\"size\":1188,\"mobile\":481,\"satellite\":2,\"tor\":0,\"tor_exit_nodes\":0,\"vpn\":412,\"relay\":6,\"proxy\":0,\"hosting\":352,\"service\":407}","uploaders":"{\"size\":441,\"mobile\":299,\"satellite\":0,\"tor\":0,\"tor_exit_nodes\":0,\"vpn\":121,\"relay\":2,\"proxy\":0,\"hosting\":105,\"service\":122}"},"geometry":{"type":"Point","coordinates":[-104.9847,39.73915]}},{"type":"Feature","properties":{"country_code":"NOR","city":"Oslo","geoname_id":"3143244","downloaders":"{\"size\":1181,\"mobile\":110,\"satellite\":0,\"tor\":0,\"tor_exit_nodes\":0,\"vpn\":262,\"relay\":0,\"proxy\":0,\"hosting\":291,\"service\":255}","uploaders":"{\"size\":192,\"mobile\":17,\"satellite\":0,\"tor\":0,\"tor_exit_nodes\":0,\"vpn\":77,\"relay\":0,\"proxy\":0,\"hosting\":101,\"service\":77}"},"geometry":{"type":"Point","coordinates":[10.74609,59.91273]}},{"type":"Feature","properties":{"country_code":"RUS","city":"Izhevsk","geoname_id":"554840","downloaders":"{\"size\":1172,\"mobile\":82,\"satellite\":0,\"tor\":0,\"tor_exit_nodes\":0,\"vpn\":13,\"relay\":0,\"proxy\":0,\"hosting\":1,\"service\":0}","uploaders":"{\"size\":24,\"mobile\":2,\"satellite\":0,\"tor\":0,\"tor_exit_nodes\":0,\"vpn\":1,\"relay\":0,\"proxy\":0,\"hosting\":0,\"service\":0}"},"geometry":{"type":"Point","coordinates":[53.20448,56.84976]}},{"type":"Feature","properties":{"country_code":"USA","city":"Kansas City","geoname_id":"4393217","downloaders":"{\"size\":1156,\"mobile\":0,\"satellite\":0,\"tor\":0,\"tor_exit_nodes\":0,\"vpn\":263,\"relay\":0,\"proxy\":0,\"hosting\":647,\"service\":254}","uploaders":"{\"size\":312,\"mobile\":0,\"satellite\":0,\"tor\":0,\"tor_exit_nodes\":0,\"vpn\":119,\"relay\":0,\"proxy\":0,\"hosting\":159,\"service\":116}"},"geometry":{"type":"Point","coordinates":[-94.57857,39.09973]}},{"type":"Feature","properties":{"country_code":"RUS","city":"Lyubertsy","geoname_id":"532615","downloaders":"{\"size\":1148,\"mobile\":0,\"satellite\":0,\"tor\":0,\"tor_exit_nodes\":0,\"vpn\":39,\"relay\":0,\"proxy\":0,\"hosting\":170,\"service\":0}","uploaders":"{\"size\":13,\"mobile\":0,\"satellite\":0,\"tor\":0,\"tor_exit_nodes\":0,\"vpn\":0,\"relay\":0,\"proxy\":0,\"hosting\":0,\"service\":0}"},"geometry":{"type":"Point","coordinates":[37.89322,55.67719]}},{"type":"Feature","properties":{"country_code":"CHE","city":"Genève","geoname_id":"2660646","downloaders":"{\"size\":1141,\"mobile\":913,\"satellite\":0,\"tor\":0,\"tor_exit_nodes\":0,\"vpn\":4,\"relay\":0,\"proxy\":0,\"hosting\":13,\"service\":4}","uploaders":"{\"size\":634,\"mobile\":609,\"satellite\":0,\"tor\":0,\"tor_exit_nodes\":0,\"vpn\":2,\"relay\":0,\"proxy\":0,\"hosting\":2,\"service\":2}"},"geometry":{"type":"Point","coordinates":[6.14569,46.20222]}},{"type":"Feature","properties":{"country_code":"KOR","city":"Gwangju","geoname_id":"1841811","downloaders":"{\"size\":1139,\"mobile\":0,\"satellite\":0,\"tor\":0,\"tor_exit_nodes\":0,\"vpn\":12,\"relay\":0,\"proxy\":0,\"hosting\":1,\"service\":0}","uploaders":"{\"size\":9,\"mobile\":0,\"satellite\":0,\"tor\":0,\"tor_exit_nodes\":0,\"vpn\":0,\"relay\":0,\"proxy\":0,\"hosting\":0,\"service\":0}"},"geometry":{"type":"Point","coordinates":[126.91556,35.15472]}},{"type":"Feature","properties":{"country_code":"BRA","city":"Campinas","geoname_id":"3467865","downloaders":"{\"size\":1136,\"mobile\":124,\"satellite\":0,\"tor\":0,\"tor_exit_nodes\":0,\"vpn\":2,\"relay\":0,\"proxy\":0,\"hosting\":2,\"service\":0}","uploaders":"{\"size\":65,\"mobile\":20,\"satellite\":0,\"tor\":0,\"tor_exit_nodes\":0,\"vpn\":0,\"relay\":0,\"proxy\":0,\"hosting\":0,\"service\":0}"},"geometry":{"type":"Point","coordinates":[-47.06083,-22.90556]}},{"type":"Feature","properties":{"country_code":"CHN","city":"Zhengzhou","geoname_id":"1784658","downloaders":"{\"size\":1131,\"mobile\":0,\"satellite\":0,\"tor\":0,\"tor_exit_nodes\":0,\"vpn\":9,\"relay\":0,\"proxy\":0,\"hosting\":0,\"service\":0}","uploaders":"{\"size\":20,\"mobile\":0,\"satellite\":0,\"tor\":0,\"tor_exit_nodes\":0,\"vpn\":0,\"relay\":0,\"proxy\":0,\"hosting\":0,\"service\":0}"},"geometry":{"type":"Point","coordinates":[113.64861,34.75778]}},{"type":"Feature","properties":{"country_code":"COL","city":"Bogotá","geoname_id":"3688689","downloaders":"{\"size\":1131,\"mobile\":540,\"satellite\":0,\"tor\":0,\"tor_exit_nodes\":0,\"vpn\":42,\"relay\":0,\"proxy\":0,\"hosting\":52,\"service\":35}","uploaders":"{\"size\":49,\"mobile\":10,\"satellite\":0,\"tor\":0,\"tor_exit_nodes\":0,\"vpn\":24,\"relay\":0,\"proxy\":0,\"hosting\":24,\"service\":22}"},"geometry":{"type":"Point","coordinates":[-74.08175,4.60971]}},{"type":"Feature","properties":{"country_code":"RUS","city":"Surgut","geoname_id":"1490624","downloaders":"{\"size\":1126,\"mobile\":125,\"satellite\":0,\"tor\":0,\"tor_exit_nodes\":0,\"vpn\":2,\"relay\":0,\"proxy\":0,\"hosting\":3,\"service\":0}","uploaders":"{\"size\":44,\"mobile\":9,\"satellite\":0,\"tor\":0,\"tor_exit_nodes\":0,\"vpn\":0,\"relay\":0,\"proxy\":0,\"hosting\":0,\"service\":0}"},"geometry":{"type":"Point","coordinates":[73.41775,61.25757]}},{"type":"Feature","properties":{"country_code":"RUS","city":"Kursk","geoname_id":"538560","downloaders":"{\"size\":1115,\"mobile\":0,\"satellite\":0,\"tor\":0,\"tor_exit_nodes\":0,\"vpn\":4,\"relay\":0,\"proxy\":0,\"hosting\":37,\"service\":0}","uploaders":"{\"size\":31,\"mobile\":0,\"satellite\":0,\"tor\":0,\"tor_exit_nodes\":0,\"vpn\":0,\"relay\":0,\"proxy\":0,\"hosting\":0,\"service\":0}"},"geometry":{"type":"Point","coordinates":[36.18712,51.73758]}},{"type":"Feature","properties":{"country_code":"LTU","city":"Kaunas","geoname_id":"598316","downloaders":"{\"size\":1108,\"mobile\":63,\"satellite\":0,\"tor\":0,\"tor_exit_nodes\":0,\"vpn\":1,\"relay\":0,\"proxy\":0,\"hosting\":9,\"service\":0}","uploaders":"{\"size\":14,\"mobile\":0,\"satellite\":0,\"tor\":0,\"tor_exit_nodes\":0,\"vpn\":0,\"relay\":0,\"proxy\":0,\"hosting\":0,\"service\":0}"},"geometry":{"type":"Point","coordinates":[23.90961,54.90272]}},{"type":"Feature","properties":{"country_code":"SAU","city":"Riyadh","geoname_id":"108410","downloaders":"{\"size\":1096,\"mobile\":377,\"satellite\":0,\"tor\":0,\"tor_exit_nodes\":0,\"vpn\":2,\"relay\":0,\"proxy\":0,\"hosting\":5,\"service\":0}","uploaders":"{\"size\":115,\"mobile\":38,\"satellite\":0,\"tor\":0,\"tor_exit_nodes\":0,\"vpn\":0,\"relay\":0,\"proxy\":0,\"hosting\":1,\"service\":0}"},"geometry":{"type":"Point","coordinates":[46.72185,24.68773]}},{"type":"Feature","properties":{"country_code":"DEU","city":"Düsseldorf","geoname_id":"2934246","downloaders":"{\"size\":1081,\"mobile\":644,\"satellite\":0,\"tor\":0,\"tor_exit_nodes\":0,\"vpn\":16,\"relay\":0,\"proxy\":0,\"hosting\":59,\"service\":15}","uploaders":"{\"size\":31,\"mobile\":0,\"satellite\":0,\"tor\":0,\"tor_exit_nodes\":0,\"vpn\":8,\"relay\":0,\"proxy\":0,\"hosting\":30,\"service\":8}"},"geometry":{"type":"Point","coordinates":[6.77616,51.22172]}},{"type":"Feature","properties":{"country_code":"RUS","city":"Odintsovo","geoname_id":"516215","downloaders":"{\"size\":1070,\"mobile\":0,\"satellite\":0,\"tor\":0,\"tor_exit_nodes\":0,\"vpn\":52,\"relay\":0,\"proxy\":0,\"hosting\":3,\"service\":0}","uploaders":"{\"size\":17,\"mobile\":0,\"satellite\":0,\"tor\":0,\"tor_exit_nodes\":0,\"vpn\":1,\"relay\":0,\"proxy\":0,\"hosting\":0,\"service\":0}"},"geometry":{"type":"Point","coordinates":[37.27716,55.66977]}},{"type":"Feature","properties":{"country_code":"RUS","city":"Stavropol’","geoname_id":"487846","downloaders":"{\"size\":1066,\"mobile\":566,\"satellite\":0,\"tor\":0,\"tor_exit_nodes\":0,\"vpn\":10,\"relay\":0,\"proxy\":0,\"hosting\":0,\"service\":3}","uploaders":"{\"size\":72,\"mobile\":31,\"satellite\":0,\"tor\":0,\"tor_exit_nodes\":0,\"vpn\":0,\"relay\":0,\"proxy\":0,\"hosting\":0,\"service\":0}"},"geometry":{"type":"Point","coordinates":[41.9734,45.0428]}},{"type":"Feature","properties":{"country_code":"BRA","city":"Belo Horizonte","geoname_id":"3470127","downloaders":"{\"size\":1050,\"mobile\":87,\"satellite\":0,\"tor\":0,\"tor_exit_nodes\":0,\"vpn\":0,\"relay\":0,\"proxy\":0,\"hosting\":9,\"service\":0}","uploaders":"{\"size\":105,\"mobile\":52,\"satellite\":0,\"tor\":0,\"tor_exit_nodes\":0,\"vpn\":0,\"relay\":0,\"proxy\":0,\"hosting\":0,\"service\":0}"},"geometry":{"type":"Point","coordinates":[-43.93778,-19.92083]}},{"type":"Feature","properties":{"country_code":"UKR","city":"Lviv","geoname_id":"702550","downloaders":"{\"size\":1050,\"mobile\":218,\"satellite\":0,\"tor\":0,\"tor_exit_nodes\":0,\"vpn\":9,\"relay\":0,\"proxy\":0,\"hosting\":0,\"service\":0}","uploaders":"{\"size\":150,\"mobile\":50,\"satellite\":0,\"tor\":0,\"tor_exit_nodes\":0,\"vpn\":0,\"relay\":0,\"proxy\":0,\"hosting\":0,\"service\":0}"},"geometry":{"type":"Point","coordinates":[24.02324,49.83826]}},{"type":"Feature","properties":{"country_code":"BRA","city":"Colombo","geoname_id":"3465927","downloaders":"{\"size\":1044,\"mobile\":0,\"satellite\":0,\"tor\":0,\"tor_exit_nodes\":0,\"vpn\":1,\"relay\":0,\"proxy\":0,\"hosting\":0,\"service\":0}","uploaders":"{\"size\":7,\"mobile\":0,\"satellite\":0,\"tor\":0,\"tor_exit_nodes\":0,\"vpn\":0,\"relay\":0,\"proxy\":0,\"hosting\":0,\"service\":0}"},"geometry":{"type":"Point","coordinates":[-49.22417,-25.29167]}},{"type":"Feature","properties":{"country_code":"RUS","city":"Kaluga","geoname_id":"553915","downloaders":"{\"size\":1044,\"mobile\":3,\"satellite\":0,\"tor\":0,\"tor_exit_nodes\":0,\"vpn\":7,\"relay\":0,\"proxy\":0,\"hosting\":1,\"service\":0}","uploaders":"{\"size\":34,\"mobile\":0,\"satellite\":0,\"tor\":0,\"tor_exit_nodes\":0,\"vpn\":0,\"relay\":0,\"proxy\":0,\"hosting\":0,\"service\":0}"},"geometry":{"type":"Point","coordinates":[36.27542,54.5293]}},{"type":"Feature","properties":{"country_code":"NGA","city":"Abuja","geoname_id":"2352778","downloaders":"{\"size\":1043,\"mobile\":944,\"satellite\":0,\"tor\":0,\"tor_exit_nodes\":0,\"vpn\":6,\"relay\":0,\"proxy\":0,\"hosting\":2,\"service\":0}","uploaders":"{\"size\":475,\"mobile\":411,\"satellite\":0,\"tor\":0,\"tor_exit_nodes\":0,\"vpn\":0,\"relay\":0,\"proxy\":0,\"hosting\":0,\"service\":0}"},"geometry":{"type":"Point","coordinates":[7.49508,9.05785]}},{"type":"Feature","properties":{"country_code":"RUS","city":"Smolensk","geoname_id":"491687","downloaders":"{\"size\":1039,\"mobile\":0,\"satellite\":0,\"tor\":0,\"tor_exit_nodes\":0,\"vpn\":7,\"relay\":0,\"proxy\":0,\"hosting\":0,\"service\":0}","uploaders":"{\"size\":36,\"mobile\":0,\"satellite\":0,\"tor\":0,\"tor_exit_nodes\":0,\"vpn\":0,\"relay\":0,\"proxy\":0,\"hosting\":0,\"service\":0}"},"geometry":{"type":"Point","coordinates":[32.04371,54.77944]}},{"type":"Feature","properties":{"country_code":"ETH","city":"Addis Ababa","geoname_id":"344979","downloaders":"{\"size\":1038,\"mobile\":571,\"satellite\":0,\"tor\":0,\"tor_exit_nodes\":0,\"vpn\":6,\"relay\":0,\"proxy\":0,\"hosting\":0,\"service\":0}","uploaders":"{\"size\":586,\"mobile\":320,\"satellite\":0,\"tor\":0,\"tor_exit_nodes\":0,\"vpn\":4,\"relay\":0,\"proxy\":0,\"hosting\":0,\"service\":0}"},"geometry":{"type":"Point","coordinates":[38.74689,9.02497]}},{"type":"Feature","properties":{"country_code":"IND","city":"Mumbai","geoname_id":"1275339","downloaders":"{\"size\":1028,\"mobile\":174,\"satellite\":0,\"tor\":0,\"tor_exit_nodes\":0,\"vpn\":25,\"relay\":0,\"proxy\":0,\"hosting\":392,\"service\":18}","uploaders":"{\"size\":308,\"mobile\":46,\"satellite\":0,\"tor\":0,\"tor_exit_nodes\":0,\"vpn\":15,\"relay\":0,\"proxy\":0,\"hosting\":135,\"service\":14}"},"geometry":{"type":"Point","coordinates":[72.88261,19.07283]}},{"type":"Feature","properties":{"country_code":"THA","city":"Bangkok","geoname_id":"1609350","downloaders":"{\"size\":1024,\"mobile\":266,\"satellite\":0,\"tor\":0,\"tor_exit_nodes\":0,\"vpn\":14,\"relay\":0,\"proxy\":0,\"hosting\":82,\"service\":5}","uploaders":"{\"size\":177,\"mobile\":50,\"satellite\":0,\"tor\":0,\"tor_exit_nodes\":0,\"vpn\":2,\"relay\":0,\"proxy\":0,\"hosting\":0,\"service\":0}"},"geometry":{"type":"Point","coordinates":[100.50144,13.75398]}},{"type":"Feature","properties":{"country_code":"TWN","city":"Banqiao","geoname_id":"1670029","downloaders":"{\"size\":1004,\"mobile\":37,\"satellite\":0,\"tor\":0,\"tor_exit_nodes\":0,\"vpn\":35,\"relay\":0,\"proxy\":0,\"hosting\":7,\"service\":0}","uploaders":"{\"size\":78,\"mobile\":16,\"satellite\":0,\"tor\":0,\"tor_exit_nodes\":0,\"vpn\":5,\"relay\":0,\"proxy\":0,\"hosting\":0,\"service\":0}"},"geometry":{"type":"Point","coordinates":[121.46719,25.01427]}},{"type":"Feature","properties":{"country_code":"SAU","city":"Jeddah","geoname_id":"105343","downloaders":"{\"size\":984,\"mobile\":282,\"satellite\":0,\"tor\":0,\"tor_exit_nodes\":0,\"vpn\":1,\"relay\":0,\"proxy\":0,\"hosting\":2,\"service\":0}","uploaders":"{\"size\":99,\"mobile\":55,\"satellite\":0,\"tor\":0,\"tor_exit_nodes\":0,\"vpn\":0,\"relay\":0,\"proxy\":0,\"hosting\":0,\"service\":0}"},"geometry":{"type":"Point","coordinates":[39.18624,21.49012]}},{"type":"Feature","properties":{"country_code":"USA","city":"Philadelphia","geoname_id":"4560349","downloaders":"{\"size\":983,\"mobile\":175,\"satellite\":0,\"tor\":0,\"tor_exit_nodes\":0,\"vpn\":10,\"relay\":0,\"proxy\":0,\"hosting\":10,\"service\":9}","uploaders":"{\"size\":158,\"mobile\":55,\"satellite\":0,\"tor\":0,\"tor_exit_nodes\":0,\"vpn\":5,\"relay\":0,\"proxy\":0,\"hosting\":5,\"service\":5}"},"geometry":{"type":"Point","coordinates":[-75.16362,39.95238]}},{"type":"Feature","properties":{"country_code":"SWE","city":"Göteborg","geoname_id":"2711537","downloaders":"{\"size\":973,\"mobile\":169,\"satellite\":0,\"tor\":0,\"tor_exit_nodes\":0,\"vpn\":101,\"relay\":0,\"proxy\":0,\"hosting\":72,\"service\":90}","uploaders":"{\"size\":114,\"mobile\":40,\"satellite\":0,\"tor\":0,\"tor_exit_nodes\":0,\"vpn\":21,\"relay\":0,\"proxy\":0,\"hosting\":13,\"service\":21}"},"geometry":{"type":"Point","coordinates":[11.96679,57.70716]}},{"type":"Feature","properties":{"country_code":"JAM","city":"Kingston","geoname_id":"3489854","downloaders":"{\"size\":971,\"mobile\":483,\"satellite\":0,\"tor\":0,\"tor_exit_nodes\":0,\"vpn\":1,\"relay\":0,\"proxy\":0,\"hosting\":52,\"service\":0}","uploaders":"{\"size\":258,\"mobile\":166,\"satellite\":0,\"tor\":0,\"tor_exit_nodes\":0,\"vpn\":0,\"relay\":0,\"proxy\":0,\"hosting\":8,\"service\":0}"},"geometry":{"type":"Point","coordinates":[-76.79358,17.99702]}},{"type":"Feature","properties":{"country_code":"USA","city":"Washington","geoname_id":"4140963","downloaders":"{\"size\":971,\"mobile\":4,\"satellite\":0,\"tor\":0,\"tor_exit_nodes\":0,\"vpn\":398,\"relay\":0,\"proxy\":0,\"hosting\":289,\"service\":379}","uploaders":"{\"size\":165,\"mobile\":0,\"satellite\":0,\"tor\":0,\"tor_exit_nodes\":0,\"vpn\":125,\"relay\":0,\"proxy\":0,\"hosting\":95,\"service\":118}"},"geometry":{"type":"Point","coordinates":[-77.03637,38.89511]}},{"type":"Feature","properties":{"country_code":"KOR","city":"Cheongju-si","geoname_id":"1845604","downloaders":"{\"size\":964,\"mobile\":0,\"satellite\":0,\"tor\":0,\"tor_exit_nodes\":0,\"vpn\":2,\"relay\":0,\"proxy\":0,\"hosting\":0,\"service\":0}","uploaders":"{\"size\":6,\"mobile\":0,\"satellite\":0,\"tor\":0,\"tor_exit_nodes\":0,\"vpn\":0,\"relay\":0,\"proxy\":0,\"hosting\":0,\"service\":0}"},"geometry":{"type":"Point","coordinates":[127.48972,36.63722]}},{"type":"Feature","properties":{"country_code":"BRA","city":"Brasília","geoname_id":"3469058","downloaders":"{\"size\":955,\"mobile\":43,\"satellite\":0,\"tor\":0,\"tor_exit_nodes\":0,\"vpn\":3,\"relay\":0,\"proxy\":0,\"hosting\":3,\"service\":0}","uploaders":"{\"size\":109,\"mobile\":12,\"satellite\":0,\"tor\":0,\"tor_exit_nodes\":0,\"vpn\":0,\"relay\":0,\"proxy\":0,\"hosting\":0,\"service\":0}"},"geometry":{"type":"Point","coordinates":[-47.92972,-15.77972]}},{"type":"Feature","properties":{"country_code":"USA","city":"San Francisco","geoname_id":"5391959","downloaders":"{\"size\":954,\"mobile\":8,\"satellite\":0,\"tor\":0,\"tor_exit_nodes\":0,\"vpn\":479,\"relay\":0,\"proxy\":0,\"hosting\":488,\"service\":406}","uploaders":"{\"size\":206,\"mobile\":0,\"satellite\":0,\"tor\":0,\"tor_exit_nodes\":0,\"vpn\":107,\"relay\":0,\"proxy\":0,\"hosting\":109,\"service\":74}"},"geometry":{"type":"Point","coordinates":[-122.3971,37.7621]}},{"type":"Feature","properties":{"country_code":"RUS","city":"Novokuznetsk","geoname_id":"1496990","downloaders":"{\"size\":951,\"mobile\":0,\"satellite\":0,\"tor\":0,\"tor_exit_nodes\":0,\"vpn\":5,\"relay\":0,\"proxy\":0,\"hosting\":0,\"service\":0}","uploaders":"{\"size\":34,\"mobile\":0,\"satellite\":0,\"tor\":0,\"tor_exit_nodes\":0,\"vpn\":0,\"relay\":0,\"proxy\":0,\"hosting\":0,\"service\":0}"},"geometry":{"type":"Point","coordinates":[87.13599,53.75752]}},{"type":"Feature","properties":{"country_code":"RUS","city":"Khabarovsk","geoname_id":"2022890","downloaders":"{\"size\":945,\"mobile\":182,\"satellite\":2,\"tor\":0,\"tor_exit_nodes\":0,\"vpn\":17,\"relay\":0,\"proxy\":0,\"hosting\":1,\"service\":16}","uploaders":"{\"size\":114,\"mobile\":22,\"satellite\":0,\"tor\":0,\"tor_exit_nodes\":0,\"vpn\":0,\"relay\":0,\"proxy\":0,\"hosting\":0,\"service\":0}"},"geometry":{"type":"Point","coordinates":[135.08822,48.48032]}},{"type":"Feature","properties":{"country_code":"RUS","city":"Korolev","geoname_id":"554233","downloaders":"{\"size\":943,\"mobile\":1,\"satellite\":0,\"tor\":0,\"tor_exit_nodes\":0,\"vpn\":29,\"relay\":0,\"proxy\":0,\"hosting\":55,\"service\":0}","uploaders":"{\"size\":14,\"mobile\":0,\"satellite\":0,\"tor\":0,\"tor_exit_nodes\":0,\"vpn\":0,\"relay\":0,\"proxy\":0,\"hosting\":0,\"service\":0}"},"geometry":{"type":"Point","coordinates":[37.82556,55.91417]}},{"type":"Feature","properties":{"country_code":"NLD","city":"Haarlem","geoname_id":"2755003","downloaders":"{\"size\":933,\"mobile\":0,\"satellite\":0,\"tor\":0,\"tor_exit_nodes\":0,\"vpn\":313,\"relay\":0,\"proxy\":0,\"hosting\":864,\"service\":91}","uploaders":"{\"size\":79,\"mobile\":0,\"satellite\":0,\"tor\":0,\"tor_exit_nodes\":0,\"vpn\":33,\"relay\":0,\"proxy\":0,\"hosting\":68,\"service\":31}"},"geometry":{"type":"Point","coordinates":[4.63683,52.38084]}},{"type":"Feature","properties":{"country_code":"KAZ","city":"Astana","geoname_id":"1526273","downloaders":"{\"size\":923,\"mobile\":74,\"satellite\":0,\"tor\":0,\"tor_exit_nodes\":0,\"vpn\":5,\"relay\":0,\"proxy\":0,\"hosting\":10,\"service\":0}","uploaders":"{\"size\":43,\"mobile\":19,\"satellite\":0,\"tor\":0,\"tor_exit_nodes\":0,\"vpn\":0,\"relay\":0,\"proxy\":0,\"hosting\":0,\"service\":0}"},"geometry":{"type":"Point","coordinates":[71.44598,51.1801]}},{"type":"Feature","properties":{"country_code":"TUR","city":"Konya","geoname_id":"306571","downloaders":"{\"size\":920,\"mobile\":279,\"satellite\":0,\"tor\":0,\"tor_exit_nodes\":0,\"vpn\":0,\"relay\":0,\"proxy\":0,\"hosting\":0,\"service\":0}","uploaders":"{\"size\":14,\"mobile\":7,\"satellite\":0,\"tor\":0,\"tor_exit_nodes\":0,\"vpn\":0,\"relay\":0,\"proxy\":0,\"hosting\":0,\"service\":0}"},"geometry":{"type":"Point","coordinates":[32.48464,37.87135]}},{"type":"Feature","properties":{"country_code":"FRA","city":"Strasbourg","geoname_id":"2973783","downloaders":"{\"size\":913,\"mobile\":103,\"satellite\":0,\"tor\":0,\"tor_exit_nodes\":0,\"vpn\":11,\"relay\":0,\"proxy\":0,\"hosting\":616,\"service\":10}","uploaders":"{\"size\":72,\"mobile\":2,\"satellite\":0,\"tor\":0,\"tor_exit_nodes\":0,\"vpn\":0,\"relay\":0,\"proxy\":0,\"hosting\":64,\"service\":0}"},"geometry":{"type":"Point","coordinates":[7.74553,48.58392]}},{"type":"Feature","properties":{"country_code":"CHN","city":"Ningbo","geoname_id":"1799397","downloaders":"{\"size\":905,\"mobile\":0,\"satellite\":0,\"tor\":0,\"tor_exit_nodes\":0,\"vpn\":10,\"relay\":0,\"proxy\":0,\"hosting\":2,\"service\":0}","uploaders":"{\"size\":46,\"mobile\":0,\"satellite\":0,\"tor\":0,\"tor_exit_nodes\":0,\"vpn\":0,\"relay\":0,\"proxy\":0,\"hosting\":0,\"service\":0}"},"geometry":{"type":"Point","coordinates":[121.54945,29.87819]}},{"type":"Feature","properties":{"country_code":"RUS","city":"Murmansk","geoname_id":"524305","downloaders":"{\"size\":904,\"mobile\":79,\"satellite\":0,\"tor\":0,\"tor_exit_nodes\":0,\"vpn\":7,\"relay\":0,\"proxy\":0,\"hosting\":0,\"service\":2}","uploaders":"{\"size\":56,\"mobile\":8,\"satellite\":0,\"tor\":0,\"tor_exit_nodes\":0,\"vpn\":1,\"relay\":0,\"proxy\":0,\"hosting\":0,\"service\":0}"},"geometry":{"type":"Point","coordinates":[33.09747,68.97398]}},{"type":"Feature","properties":{"country_code":"BRA","city":"Guarulhos","geoname_id":"3461786","downloaders":"{\"size\":897,\"mobile\":11,\"satellite\":0,\"tor\":0,\"tor_exit_nodes\":0,\"vpn\":1,\"relay\":0,\"proxy\":0,\"hosting\":0,\"service\":0}","uploaders":"{\"size\":12,\"mobile\":0,\"satellite\":0,\"tor\":0,\"tor_exit_nodes\":0,\"vpn\":0,\"relay\":0,\"proxy\":0,\"hosting\":0,\"service\":0}"},"geometry":{"type":"Point","coordinates":[-46.53333,-23.46278]}},{"type":"Feature","properties":{"country_code":"BGR","city":"Plovdiv","geoname_id":"728193","downloaders":"{\"size\":889,\"mobile\":17,\"satellite\":0,\"tor\":0,\"tor_exit_nodes\":0,\"vpn\":13,\"relay\":0,\"proxy\":0,\"hosting\":162,\"service\":0}","uploaders":"{\"size\":5,\"mobile\":0,\"satellite\":0,\"tor\":0,\"tor_exit_nodes\":0,\"vpn\":0,\"relay\":0,\"proxy\":0,\"hosting\":0,\"service\":0}"},"geometry":{"type":"Point","coordinates":[24.75,42.15]}},{"type":"Feature","properties":{"country_code":"UGA","city":"Kampala","geoname_id":"232422","downloaders":"{\"size\":887,\"mobile\":257,\"satellite\":0,\"tor\":0,\"tor_exit_nodes\":0,\"vpn\":3,\"relay\":0,\"proxy\":0,\"hosting\":12,\"service\":0}","uploaders":"{\"size\":318,\"mobile\":81,\"satellite\":0,\"tor\":0,\"tor_exit_nodes\":0,\"vpn\":1,\"relay\":0,\"proxy\":0,\"hosting\":3,\"service\":0}"},"geometry":{"type":"Point","coordinates":[32.58219,0.31628]}},{"type":"Feature","properties":{"country_code":"JPN","city":"Osaka","geoname_id":"1853909","downloaders":"{\"size\":886,\"mobile\":58,\"satellite\":0,\"tor\":0,\"tor_exit_nodes\":0,\"vpn\":44,\"relay\":0,\"proxy\":0,\"hosting\":63,\"service\":35}","uploaders":"{\"size\":49,\"mobile\":2,\"satellite\":0,\"tor\":0,\"tor_exit_nodes\":0,\"vpn\":5,\"relay\":0,\"proxy\":0,\"hosting\":8,\"service\":5}"},"geometry":{"type":"Point","coordinates":[135.50107,34.69379]}},{"type":"Feature","properties":{"country_code":"KOR","city":"Bucheon-si","geoname_id":"1838716","downloaders":"{\"size\":881,\"mobile\":2,\"satellite\":0,\"tor\":0,\"tor_exit_nodes\":0,\"vpn\":18,\"relay\":0,\"proxy\":0,\"hosting\":0,\"service\":0}","uploaders":"{\"size\":6,\"mobile\":0,\"satellite\":0,\"tor\":0,\"tor_exit_nodes\":0,\"vpn\":0,\"relay\":0,\"proxy\":0,\"hosting\":0,\"service\":0}"},"geometry":{"type":"Point","coordinates":[126.78306,37.49889]}},{"type":"Feature","properties":{"country_code":"IND","city":"Ludhiana","geoname_id":"1264728","downloaders":"{\"size\":880,\"mobile\":4,\"satellite\":0,\"tor\":0,\"tor_exit_nodes\":0,\"vpn\":0,\"relay\":0,\"proxy\":0,\"hosting\":0,\"service\":0}","uploaders":"{\"size\":8,\"mobile\":0,\"satellite\":0,\"tor\":0,\"tor_exit_nodes\":0,\"vpn\":0,\"relay\":0,\"proxy\":0,\"hosting\":0,\"service\":0}"},"geometry":{"type":"Point","coordinates":[75.85379,30.91204]}},{"type":"Feature","properties":{"country_code":"RUS","city":"Podolsk","geoname_id":"508101","downloaders":"{\"size\":879,\"mobile\":0,\"satellite\":0,\"tor\":0,\"tor_exit_nodes\":0,\"vpn\":19,\"relay\":0,\"proxy\":0,\"hosting\":2,\"service\":0}","uploaders":"{\"size\":6,\"mobile\":0,\"satellite\":0,\"tor\":0,\"tor_exit_nodes\":0,\"vpn\":0,\"relay\":0,\"proxy\":0,\"hosting\":0,\"service\":0}"},"geometry":{"type":"Point","coordinates":[37.55472,55.42419]}},{"type":"Feature","properties":{"country_code":"ESP","city":"Valencia","geoname_id":"2509954","downloaders":"{\"size\":875,\"mobile\":438,\"satellite\":0,\"tor\":0,\"tor_exit_nodes\":0,\"vpn\":16,\"relay\":0,\"proxy\":0,\"hosting\":21,\"service\":13}","uploaders":"{\"size\":25,\"mobile\":9,\"satellite\":0,\"tor\":0,\"tor_exit_nodes\":0,\"vpn\":7,\"relay\":0,\"proxy\":0,\"hosting\":13,\"service\":7}"},"geometry":{"type":"Point","coordinates":[-0.37966,39.47391]}},{"type":"Feature","properties":{"country_code":"RUS","city":"Pushkino","geoname_id":"503977","downloaders":"{\"size\":872,\"mobile\":0,\"satellite\":0,\"tor\":0,\"tor_exit_nodes\":0,\"vpn\":24,\"relay\":0,\"proxy\":0,\"hosting\":0,\"service\":9}","uploaders":"{\"size\":5,\"mobile\":0,\"satellite\":0,\"tor\":0,\"tor_exit_nodes\":0,\"vpn\":0,\"relay\":0,\"proxy\":0,\"hosting\":0,\"service\":0}"},"geometry":{"type":"Point","coordinates":[37.82897,55.99456]}},{"type":"Feature","properties":{"country_code":"KOR","city":"Anyang-si","geoname_id":"1846898","downloaders":"{\"size\":871,\"mobile\":0,\"satellite\":0,\"tor\":0,\"tor_exit_nodes\":0,\"vpn\":16,\"relay\":0,\"proxy\":0,\"hosting\":0,\"service\":0}","uploaders":"{\"size\":8,\"mobile\":0,\"satellite\":0,\"tor\":0,\"tor_exit_nodes\":0,\"vpn\":0,\"relay\":0,\"proxy\":0,\"hosting\":0,\"service\":0}"},"geometry":{"type":"Point","coordinates":[126.92694,37.3925]}},{"type":"Feature","properties":{"country_code":"TWN","city":"Taichung","geoname_id":"1668399","downloaders":"{\"size\":868,\"mobile\":26,\"satellite\":0,\"tor\":0,\"tor_exit_nodes\":0,\"vpn\":14,\"relay\":0,\"proxy\":0,\"hosting\":1,\"service\":0}","uploaders":"{\"size\":70,\"mobile\":0,\"satellite\":0,\"tor\":0,\"tor_exit_nodes\":0,\"vpn\":2,\"relay\":0,\"proxy\":0,\"hosting\":0,\"service\":0}"},"geometry":{"type":"Point","coordinates":[120.6839,24.1469]}},{"type":"Feature","properties":{"country_code":"GBR","city":"Ipswich","geoname_id":"2646057","downloaders":"{\"size\":866,\"mobile\":134,\"satellite\":0,\"tor\":0,\"tor_exit_nodes\":0,\"vpn\":0,\"relay\":0,\"proxy\":0,\"hosting\":0,\"service\":0}","uploaders":"{\"size\":155,\"mobile\":65,\"satellite\":0,\"tor\":0,\"tor_exit_nodes\":0,\"vpn\":0,\"relay\":0,\"proxy\":0,\"hosting\":0,\"service\":0}"},"geometry":{"type":"Point","coordinates":[1.15545,52.05917]}},{"type":"Feature","properties":{"country_code":"KOR","city":"Haegok","geoname_id":"6398843","downloaders":"{\"size\":859,\"mobile\":0,\"satellite\":0,\"tor\":0,\"tor_exit_nodes\":0,\"vpn\":13,\"relay\":0,\"proxy\":0,\"hosting\":0,\"service\":1}","uploaders":"{\"size\":4,\"mobile\":0,\"satellite\":0,\"tor\":0,\"tor_exit_nodes\":0,\"vpn\":0,\"relay\":0,\"proxy\":0,\"hosting\":0,\"service\":0}"},"geometry":{"type":"Point","coordinates":[127.27880999999999,37.19251]}},{"type":"Feature","properties":{"country_code":"BRA","city":"Curitiba","geoname_id":"3464975","downloaders":"{\"size\":854,\"mobile\":16,\"satellite\":0,\"tor\":0,\"tor_exit_nodes\":0,\"vpn\":0,\"relay\":0,\"proxy\":0,\"hosting\":105,\"service\":0}","uploaders":"{\"size\":94,\"mobile\":4,\"satellite\":0,\"tor\":0,\"tor_exit_nodes\":0,\"vpn\":0,\"relay\":0,\"proxy\":0,\"hosting\":62,\"service\":0}"},"geometry":{"type":"Point","coordinates":[-49.27306,-25.42778]}},{"type":"Feature","properties":{"country_code":"NLD","city":"Rotterdam","geoname_id":"2747891","downloaders":"{\"size\":842,\"mobile\":48,\"satellite\":0,\"tor\":0,\"tor_exit_nodes\":0,\"vpn\":77,\"relay\":0,\"proxy\":0,\"hosting\":408,\"service\":71}","uploaders":"{\"size\":221,\"mobile\":32,\"satellite\":0,\"tor\":0,\"tor_exit_nodes\":0,\"vpn\":13,\"relay\":0,\"proxy\":0,\"hosting\":133,\"service\":12}"},"geometry":{"type":"Point","coordinates":[4.47917,51.9225]}},{"type":"Feature","properties":{"country_code":"SVK","city":"Bratislava","geoname_id":"3060972","downloaders":"{\"size\":838,\"mobile\":5,\"satellite\":0,\"tor\":0,\"tor_exit_nodes\":0,\"vpn\":57,\"relay\":0,\"proxy\":0,\"hosting\":120,\"service\":45}","uploaders":"{\"size\":17,\"mobile\":0,\"satellite\":0,\"tor\":0,\"tor_exit_nodes\":0,\"vpn\":5,\"relay\":0,\"proxy\":0,\"hosting\":8,\"service\":5}"},"geometry":{"type":"Point","coordinates":[17.10674,48.14816]}},{"type":"Feature","properties":{"country_code":"RUS","city":"Noginsk","geoname_id":"520068","downloaders":"{\"size\":838,\"mobile\":0,\"satellite\":0,\"tor\":0,\"tor_exit_nodes\":0,\"vpn\":30,\"relay\":0,\"proxy\":0,\"hosting\":7,\"service\":9}","uploaders":"{\"size\":14,\"mobile\":0,\"satellite\":0,\"tor\":0,\"tor_exit_nodes\":0,\"vpn\":0,\"relay\":0,\"proxy\":0,\"hosting\":0,\"service\":0}"},"geometry":{"type":"Point","coordinates":[38.44853,55.86486]}},{"type":"Feature","properties":{"country_code":"UKR","city":"Odesa","geoname_id":"698740","downloaders":"{\"size\":833,\"mobile\":2,\"satellite\":0,\"tor\":0,\"tor_exit_nodes\":0,\"vpn\":14,\"relay\":0,\"proxy\":0,\"hosting\":1,\"service\":0}","uploaders":"{\"size\":197,\"mobile\":0,\"satellite\":0,\"tor\":0,\"tor_exit_nodes\":0,\"vpn\":3,\"relay\":0,\"proxy\":0,\"hosting\":0,\"service\":0}"},"geometry":{"type":"Point","coordinates":[30.74383,46.48572]}},{"type":"Feature","properties":{"country_code":"RUS","city":"Belgorod","geoname_id":"578072","downloaders":"{\"size\":825,\"mobile\":16,\"satellite\":0,\"tor\":0,\"tor_exit_nodes\":0,\"vpn\":13,\"relay\":0,\"proxy\":0,\"hosting\":0,\"service\":1}","uploaders":"{\"size\":13,\"mobile\":0,\"satellite\":0,\"tor\":0,\"tor_exit_nodes\":0,\"vpn\":0,\"relay\":0,\"proxy\":0,\"hosting\":0,\"service\":0}"},"geometry":{"type":"Point","coordinates":[36.58015,50.61074]}},{"type":"Feature","properties":{"country_code":"USA","city":"Las Vegas","geoname_id":"5506956","downloaders":"{\"size\":821,\"mobile\":82,\"satellite\":0,\"tor\":5,\"tor_exit_nodes\":4,\"vpn\":140,\"relay\":0,\"proxy\":0,\"hosting\":218,\"service\":135}","uploaders":"{\"size\":163,\"mobile\":30,\"satellite\":0,\"tor\":0,\"tor_exit_nodes\":0,\"vpn\":54,\"relay\":0,\"proxy\":0,\"hosting\":63,\"service\":54}"},"geometry":{"type":"Point","coordinates":[-115.13722,36.17497]}},{"type":"Feature","properties":{"country_code":"RUS","city":"Mytishchi","geoname_id":"523812","downloaders":"{\"size\":821,\"mobile\":0,\"satellite\":0,\"tor\":0,\"tor_exit_nodes\":0,\"vpn\":22,\"relay\":0,\"proxy\":0,\"hosting\":10,\"service\":0}","uploaders":"{\"size\":20,\"mobile\":0,\"satellite\":0,\"tor\":0,\"tor_exit_nodes\":0,\"vpn\":0,\"relay\":0,\"proxy\":0,\"hosting\":0,\"service\":0}"},"geometry":{"type":"Point","coordinates":[37.72964,55.91099]}},{"type":"Feature","properties":{"country_code":"PRY","city":"Asunción","geoname_id":"3439389","downloaders":"{\"size\":820,\"mobile\":379,\"satellite\":0,\"tor\":0,\"tor_exit_nodes\":0,\"vpn\":2,\"relay\":0,\"proxy\":0,\"hosting\":3,\"service\":0}","uploaders":"{\"size\":6,\"mobile\":0,\"satellite\":0,\"tor\":0,\"tor_exit_nodes\":0,\"vpn\":0,\"relay\":0,\"proxy\":0,\"hosting\":0,\"service\":0}"},"geometry":{"type":"Point","coordinates":[-57.647,-25.28646]}},{"type":"Feature","properties":{"country_code":"ESP","city":"Sevilla","geoname_id":"2510911","downloaders":"{\"size\":816,\"mobile\":556,\"satellite\":0,\"tor\":0,\"tor_exit_nodes\":0,\"vpn\":1,\"relay\":0,\"proxy\":0,\"hosting\":0,\"service\":0}","uploaders":"{\"size\":21,\"mobile\":9,\"satellite\":0,\"tor\":0,\"tor_exit_nodes\":0,\"vpn\":0,\"relay\":0,\"proxy\":0,\"hosting\":0,\"service\":0}"},"geometry":{"type":"Point","coordinates":[-5.97317,37.38283]}},