{"type":"FeatureCollection","id":"Lupin","swarm_features":238,"features":[{"type":"Feature","properties":{"country_code":"RUS","city":"Moscow","geoname_id":"524901","downloaders":"{\"size\":396669,\"mobile\":17779,\"satellite\":5,\"tor\":0,\"tor_exit_nodes\":13,\"vpn\":18315,\"relay\":0,\"proxy\":32,\"hosting\":44087,\"service\":4276}","uploaders":"{\"size\":12817,\"mobile\":1168,\"satellite\":0,\"tor\":0,\"tor_exit_nodes\":0,\"vpn\":330,\"relay\":0,\"proxy\":0,\"hosting\":1354,\"service\":113}"},"geometry":{"type":"Point","coordinates":[37.61556,55.75222]}},{"type":"Feature","properties":{"country_code":"KOR","city":"Seoul","geoname_id":"1835848","downloaders":"{\"size\":262523,\"mobile\":813,\"satellite\":0,\"tor\":0,\"tor_exit_nodes\":0,\"vpn\":4201,\"relay\":34,\"proxy\":0,\"hosting\":2216,\"service\":832}","uploaders":"{\"size\":1563,\"mobile\":105,\"satellite\":0,\"tor\":0,\"tor_exit_nodes\":0,\"vpn\":30,\"relay\":5,\"proxy\":0,\"hosting\":75,\"service\":23}"},"geometry":{"type":"Point","coordinates":[126.9784,37.566]}},{"type":"Feature","properties":{"country_code":"RUS","city":"Saint Petersburg","geoname_id":"498817","downloaders":"{\"size\":183078,\"mobile\":7766,\"satellite\":0,\"tor\":0,\"tor_exit_nodes\":0,\"vpn\":3642,\"relay\":0,\"proxy\":14,\"hosting\":7457,\"service\":193}","uploaders":"{\"size\":5151,\"mobile\":707,\"satellite\":0,\"tor\":0,\"tor_exit_nodes\":0,\"vpn\":70,\"relay\":0,\"proxy\":0,\"hosting\":405,\"service\":10}"},"geometry":{"type":"Point","coordinates":[30.31413,59.93863]}},{"type":"Feature","properties":{"country_code":"ESP","city":"Madrid","geoname_id":"3117735","downloaders":"{\"size\":161833,\"mobile\":77858,\"satellite\":136,\"tor\":0,\"tor_exit_nodes\":0,\"vpn\":9478,\"relay\":1162,\"proxy\":3,\"hosting\":10854,\"service\":9698}","uploaders":"{\"size\":42357,\"mobile\":19717,\"satellite\":54,\"tor\":0,\"tor_exit_nodes\":0,\"vpn\":2721,\"relay\":717,\"proxy\":2,\"hosting\":3440,\"service\":3189}"},"geometry":{"type":"Point","coordinates":[-3.70256,40.4165]}},{"type":"Feature","properties":{"country_code":"TUR","city":"Istanbul","geoname_id":"745044","downloaders":"{\"size\":157332,\"mobile\":12639,\"satellite\":0,\"tor\":0,\"tor_exit_nodes\":1,\"vpn\":259,\"relay\":0,\"proxy\":0,\"hosting\":467,\"service\":161}","uploaders":"{\"size\":1162,\"mobile\":208,\"satellite\":0,\"tor\":0,\"tor_exit_nodes\":0,\"vpn\":44,\"relay\":0,\"proxy\":0,\"hosting\":50,\"service\":42}"},"geometry":{"type":"Point","coordinates":[28.94966,41.01384]}},{"type":"Feature","properties":{"country_code":"NLD","city":"Amsterdam","geoname_id":"2759794","downloaders":"{\"size\":151594,\"mobile\":305,\"satellite\":12,\"tor\":57,\"tor_exit_nodes\":87,\"vpn\":42714,\"relay\":12,\"proxy\":0,\"hosting\":136323,\"service\":23283}","uploaders":"{\"size\":8219,\"mobile\":94,\"satellite\":5,\"tor\":5,\"tor_exit_nodes\":5,\"vpn\":4592,\"relay\":2,\"proxy\":0,\"hosting\":6340,\"service\":3874}"},"geometry":{"type":"Point","coordinates":[4.88969,52.37403]}},{"type":"Feature","properties":{"country_code":"USA","city":"Ashburn","geoname_id":"4744870","downloaders":"{\"size\":141210,\"mobile\":45,\"satellite\":8,\"tor\":0,\"tor_exit_nodes\":0,\"vpn\":2216,\"relay\":0,\"proxy\":0,\"hosting\":139776,\"service\":2039}","uploaders":"{\"size\":44068,\"mobile\":10,\"satellite\":0,\"tor\":0,\"tor_exit_nodes\":0,\"vpn\":609,\"relay\":0,\"proxy\":0,\"hosting\":43976,\"service\":578}"},"geometry":{"type":"Point","coordinates":[-77.4875,39.0437]}},{"type":"Feature","properties":{"country_code":"GBR","city":"London","geoname_id":"2643743","downloaders":"{\"size\":119149,\"mobile\":3300,\"satellite\":161,\"tor\":1,\"tor_exit_nodes\":7,\"vpn\":36361,\"relay\":82,\"proxy\":2,\"hosting\":32835,\"service\":33499}","uploaders":"{\"size\":9013,\"mobile\":601,\"satellite\":39,\"tor\":1,\"tor_exit_nodes\":0,\"vpn\":4919,\"relay\":14,\"proxy\":0,\"hosting\":5019,\"service\":4430}"},"geometry":{"type":"Point","coordinates":[-0.12574,51.50853]}},{"type":"Feature","properties":{"country_code":"FRA","city":"Paris","geoname_id":"2988507","downloaders":"{\"size\":106646,\"mobile\":22474,\"satellite\":146,\"tor\":22,\"tor_exit_nodes\":51,\"vpn\":15126,\"relay\":163,\"proxy\":7,\"hosting\":31166,\"service\":12291}","uploaders":"{\"size\":10394,\"mobile\":3279,\"satellite\":59,\"tor\":0,\"tor_exit_nodes\":10,\"vpn\":2992,\"relay\":90,\"proxy\":4,\"hosting\":3818,\"service\":2868}"},"geometry":{"type":"Point","coordinates":[2.3488,48.85341]}},{"type":"Feature","properties":{"country_code":"CHN","city":"Shanghai","geoname_id":"1796236","downloaders":"{\"size\":92177,\"mobile\":929,\"satellite\":0,\"tor\":0,\"tor_exit_nodes\":0,\"vpn\":853,\"relay\":0,\"proxy\":0,\"hosting\":11205,\"service\":0}","uploaders":"{\"size\":2208,\"mobile\":7,\"satellite\":0,\"tor\":0,\"tor_exit_nodes\":0,\"vpn\":3,\"relay\":0,\"proxy\":0,\"hosting\":816,\"service\":0}"},"geometry":{"type":"Point","coordinates":[121.45806,31.22222]}},{"type":"Feature","properties":{"country_code":"HUN","city":"Budapest","geoname_id":"3054643","downloaders":"{\"size\":87077,\"mobile\":4646,\"satellite\":0,\"tor\":0,\"tor_exit_nodes\":5,\"vpn\":2079,\"relay\":1,\"proxy\":1,\"hosting\":2578,\"service\":536}","uploaders":"{\"size\":882,\"mobile\":31,\"satellite\":0,\"tor\":0,\"tor_exit_nodes\":4,\"vpn\":113,\"relay\":0,\"proxy\":0,\"hosting\":113,\"service\":91}"},"geometry":{"type":"Point","coordinates":[19.04045,47.49835]}},{"type":"Feature","properties":{"country_code":"MEX","city":"Mexico City","geoname_id":"3530597","downloaders":"{\"size\":85110,\"mobile\":606,\"satellite\":115,\"tor\":0,\"tor_exit_nodes\":0,\"vpn\":85,\"relay\":14,\"proxy\":1,\"hosting\":120,\"service\":62}","uploaders":"{\"size\":748,\"mobile\":48,\"satellite\":18,\"tor\":0,\"tor_exit_nodes\":0,\"vpn\":9,\"relay\":1,\"proxy\":0,\"hosting\":20,\"service\":5}"},"geometry":{"type":"Point","coordinates":[-99.12766,19.42847]}},{"type":"Feature","properties":{"country_code":"BRA","city":"São Paulo","geoname_id":"3448439","downloaders":"{\"size\":81360,\"mobile\":9599,\"satellite\":61,\"tor\":0,\"tor_exit_nodes\":0,\"vpn\":1176,\"relay\":0,\"proxy\":0,\"hosting\":4011,\"service\":995}","uploaders":"{\"size\":2275,\"mobile\":295,\"satellite\":12,\"tor\":0,\"tor_exit_nodes\":0,\"vpn\":325,\"relay\":0,\"proxy\":0,\"hosting\":824,\"service\":312}"},"geometry":{"type":"Point","coordinates":[-46.63611,-23.5475]}},{"type":"Feature","properties":{"country_code":"RUS","city":"Yekaterinburg","geoname_id":"1486209","downloaders":"{\"size\":80403,\"mobile\":5980,\"satellite\":0,\"tor\":0,\"tor_exit_nodes\":0,\"vpn\":2267,\"relay\":0,\"proxy\":0,\"hosting\":5903,\"service\":296}","uploaders":"{\"size\":2041,\"mobile\":521,\"satellite\":0,\"tor\":0,\"tor_exit_nodes\":0,\"vpn\":20,\"relay\":0,\"proxy\":0,\"hosting\":116,\"service\":7}"},"geometry":{"type":"Point","coordinates":[60.6122,56.8519]}},{"type":"Feature","properties":{"country_code":"POL","city":"Warsaw","geoname_id":"756135","downloaders":"{\"size\":74692,\"mobile\":6340,\"satellite\":162,\"tor\":23,\"tor_exit_nodes\":33,\"vpn\":1721,\"relay\":0,\"proxy\":0,\"hosting\":4728,\"service\":1332}","uploaders":"{\"size\":3782,\"mobile\":578,\"satellite\":62,\"tor\":5,\"tor_exit_nodes\":9,\"vpn\":329,\"relay\":0,\"proxy\":0,\"hosting\":753,\"service\":309}"},"geometry":{"type":"Point","coordinates":[21.01178,52.22977]}},{"type":"Feature","properties":{"country_code":"RUS","city":"Novosibirsk","geoname_id":"1496747","downloaders":"{\"size\":67351,\"mobile\":5085,\"satellite\":0,\"tor\":0,\"tor_exit_nodes\":0,\"vpn\":161,\"relay\":0,\"proxy\":0,\"hosting\":404,\"service\":53}","uploaders":"{\"size\":1266,\"mobile\":272,\"satellite\":0,\"tor\":0,\"tor_exit_nodes\":0,\"vpn\":3,\"relay\":0,\"proxy\":0,\"hosting\":21,\"service\":3}"},"geometry":{"type":"Point","coordinates":[82.94339,55.03442]}},{"type":"Feature","properties":{"country_code":"BEL","city":"Brussels","geoname_id":"2800866","downloaders":"{\"size\":57290,\"mobile\":2421,\"satellite\":0,\"tor\":0,\"tor_exit_nodes\":5,\"vpn\":2563,\"relay\":19,\"proxy\":0,\"hosting\":1494,\"service\":2298}","uploaders":"{\"size\":5276,\"mobile\":885,\"satellite\":0,\"tor\":0,\"tor_exit_nodes\":0,\"vpn\":608,\"relay\":7,\"proxy\":0,\"hosting\":465,\"service\":571}"},"geometry":{"type":"Point","coordinates":[4.34878,50.85045]}},{"type":"Feature","properties":{"country_code":"RUS","city":"Krasnodar","geoname_id":"542420","downloaders":"{\"size\":54894,\"mobile\":10878,\"satellite\":0,\"tor\":0,\"tor_exit_nodes\":0,\"vpn\":1151,\"relay\":0,\"proxy\":0,\"hosting\":2907,\"service\":648}","uploaders":"{\"size\":2808,\"mobile\":952,\"satellite\":0,\"tor\":0,\"tor_exit_nodes\":0,\"vpn\":31,\"relay\":0,\"proxy\":0,\"hosting\":74,\"service\":10}"},"geometry":{"type":"Point","coordinates":[38.97603,45.04484]}},{"type":"Feature","properties":{"country_code":"ESP","city":"Barcelona","geoname_id":"3128760","downloaders":"{\"size\":52360,\"mobile\":18094,\"satellite\":0,\"tor\":0,\"tor_exit_nodes\":0,\"vpn\":1130,\"relay\":1,\"proxy\":0,\"hosting\":1093,\"service\":1036}","uploaders":"{\"size\":13343,\"mobile\":3858,\"satellite\":0,\"tor\":0,\"tor_exit_nodes\":0,\"vpn\":369,\"relay\":0,\"proxy\":0,\"hosting\":358,\"service\":348}"},"geometry":{"type":"Point","coordinates":[2.15899,41.38879]}},{"type":"Feature","properties":{"country_code":"RUS","city":"Nizhniy Novgorod","geoname_id":"520555","downloaders":"{\"size\":48598,\"mobile\":9231,\"satellite\":0,\"tor\":0,\"tor_exit_nodes\":0,\"vpn\":456,\"relay\":0,\"proxy\":0,\"hosting\":39,\"service\":68}","uploaders":"{\"size\":1120,\"mobile\":408,\"satellite\":0,\"tor\":0,\"tor_exit_nodes\":0,\"vpn\":11,\"relay\":0,\"proxy\":0,\"hosting\":2,\"service\":5}"},"geometry":{"type":"Point","coordinates":[44.00205,56.32867]}},{"type":"Feature","properties":{"country_code":"BGR","city":"Sofia","geoname_id":"727011","downloaders":"{\"size\":46969,\"mobile\":7093,\"satellite\":99,\"tor\":1,\"tor_exit_nodes\":6,\"vpn\":2277,\"relay\":1,\"proxy\":3,\"hosting\":4947,\"service\":1049}","uploaders":"{\"size\":1028,\"mobile\":258,\"satellite\":14,\"tor\":0,\"tor_exit_nodes\":0,\"vpn\":195,\"relay\":0,\"proxy\":0,\"hosting\":283,\"service\":145}"},"geometry":{"type":"Point","coordinates":[23.32415,42.69751]}},{"type":"Feature","properties":{"country_code":"KOR","city":"Incheon","geoname_id":"1843564","downloaders":"{\"size\":45275,\"mobile\":17,\"satellite\":0,\"tor\":0,\"tor_exit_nodes\":0,\"vpn\":510,\"relay\":0,\"proxy\":0,\"hosting\":389,\"service\":91}","uploaders":"{\"size\":245,\"mobile\":0,\"satellite\":0,\"tor\":0,\"tor_exit_nodes\":0,\"vpn\":16,\"relay\":0,\"proxy\":0,\"hosting\":64,\"service\":15}"},"geometry":{"type":"Point","coordinates":[126.70515,37.45646]}},{"type":"Feature","properties":{"country_code":"NLD","city":"Lelystad","geoname_id":"2751738","downloaders":"{\"size\":44838,\"mobile\":1,\"satellite\":0,\"tor\":4,\"tor_exit_nodes\":32,\"vpn\":5490,\"relay\":0,\"proxy\":0,\"hosting\":43451,\"service\":2303}","uploaders":"{\"size\":1073,\"mobile\":1,\"satellite\":0,\"tor\":0,\"tor_exit_nodes\":6,\"vpn\":241,\"relay\":0,\"proxy\":0,\"hosting\":976,\"service\":184}"},"geometry":{"type":"Point","coordinates":[5.475,52.50833]}},{"type":"Feature","properties":{"country_code":"TUR","city":"Ankara","geoname_id":"323786","downloaders":"{\"size\":44718,\"mobile\":2925,\"satellite\":2,\"tor\":0,\"tor_exit_nodes\":0,\"vpn\":7,\"relay\":0,\"proxy\":0,\"hosting\":8,\"service\":0}","uploaders":"{\"size\":257,\"mobile\":45,\"satellite\":0,\"tor\":0,\"tor_exit_nodes\":0,\"vpn\":0,\"relay\":0,\"proxy\":0,\"hosting\":1,\"service\":0}"},"geometry":{"type":"Point","coordinates":[32.85427,39.91987]}},{"type":"Feature","properties":{"country_code":"RUS","city":"Samara","geoname_id":"499099","downloaders":"{\"size\":44221,\"mobile\":4820,\"satellite\":0,\"tor\":0,\"tor_exit_nodes\":0,\"vpn\":866,\"relay\":0,\"proxy\":0,\"hosting\":21,\"service\":425}","uploaders":"{\"size\":1119,\"mobile\":315,\"satellite\":0,\"tor\":0,\"tor_exit_nodes\":0,\"vpn\":25,\"relay\":0,\"proxy\":0,\"hosting\":2,\"service\":21}"},"geometry":{"type":"Point","coordinates":[50.15,53.20007]}},{"type":"Feature","properties":{"country_code":"RUS","city":"Chelyabinsk","geoname_id":"1508291","downloaders":"{\"size\":43179,\"mobile\":2792,\"satellite\":0,\"tor\":0,\"tor_exit_nodes\":0,\"vpn\":131,\"relay\":0,\"proxy\":0,\"hosting\":12,\"service\":25}","uploaders":"{\"size\":900,\"mobile\":141,\"satellite\":0,\"tor\":0,\"tor_exit_nodes\":0,\"vpn\":5,\"relay\":0,\"proxy\":0,\"hosting\":0,\"service\":0}"},"geometry":{"type":"Point","coordinates":[61.42915,55.15402]}},{"type":"Feature","properties":{"country_code":"USA","city":"New York City","geoname_id":"5128581","downloaders":"{\"size\":41488,\"mobile\":1075,\"satellite\":23,\"tor\":18,\"tor_exit_nodes\":39,\"vpn\":13650,\"relay\":148,\"proxy\":0,\"hosting\":16296,\"service\":12781}","uploaders":"{\"size\":3637,\"mobile\":283,\"satellite\":4,\"tor\":2,\"tor_exit_nodes\":2,\"vpn\":2561,\"relay\":11,\"proxy\":0,\"hosting\":2812,\"service\":2410}"},"geometry":{"type":"Point","coordinates":[-74.00597,40.71427]}},{"type":"Feature","properties":{"country_code":"CAN","city":"Montréal","geoname_id":"6077243","downloaders":"{\"size\":40670,\"mobile\":3097,\"satellite\":0,\"tor\":0,\"tor_exit_nodes\":22,\"vpn\":10806,\"relay\":0,\"proxy\":0,\"hosting\":17458,\"service\":10532}","uploaders":"{\"size\":4645,\"mobile\":212,\"satellite\":0,\"tor\":0,\"tor_exit_nodes\":8,\"vpn\":2486,\"relay\":0,\"proxy\":0,\"hosting\":2441,\"service\":2473}"},"geometry":{"type":"Point","coordinates":[-73.58781,45.50884]}},{"type":"Feature","properties":{"country_code":"DEU","city":"Frankfurt am Main","geoname_id":"2925533","downloaders":"{\"size\":40058,\"mobile\":1032,\"satellite\":9,\"tor\":3,\"tor_exit_nodes\":107,\"vpn\":11496,\"relay\":116,\"proxy\":84,\"hosting\":28847,\"service\":10856}","uploaders":"{\"size\":3674,\"mobile\":5,\"satellite\":3,\"tor\":2,\"tor_exit_nodes\":14,\"vpn\":2076,\"relay\":0,\"proxy\":5,\"hosting\":3359,\"service\":1922}"},"geometry":{"type":"Point","coordinates":[8.68417,50.11552]}},{"type":"Feature","properties":{"country_code":"UKR","city":"Kyiv","geoname_id":"703448","downloaders":"{\"size\":40007,\"mobile\":711,\"satellite\":193,\"tor\":1,\"tor_exit_nodes\":1,\"vpn\":1167,\"relay\":0,\"proxy\":0,\"hosting\":6920,\"service\":457}","uploaders":"{\"size\":2281,\"mobile\":69,\"satellite\":33,\"tor\":0,\"tor_exit_nodes\":0,\"vpn\":55,\"relay\":0,\"proxy\":0,\"hosting\":573,\"service\":27}"},"geometry":{"type":"Point","coordinates":[30.5238,50.45466]}},{"type":"Feature","properties":{"country_code":"RUS","city":"Perm","geoname_id":"511196","downloaders":"{\"size\":38138,\"mobile\":2186,\"satellite\":0,\"tor\":0,\"tor_exit_nodes\":0,\"vpn\":300,\"relay\":0,\"proxy\":0,\"hosting\":7,\"service\":25}","uploaders":"{\"size\":1271,\"mobile\":158,\"satellite\":0,\"tor\":0,\"tor_exit_nodes\":0,\"vpn\":2,\"relay\":0,\"proxy\":0,\"hosting\":0,\"service\":0}"},"geometry":{"type":"Point","coordinates":[56.25017,58.01046]}},{"type":"Feature","properties":{"country_code":"RUS","city":"Voronezh","geoname_id":"472045","downloaders":"{\"size\":38079,\"mobile\":525,\"satellite\":0,\"tor\":0,\"tor_exit_nodes\":0,\"vpn\":447,\"relay\":0,\"proxy\":0,\"hosting\":474,\"service\":5}","uploaders":"{\"size\":986,\"mobile\":82,\"satellite\":0,\"tor\":0,\"tor_exit_nodes\":0,\"vpn\":29,\"relay\":0,\"proxy\":0,\"hosting\":38,\"service\":0}"},"geometry":{"type":"Point","coordinates":[39.1843,51.67204]}},{"type":"Feature","properties":{"country_code":"RUS","city":"Tyumen","geoname_id":"1488754","downloaders":"{\"size\":37819,\"mobile\":7873,\"satellite\":0,\"tor\":0,\"tor_exit_nodes\":0,\"vpn\":221,\"relay\":0,\"proxy\":0,\"hosting\":0,\"service\":10}","uploaders":"{\"size\":992,\"mobile\":260,\"satellite\":0,\"tor\":0,\"tor_exit_nodes\":0,\"vpn\":3,\"relay\":0,\"proxy\":0,\"hosting\":0,\"service\":0}"},"geometry":{"type":"Point","coordinates":[65.52722,57.15222]}},{"type":"Feature","properties":{"country_code":"RUS","city":"Rostov-na-Donu","geoname_id":"501175","downloaders":"{\"size\":37623,\"mobile\":2091,\"satellite\":0,\"tor\":0,\"tor_exit_nodes\":0,\"vpn\":846,\"relay\":0,\"proxy\":2,\"hosting\":0,\"service\":31}","uploaders":"{\"size\":1866,\"mobile\":261,\"satellite\":0,\"tor\":0,\"tor_exit_nodes\":0,\"vpn\":19,\"relay\":0,\"proxy\":0,\"hosting\":0,\"service\":0}"},"geometry":{"type":"Point","coordinates":[39.72328,47.23135]}},{"type":"Feature","properties":{"country_code":"RUS","city":"Ufa","geoname_id":"479561","downloaders":"{\"size\":37603,\"mobile\":1082,\"satellite\":0,\"tor\":0,\"tor_exit_nodes\":0,\"vpn\":254,\"relay\":0,\"proxy\":0,\"hosting\":1,\"service\":58}","uploaders":"{\"size\":626,\"mobile\":11,\"satellite\":0,\"tor\":0,\"tor_exit_nodes\":0,\"vpn\":11,\"relay\":0,\"proxy\":0,\"hosting\":0,\"service\":0}"},"geometry":{"type":"Point","coordinates":[55.96779,54.74306]}},{"type":"Feature","properties":{"country_code":"CAN","city":"Toronto","geoname_id":"6167865","downloaders":"{\"size\":37196,\"mobile\":1714,\"satellite\":62,\"tor\":73,\"tor_exit_nodes\":314,\"vpn\":11592,\"relay\":195,\"proxy\":49,\"hosting\":17862,\"service\":10997}","uploaders":"{\"size\":4745,\"mobile\":88,\"satellite\":28,\"tor\":18,\"tor_exit_nodes\":64,\"vpn\":2372,\"relay\":12,\"proxy\":0,\"hosting\":3221,\"service\":2230}"},"geometry":{"type":"Point","coordinates":[-79.39864,43.70643]}},{"type":"Feature","properties":{"country_code":"FIN","city":"Helsinki","geoname_id":"658225","downloaders":"{\"size\":35833,\"mobile\":817,\"satellite\":0,\"tor\":1,\"tor_exit_nodes\":5,\"vpn\":3397,\"relay\":2,\"proxy\":0,\"hosting\":31123,\"service\":1940}","uploaders":"{\"size\":791,\"mobile\":112,\"satellite\":0,\"tor\":0,\"tor_exit_nodes\":0,\"vpn\":391,\"relay\":0,\"proxy\":0,\"hosting\":570,\"service\":316}"},"geometry":{"type":"Point","coordinates":[24.93545,60.16952]}},{"type":"Feature","properties":{"country_code":"CHN","city":"Shenzhen","geoname_id":"1795565","downloaders":"{\"size\":33298,\"mobile\":50,\"satellite\":0,\"tor\":0,\"tor_exit_nodes\":0,\"vpn\":592,\"relay\":0,\"proxy\":0,\"hosting\":1094,\"service\":0}","uploaders":"{\"size\":688,\"mobile\":2,\"satellite\":0,\"tor\":0,\"tor_exit_nodes\":0,\"vpn\":44,\"relay\":0,\"proxy\":0,\"hosting\":92,\"service\":0}"},"geometry":{"type":"Point","coordinates":[114.0683,22.54554]}},{"type":"Feature","properties":{"country_code":"ARG","city":"Buenos Aires","geoname_id":"3435910","downloaders":"{\"size\":32725,\"mobile\":4549,\"satellite\":21,\"tor\":0,\"tor_exit_nodes\":0,\"vpn\":176,\"relay\":0,\"proxy\":0,\"hosting\":612,\"service\":100}","uploaders":"{\"size\":2673,\"mobile\":299,\"satellite\":2,\"tor\":0,\"tor_exit_nodes\":0,\"vpn\":47,\"relay\":0,\"proxy\":0,\"hosting\":131,\"service\":32}"},"geometry":{"type":"Point","coordinates":[-58.37723,-34.61315]}},{"type":"Feature","properties":{"country_code":"TUR","city":"İzmir","geoname_id":"311046","downloaders":"{\"size\":32193,\"mobile\":6451,\"satellite\":0,\"tor\":0,\"tor_exit_nodes\":0,\"vpn\":9,\"relay\":0,\"proxy\":0,\"hosting\":10,\"service\":1}","uploaders":"{\"size\":208,\"mobile\":61,\"satellite\":0,\"tor\":0,\"tor_exit_nodes\":0,\"vpn\":1,\"relay\":0,\"proxy\":0,\"hosting\":2,\"service\":0}"},"geometry":{"type":"Point","coordinates":[27.13838,38.41273]}},{"type":"Feature","properties":{"country_code":"BRA","city":"Rio de Janeiro","geoname_id":"3451190","downloaders":"{\"size\":31764,\"mobile\":2143,\"satellite\":0,\"tor\":0,\"tor_exit_nodes\":0,\"vpn\":66,\"relay\":0,\"proxy\":0,\"hosting\":61,\"service\":11}","uploaders":"{\"size\":886,\"mobile\":201,\"satellite\":0,\"tor\":0,\"tor_exit_nodes\":0,\"vpn\":8,\"relay\":0,\"proxy\":0,\"hosting\":7,\"service\":6}"},"geometry":{"type":"Point","coordinates":[-43.18223,-22.90642]}},{"type":"Feature","properties":{"country_code":"RUS","city":"Omsk","geoname_id":"1496153","downloaders":"{\"size\":31541,\"mobile\":53,\"satellite\":0,\"tor\":0,\"tor_exit_nodes\":0,\"vpn\":63,\"relay\":0,\"proxy\":0,\"hosting\":18,\"service\":33}","uploaders":"{\"size\":1063,\"mobile\":3,\"satellite\":0,\"tor\":0,\"tor_exit_nodes\":0,\"vpn\":0,\"relay\":0,\"proxy\":0,\"hosting\":0,\"service\":0}"},"geometry":{"type":"Point","coordinates":[73.36859,54.99244]}},{"type":"Feature","properties":{"country_code":"KEN","city":"Nairobi","geoname_id":"184745","downloaders":"{\"size\":31222,\"mobile\":15104,\"satellite\":39,\"tor\":0,\"tor_exit_nodes\":0,\"vpn\":300,\"relay\":0,\"proxy\":1,\"hosting\":633,\"service\":84}","uploaders":"{\"size\":8686,\"mobile\":3981,\"satellite\":0,\"tor\":0,\"tor_exit_nodes\":0,\"vpn\":82,\"relay\":0,\"proxy\":1,\"hosting\":170,\"service\":17}"},"geometry":{"type":"Point","coordinates":[36.81667,-1.28333]}},{"type":"Feature","properties":{"country_code":"RUS","city":"Krasnoyarsk","geoname_id":"1502026","downloaders":"{\"size\":30888,\"mobile\":1975,\"satellite\":4,\"tor\":0,\"tor_exit_nodes\":0,\"vpn\":124,\"relay\":0,\"proxy\":0,\"hosting\":141,\"service\":74}","uploaders":"{\"size\":821,\"mobile\":38,\"satellite\":0,\"tor\":0,\"tor_exit_nodes\":0,\"vpn\":8,\"relay\":0,\"proxy\":0,\"hosting\":1,\"service\":4}"},"geometry":{"type":"Point","coordinates":[92.90765,56.02668]}},{"type":"Feature","properties":{"country_code":"ITA","city":"Milan","geoname_id":"3173435","downloaders":"{\"size\":30040,\"mobile\":7354,\"satellite\":5,\"tor\":0,\"tor_exit_nodes\":0,\"vpn\":2659,\"relay\":6,\"proxy\":0,\"hosting\":3268,\"service\":2474}","uploaders":"{\"size\":2732,\"mobile\":820,\"satellite\":0,\"tor\":0,\"tor_exit_nodes\":0,\"vpn\":572,\"relay\":0,\"proxy\":0,\"hosting\":634,\"service\":548}"},"geometry":{"type":"Point","coordinates":[9.18951,45.46427]}},{"type":"Feature","properties":{"country_code":"RUS","city":"Barnaul","geoname_id":"1510853","downloaders":"{\"size\":29824,\"mobile\":9,\"satellite\":0,\"tor\":0,\"tor_exit_nodes\":0,\"vpn\":87,\"relay\":0,\"proxy\":0,\"hosting\":0,\"service\":62}","uploaders":"{\"size\":577,\"mobile\":0,\"satellite\":0,\"tor\":0,\"tor_exit_nodes\":0,\"vpn\":0,\"relay\":0,\"proxy\":0,\"hosting\":0,\"service\":0}"},"geometry":{"type":"Point","coordinates":[83.7456,53.3598]}},{"type":"Feature","properties":{"country_code":"RUS","city":"Tomsk","geoname_id":"1489425","downloaders":"{\"size\":29353,\"mobile\":34,\"satellite\":0,\"tor\":0,\"tor_exit_nodes\":0,\"vpn\":88,\"relay\":0,\"proxy\":0,\"hosting\":12,\"service\":4}","uploaders":"{\"size\":363,\"mobile\":0,\"satellite\":0,\"tor\":0,\"tor_exit_nodes\":0,\"vpn\":0,\"relay\":0,\"proxy\":0,\"hosting\":0,\"service\":0}"},"geometry":{"type":"Point","coordinates":[84.98204,56.50032]}},{"type":"Feature","properties":{"country_code":"CHN","city":"Qingdao","geoname_id":"1797929","downloaders":"{\"size\":29045,\"mobile\":0,\"satellite\":0,\"tor\":0,\"tor_exit_nodes\":0,\"vpn\":353,\"relay\":0,\"proxy\":0,\"hosting\":207,\"service\":0}","uploaders":"{\"size\":162,\"mobile\":0,\"satellite\":0,\"tor\":0,\"tor_exit_nodes\":0,\"vpn\":1,\"relay\":0,\"proxy\":0,\"hosting\":0,\"service\":0}"},"geometry":{"type":"Point","coordinates":[120.38042,36.06488]}},{"type":"Feature","properties":{"country_code":"CHL","city":"Santiago","geoname_id":"3871336","downloaders":"{\"size\":28354,\"mobile\":9111,\"satellite\":61,\"tor\":0,\"tor_exit_nodes\":0,\"vpn\":120,\"relay\":0,\"proxy\":0,\"hosting\":2016,\"service\":88}","uploaders":"{\"size\":1535,\"mobile\":791,\"satellite\":17,\"tor\":0,\"tor_exit_nodes\":0,\"vpn\":35,\"relay\":0,\"proxy\":0,\"hosting\":93,\"service\":30}"},"geometry":{"type":"Point","coordinates":[-70.6288,-33.4963]}},{"type":"Feature","properties":{"country_code":"KOR","city":"Busan","geoname_id":"1838524","downloaders":"{\"size\":27705,\"mobile\":28,\"satellite\":0,\"tor\":0,\"tor_exit_nodes\":0,\"vpn\":170,\"relay\":0,\"proxy\":0,\"hosting\":6,\"service\":49}","uploaders":"{\"size\":195,\"mobile\":3,\"satellite\":0,\"tor\":0,\"tor_exit_nodes\":0,\"vpn\":1,\"relay\":0,\"proxy\":0,\"hosting\":0,\"service\":0}"},"geometry":{"type":"Point","coordinates":[129.03004,35.10168]}},{"type":"Feature","properties":{"country_code":"ITA","city":"Rome","geoname_id":"3169070","downloaders":"{\"size\":27634,\"mobile\":7601,\"satellite\":0,\"tor\":1,\"tor_exit_nodes\":1,\"vpn\":524,\"relay\":138,\"proxy\":0,\"hosting\":667,\"service\":593}","uploaders":"{\"size\":1914,\"mobile\":888,\"satellite\":0,\"tor\":0,\"tor_exit_nodes\":0,\"vpn\":139,\"relay\":35,\"proxy\":0,\"hosting\":178,\"service\":168}"},"geometry":{"type":"Point","coordinates":[12.51133,41.89193]}},{"type":"Feature","properties":{"country_code":"CHN","city":"Nanjing","geoname_id":"1799962","downloaders":"{\"size\":27570,\"mobile\":0,\"satellite\":0,\"tor\":0,\"tor_exit_nodes\":0,\"vpn\":444,\"relay\":0,\"proxy\":0,\"hosting\":701,\"service\":0}","uploaders":"{\"size\":352,\"mobile\":0,\"satellite\":0,\"tor\":0,\"tor_exit_nodes\":0,\"vpn\":1,\"relay\":0,\"proxy\":0,\"hosting\":52,\"service\":0}"},"geometry":{"type":"Point","coordinates":[118.77778,32.06167]}},{"type":"Feature","properties":{"country_code":"RUS","city":"Saratov","geoname_id":"498677","downloaders":"{\"size\":26940,\"mobile\":609,\"satellite\":0,\"tor\":0,\"tor_exit_nodes\":0,\"vpn\":181,\"relay\":0,\"proxy\":0,\"hosting\":15,\"service\":7}","uploaders":"{\"size\":648,\"mobile\":38,\"satellite\":0,\"tor\":0,\"tor_exit_nodes\":0,\"vpn\":16,\"relay\":0,\"proxy\":0,\"hosting\":0,\"service\":2}"},"geometry":{"type":"Point","coordinates":[46.00861,51.54056]}},{"type":"Feature","properties":{"country_code":"BLR","city":"Minsk","geoname_id":"625144","downloaders":"{\"size\":26051,\"mobile\":258,\"satellite\":0,\"tor\":0,\"tor_exit_nodes\":0,\"vpn\":442,\"relay\":0,\"proxy\":0,\"hosting\":699,\"service\":80}","uploaders":"{\"size\":1722,\"mobile\":8,\"satellite\":0,\"tor\":0,\"tor_exit_nodes\":0,\"vpn\":34,\"relay\":0,\"proxy\":0,\"hosting\":14,\"service\":7}"},"geometry":{"type":"Point","coordinates":[27.56653,53.90019]}},{"type":"Feature","properties":{"country_code":"POL","city":"Ursynów","geoname_id":"6545326","downloaders":"{\"size\":25630,\"mobile\":0,\"satellite\":0,\"tor\":0,\"tor_exit_nodes\":0,\"vpn\":212,\"relay\":0,\"proxy\":0,\"hosting\":213,\"service\":212}","uploaders":"{\"size\":464,\"mobile\":0,\"satellite\":0,\"tor\":0,\"tor_exit_nodes\":0,\"vpn\":57,\"relay\":0,\"proxy\":0,\"hosting\":57,\"service\":57}"},"geometry":{"type":"Point","coordinates":[21.0068,52.1552]}},{"type":"Feature","properties":{"country_code":"LVA","city":"Riga","geoname_id":"456172","downloaders":"{\"size\":25578,\"mobile\":833,\"satellite\":0,\"tor\":0,\"tor_exit_nodes\":0,\"vpn\":907,\"relay\":0,\"proxy\":0,\"hosting\":1935,\"service\":490}","uploaders":"{\"size\":1777,\"mobile\":125,\"satellite\":0,\"tor\":0,\"tor_exit_nodes\":0,\"vpn\":165,\"relay\":0,\"proxy\":0,\"hosting\":249,\"service\":137}"},"geometry":{"type":"Point","coordinates":[24.10589,56.946]}},{"type":"Feature","properties":{"country_code":"RUS","city":"Kemerovo","geoname_id":"1503901","downloaders":"{\"size\":25275,\"mobile\":4,\"satellite\":0,\"tor\":0,\"tor_exit_nodes\":0,\"vpn\":186,\"relay\":0,\"proxy\":0,\"hosting\":23,\"service\":2}","uploaders":"{\"size\":277,\"mobile\":0,\"satellite\":0,\"tor\":0,\"tor_exit_nodes\":0,\"vpn\":0,\"relay\":0,\"proxy\":0,\"hosting\":0,\"service\":0}"},"geometry":{"type":"Point","coordinates":[86.08333,55.33333]}},{"type":"Feature","properties":{"country_code":"MEX","city":"Guadalajara","geoname_id":"4005539","downloaders":"{\"size\":25219,\"mobile\":90,\"satellite\":0,\"tor\":0,\"tor_exit_nodes\":0,\"vpn\":17,\"relay\":0,\"proxy\":0,\"hosting\":0,\"service\":0}","uploaders":"{\"size\":83,\"mobile\":9,\"satellite\":0,\"tor\":0,\"tor_exit_nodes\":0,\"vpn\":0,\"relay\":0,\"proxy\":0,\"hosting\":0,\"service\":0}"},"geometry":{"type":"Point","coordinates":[-103.34749,20.67738]}},{"type":"Feature","properties":{"country_code":"CHN","city":"Beijing","geoname_id":"1816670","downloaders":"{\"size\":24722,\"mobile\":0,\"satellite\":0,\"tor\":0,\"tor_exit_nodes\":0,\"vpn\":393,\"relay\":0,\"proxy\":0,\"hosting\":5595,\"service\":0}","uploaders":"{\"size\":865,\"mobile\":0,\"satellite\":0,\"tor\":0,\"tor_exit_nodes\":0,\"vpn\":2,\"relay\":0,\"proxy\":0,\"hosting\":596,\"service\":0}"},"geometry":{"type":"Point","coordinates":[116.39723,39.9075]}},{"type":"Feature","properties":{"country_code":"PRT","city":"Lisbon","geoname_id":"2267057","downloaders":"{\"size\":24519,\"mobile\":7078,\"satellite\":0,\"tor\":0,\"tor_exit_nodes\":0,\"vpn\":1036,\"relay\":8,\"proxy\":0,\"hosting\":1215,\"service\":949}","uploaders":"{\"size\":6417,\"mobile\":2353,\"satellite\":0,\"tor\":0,\"tor_exit_nodes\":0,\"vpn\":334,\"relay\":4,\"proxy\":0,\"hosting\":420,\"service\":315}"},"geometry":{"type":"Point","coordinates":[-9.1498,38.72509]}},{"type":"Feature","properties":{"country_code":"DEU","city":"Falkenstein","geoname_id":"2927913","downloaders":"{\"size\":24446,\"mobile\":0,\"satellite\":0,\"tor\":0,\"tor_exit_nodes\":1,\"vpn\":11,\"relay\":0,\"proxy\":6,\"hosting\":24444,\"service\":11}","uploaders":"{\"size\":469,\"mobile\":0,\"satellite\":0,\"tor\":0,\"tor_exit_nodes\":0,\"vpn\":1,\"relay\":0,\"proxy\":0,\"hosting\":469,\"service\":1}"},"geometry":{"type":"Point","coordinates":[12.37129,50.47788]}},{"type":"Feature","properties":{"country_code":"FRA","city":"Dunkerque","geoname_id":"3020686","downloaders":"{\"size\":24262,\"mobile\":357,\"satellite\":0,\"tor\":0,\"tor_exit_nodes\":0,\"vpn\":375,\"relay\":0,\"proxy\":0,\"hosting\":22748,\"service\":128}","uploaders":"{\"size\":747,\"mobile\":3,\"satellite\":0,\"tor\":0,\"tor_exit_nodes\":0,\"vpn\":2,\"relay\":0,\"proxy\":0,\"hosting\":726,\"service\":2}"},"geometry":{"type":"Point","coordinates":[2.37681,51.0344]}},{"type":"Feature","properties":{"country_code":"TUR","city":"Bursa","geoname_id":"750269","downloaders":"{\"size\":23644,\"mobile\":2133,\"satellite\":0,\"tor\":0,\"tor_exit_nodes\":0,\"vpn\":5,\"relay\":0,\"proxy\":0,\"hosting\":201,\"service\":0}","uploaders":"{\"size\":75,\"mobile\":8,\"satellite\":0,\"tor\":0,\"tor_exit_nodes\":0,\"vpn\":0,\"relay\":0,\"proxy\":0,\"hosting\":8,\"service\":0}"},"geometry":{"type":"Point","coordinates":[29.06013,40.19559]}},{"type":"Feature","properties":{"country_code":"ESP","city":"Valencia","geoname_id":"2509954","downloaders":"{\"size\":23007,\"mobile\":11580,\"satellite\":0,\"tor\":0,\"tor_exit_nodes\":0,\"vpn\":427,\"relay\":0,\"proxy\":0,\"hosting\":415,\"service\":373}","uploaders":"{\"size\":5688,\"mobile\":2428,\"satellite\":0,\"tor\":0,\"tor_exit_nodes\":0,\"vpn\":30,\"relay\":0,\"proxy\":0,\"hosting\":34,\"service\":27}"},"geometry":{"type":"Point","coordinates":[-0.37966,39.47391]}},{"type":"Feature","properties":{"country_code":"KOR","city":"Daegu","geoname_id":"1835329","downloaders":"{\"size\":22851,\"mobile\":55,\"satellite\":0,\"tor\":0,\"tor_exit_nodes\":0,\"vpn\":240,\"relay\":0,\"proxy\":0,\"hosting\":465,\"service\":49}","uploaders":"{\"size\":155,\"mobile\":9,\"satellite\":0,\"tor\":0,\"tor_exit_nodes\":0,\"vpn\":0,\"relay\":0,\"proxy\":0,\"hosting\":3,\"service\":0}"},"geometry":{"type":"Point","coordinates":[128.59111,35.87028]}},{"type":"Feature","properties":{"country_code":"RUS","city":"Volgograd","geoname_id":"472757","downloaders":"{\"size\":22828,\"mobile\":1108,\"satellite\":0,\"tor\":0,\"tor_exit_nodes\":0,\"vpn\":228,\"relay\":0,\"proxy\":0,\"hosting\":0,\"service\":4}","uploaders":"{\"size\":603,\"mobile\":56,\"satellite\":0,\"tor\":0,\"tor_exit_nodes\":0,\"vpn\":9,\"relay\":0,\"proxy\":0,\"hosting\":0,\"service\":0}"},"geometry":{"type":"Point","coordinates":[44.50183,48.71939]}},{"type":"Feature","properties":{"country_code":"RUS","city":"Kazan","geoname_id":"551487","downloaders":"{\"size\":22275,\"mobile\":2233,\"satellite\":0,\"tor\":0,\"tor_exit_nodes\":0,\"vpn\":306,\"relay\":0,\"proxy\":0,\"hosting\":56,\"service\":6}","uploaders":"{\"size\":792,\"mobile\":114,\"satellite\":0,\"tor\":0,\"tor_exit_nodes\":0,\"vpn\":9,\"relay\":0,\"proxy\":0,\"hosting\":0,\"service\":0}"},"geometry":{"type":"Point","coordinates":[49.12214,55.78874]}},{"type":"Feature","properties":{"country_code":"HKG","city":"Hong Kong","geoname_id":"1819729","downloaders":"{\"size\":22269,\"mobile\":187,\"satellite\":0,\"tor\":0,\"tor_exit_nodes\":0,\"vpn\":1534,\"relay\":0,\"proxy\":0,\"hosting\":3876,\"service\":1067}","uploaders":"{\"size\":1137,\"mobile\":19,\"satellite\":0,\"tor\":0,\"tor_exit_nodes\":0,\"vpn\":200,\"relay\":0,\"proxy\":0,\"hosting\":639,\"service\":192}"},"geometry":{"type":"Point","coordinates":[114.17469,22.27832]}},{"type":"Feature","properties":{"country_code":"LTU","city":"Vilnius","geoname_id":"593116","downloaders":"{\"size\":22137,\"mobile\":911,\"satellite\":0,\"tor\":1,\"tor_exit_nodes\":1,\"vpn\":509,\"relay\":5,\"proxy\":0,\"hosting\":1278,\"service\":349}","uploaders":"{\"size\":1010,\"mobile\":128,\"satellite\":0,\"tor\":0,\"tor_exit_nodes\":0,\"vpn\":66,\"relay\":0,\"proxy\":0,\"hosting\":74,\"service\":43}"},"geometry":{"type":"Point","coordinates":[25.2798,54.68916]}},{"type":"Feature","properties":{"country_code":"AUS","city":"Sydney","geoname_id":"2147714","downloaders":"{\"size\":21827,\"mobile\":1304,\"satellite\":120,\"tor\":0,\"tor_exit_nodes\":1,\"vpn\":7575,\"relay\":71,\"proxy\":0,\"hosting\":9532,\"service\":6911}","uploaders":"{\"size\":3412,\"mobile\":185,\"satellite\":30,\"tor\":0,\"tor_exit_nodes\":0,\"vpn\":1726,\"relay\":17,\"proxy\":0,\"hosting\":2198,\"service\":1615}"},"geometry":{"type":"Point","coordinates":[151.20732,-33.86785]}},{"type":"Feature","properties":{"country_code":"RUS","city":"Tula","geoname_id":"480562","downloaders":"{\"size\":21349,\"mobile\":3986,\"satellite\":0,\"tor\":0,\"tor_exit_nodes\":0,\"vpn\":132,\"relay\":0,\"proxy\":0,\"hosting\":293,\"service\":3}","uploaders":"{\"size\":618,\"mobile\":177,\"satellite\":0,\"tor\":0,\"tor_exit_nodes\":0,\"vpn\":0,\"relay\":0,\"proxy\":0,\"hosting\":15,\"service\":0}"},"geometry":{"type":"Point","coordinates":[37.61822,54.19609]}},{"type":"Feature","properties":{"country_code":"KOR","city":"Suwon","geoname_id":"1835553","downloaders":"{\"size\":21164,\"mobile\":21,\"satellite\":0,\"tor\":0,\"tor_exit_nodes\":0,\"vpn\":234,\"relay\":0,\"proxy\":0,\"hosting\":2,\"service\":9}","uploaders":"{\"size\":84,\"mobile\":0,\"satellite\":0,\"tor\":0,\"tor_exit_nodes\":0,\"vpn\":0,\"relay\":0,\"proxy\":0,\"hosting\":0,\"service\":0}"},"geometry":{"type":"Point","coordinates":[127.00889,37.29111]}},{"type":"Feature","properties":{"country_code":"RUS","city":"Khimki","geoname_id":"550280","downloaders":"{\"size\":20995,\"mobile\":9,\"satellite\":0,\"tor\":0,\"tor_exit_nodes\":0,\"vpn\":1506,\"relay\":0,\"proxy\":0,\"hosting\":4199,\"service\":361}","uploaders":"{\"size\":466,\"mobile\":0,\"satellite\":0,\"tor\":0,\"tor_exit_nodes\":0,\"vpn\":22,\"relay\":0,\"proxy\":0,\"hosting\":99,\"service\":9}"},"geometry":{"type":"Point","coordinates":[37.42848,55.9001]}},{"type":"Feature","properties":{"country_code":"ROU","city":"Bucharest","geoname_id":"683506","downloaders":"{\"size\":20860,\"mobile\":3945,\"satellite\":0,\"tor\":22,\"tor_exit_nodes\":29,\"vpn\":2032,\"relay\":1,\"proxy\":0,\"hosting\":2543,\"service\":1702}","uploaders":"{\"size\":1182,\"mobile\":206,\"satellite\":0,\"tor\":4,\"tor_exit_nodes\":4,\"vpn\":313,\"relay\":0,\"proxy\":0,\"hosting\":465,\"service\":275}"},"geometry":{"type":"Point","coordinates":[26.10626,44.43225]}},{"type":"Feature","properties":{"country_code":"RUS","city":"Lipetsk","geoname_id":"535121","downloaders":"{\"size\":20373,\"mobile\":2810,\"satellite\":0,\"tor\":0,\"tor_exit_nodes\":0,\"vpn\":166,\"relay\":0,\"proxy\":0,\"hosting\":0,\"service\":26}","uploaders":"{\"size\":586,\"mobile\":114,\"satellite\":0,\"tor\":0,\"tor_exit_nodes\":0,\"vpn\":3,\"relay\":0,\"proxy\":0,\"hosting\":0,\"service\":0}"},"geometry":{"type":"Point","coordinates":[39.57076,52.60311]}},{"type":"Feature","properties":{"country_code":"RUS","city":"Irkutsk","geoname_id":"2023469","downloaders":"{\"size\":20239,\"mobile\":1554,\"satellite\":0,\"tor\":0,\"tor_exit_nodes\":0,\"vpn\":19,\"relay\":0,\"proxy\":0,\"hosting\":0,\"service\":2}","uploaders":"{\"size\":655,\"mobile\":95,\"satellite\":0,\"tor\":0,\"tor_exit_nodes\":0,\"vpn\":3,\"relay\":0,\"proxy\":0,\"hosting\":0,\"service\":0}"},"geometry":{"type":"Point","coordinates":[104.29585,52.29795]}},{"type":"Feature","properties":{"country_code":"SWE","city":"Stockholm","geoname_id":"2673730","downloaders":"{\"size\":20161,\"mobile\":997,\"satellite\":3,\"tor\":5,\"tor_exit_nodes\":20,\"vpn\":7285,\"relay\":4,\"proxy\":0,\"hosting\":5864,\"service\":6929}","uploaders":"{\"size\":1896,\"mobile\":108,\"satellite\":0,\"tor\":0,\"tor_exit_nodes\":0,\"vpn\":1277,\"relay\":0,\"proxy\":0,\"hosting\":1062,\"service\":1264}"},"geometry":{"type":"Point","coordinates":[18.06871,59.32938]}},{"type":"Feature","properties":{"country_code":"JPN","city":"Tokyo","geoname_id":"1850147","downloaders":"{\"size\":19818,\"mobile\":1154,\"satellite\":4,\"tor\":0,\"tor_exit_nodes\":0,\"vpn\":2968,\"relay\":19,\"proxy\":2,\"hosting\":5996,\"service\":2638}","uploaders":"{\"size\":958,\"mobile\":58,\"satellite\":0,\"tor\":0,\"tor_exit_nodes\":0,\"vpn\":297,\"relay\":0,\"proxy\":1,\"hosting\":798,\"service\":294}"},"geometry":{"type":"Point","coordinates":[139.69171,35.6895]}},{"type":"Feature","properties":{"country_code":"USA","city":"Los Angeles","geoname_id":"5368361","downloaders":"{\"size\":19435,\"mobile\":166,\"satellite\":49,\"tor\":0,\"tor_exit_nodes\":1,\"vpn\":7950,\"relay\":3,\"proxy\":2,\"hosting\":13766,\"service\":7243}","uploaders":"{\"size\":3202,\"mobile\":14,\"satellite\":2,\"tor\":0,\"tor_exit_nodes\":0,\"vpn\":1237,\"relay\":0,\"proxy\":2,\"hosting\":2709,\"service\":1133}"},"geometry":{"type":"Point","coordinates":[-118.24368,34.05223]}},{"type":"Feature","properties":{"country_code":"DEU","city":"Berlin","geoname_id":"2950159","downloaders":"{\"size\":19378,\"mobile\":7194,\"satellite\":57,\"tor\":401,\"tor_exit_nodes\":416,\"vpn\":1554,\"relay\":2,\"proxy\":0,\"hosting\":2030,\"service\":1320}","uploaders":"{\"size\":469,\"mobile\":133,\"satellite\":7,\"tor\":2,\"tor_exit_nodes\":2,\"vpn\":174,\"relay\":1,\"proxy\":0,\"hosting\":225,\"service\":141}"},"geometry":{"type":"Point","coordinates":[13.41053,52.52437]}},{"type":"Feature","properties":{"country_code":"POL","city":"Poznań","geoname_id":"3088171","downloaders":"{\"size\":19333,\"mobile\":1438,\"satellite\":0,\"tor\":3,\"tor_exit_nodes\":3,\"vpn\":113,\"relay\":0,\"proxy\":0,\"hosting\":45,\"service\":0}","uploaders":"{\"size\":758,\"mobile\":247,\"satellite\":0,\"tor\":1,\"tor_exit_nodes\":1,\"vpn\":7,\"relay\":0,\"proxy\":0,\"hosting\":8,\"service\":0}"},"geometry":{"type":"Point","coordinates":[16.92993,52.40692]}},{"type":"Feature","properties":{"country_code":"RUS","city":"Yaroslavl","geoname_id":"468902","downloaders":"{\"size\":19305,\"mobile\":2206,\"satellite\":0,\"tor\":0,\"tor_exit_nodes\":0,\"vpn\":181,\"relay\":0,\"proxy\":0,\"hosting\":1,\"service\":0}","uploaders":"{\"size\":746,\"mobile\":169,\"satellite\":0,\"tor\":0,\"tor_exit_nodes\":0,\"vpn\":4,\"relay\":0,\"proxy\":0,\"hosting\":0,\"service\":0}"},"geometry":{"type":"Point","coordinates":[39.87368,57.62987]}},{"type":"Feature","properties":{"country_code":"HRV","city":"Zagreb","geoname_id":"3186886","downloaders":"{\"size\":19177,\"mobile\":3074,\"satellite\":0,\"tor\":0,\"tor_exit_nodes\":0,\"vpn\":485,\"relay\":0,\"proxy\":0,\"hosting\":436,\"service\":425}","uploaders":"{\"size\":2848,\"mobile\":987,\"satellite\":0,\"tor\":0,\"tor_exit_nodes\":0,\"vpn\":95,\"relay\":0,\"proxy\":0,\"hosting\":87,\"service\":85}"},"geometry":{"type":"Point","coordinates":[15.97798,45.81444]}},{"type":"Feature","properties":{"country_code":"GRC","city":"Athens","geoname_id":"264371","downloaders":"{\"size\":19133,\"mobile\":3179,\"satellite\":12,\"tor\":0,\"tor_exit_nodes\":0,\"vpn\":411,\"relay\":0,\"proxy\":0,\"hosting\":726,\"service\":346}","uploaders":"{\"size\":5667,\"mobile\":1175,\"satellite\":3,\"tor\":0,\"tor_exit_nodes\":0,\"vpn\":139,\"relay\":0,\"proxy\":0,\"hosting\":227,\"service\":127}"},"geometry":{"type":"Point","coordinates":[23.72784,37.98376]}},{"type":"Feature","properties":{"country_code":"CZE","city":"Prague","geoname_id":"3067696","downloaders":"{\"size\":19104,\"mobile\":1699,\"satellite\":27,\"tor\":2,\"tor_exit_nodes\":2,\"vpn\":2755,\"relay\":12,\"proxy\":0,\"hosting\":3948,\"service\":2459}","uploaders":"{\"size\":1190,\"mobile\":108,\"satellite\":5,\"tor\":0,\"tor_exit_nodes\":0,\"vpn\":654,\"relay\":1,\"proxy\":0,\"hosting\":706,\"service\":638}"},"geometry":{"type":"Point","coordinates":[14.42076,50.08804]}},{"type":"Feature","properties":{"country_code":"GRC","city":"Thessaloníki","geoname_id":"734077","downloaders":"{\"size\":18906,\"mobile\":1258,\"satellite\":0,\"tor\":0,\"tor_exit_nodes\":0,\"vpn\":31,\"relay\":0,\"proxy\":0,\"hosting\":244,\"service\":3}","uploaders":"{\"size\":3234,\"mobile\":477,\"satellite\":0,\"tor\":0,\"tor_exit_nodes\":0,\"vpn\":3,\"relay\":0,\"proxy\":0,\"hosting\":51,\"service\":2}"},"geometry":{"type":"Point","coordinates":[22.93086,40.64361]}},{"type":"Feature","properties":{"country_code":"RUS","city":"Tolyatti","geoname_id":"482283","downloaders":"{\"size\":18052,\"mobile\":14,\"satellite\":0,\"tor\":0,\"tor_exit_nodes\":0,\"vpn\":109,\"relay\":0,\"proxy\":0,\"hosting\":0,\"service\":2}","uploaders":"{\"size\":409,\"mobile\":0,\"satellite\":0,\"tor\":0,\"tor_exit_nodes\":0,\"vpn\":7,\"relay\":0,\"proxy\":0,\"hosting\":0,\"service\":0}"},"geometry":{"type":"Point","coordinates":[49.3461,53.5303]}},{"type":"Feature","properties":{"country_code":"SVN","city":"Ljubljana","geoname_id":"3196359","downloaders":"{\"size\":17529,\"mobile\":734,\"satellite\":0,\"tor\":0,\"tor_exit_nodes\":0,\"vpn\":447,\"relay\":0,\"proxy\":0,\"hosting\":301,\"service\":238}","uploaders":"{\"size\":1004,\"mobile\":231,\"satellite\":0,\"tor\":0,\"tor_exit_nodes\":0,\"vpn\":68,\"relay\":0,\"proxy\":0,\"hosting\":65,\"service\":65}"},"geometry":{"type":"Point","coordinates":[14.50513,46.05108]}},{"type":"Feature","properties":{"country_code":"RUS","city":"Balashikha","geoname_id":"579464","downloaders":"{\"size\":17350,\"mobile\":320,\"satellite\":0,\"tor\":0,\"tor_exit_nodes\":0,\"vpn\":707,\"relay\":0,\"proxy\":0,\"hosting\":628,\"service\":62}","uploaders":"{\"size\":363,\"mobile\":27,\"satellite\":0,\"tor\":0,\"tor_exit_nodes\":0,\"vpn\":24,\"relay\":0,\"proxy\":0,\"hosting\":14,\"service\":0}"},"geometry":{"type":"Point","coordinates":[37.94794,55.79479]}},{"type":"Feature","properties":{"country_code":"ESP","city":"Sevilla","geoname_id":"2510911","downloaders":"{\"size\":17279,\"mobile\":11041,\"satellite\":0,\"tor\":0,\"tor_exit_nodes\":0,\"vpn\":21,\"relay\":0,\"proxy\":0,\"hosting\":59,\"service\":7}","uploaders":"{\"size\":3933,\"mobile\":2501,\"satellite\":0,\"tor\":0,\"tor_exit_nodes\":0,\"vpn\":4,\"relay\":0,\"proxy\":0,\"hosting\":26,\"service\":0}"},"geometry":{"type":"Point","coordinates":[-5.97317,37.38283]}},{"type":"Feature","properties":{"country_code":"CHE","city":"Zürich","geoname_id":"2657896","downloaders":"{\"size\":17107,\"mobile\":3079,\"satellite\":0,\"tor\":56,\"tor_exit_nodes\":16,\"vpn\":8483,\"relay\":5,\"proxy\":13,\"hosting\":7397,\"service\":7971}","uploaders":"{\"size\":3633,\"mobile\":956,\"satellite\":0,\"tor\":11,\"tor_exit_nodes\":0,\"vpn\":2122,\"relay\":2,\"proxy\":0,\"hosting\":1773,\"service\":2010}"},"geometry":{"type":"Point","coordinates":[8.55,47.36667]}},{"type":"Feature","properties":{"country_code":"RUS","city":"Tver","geoname_id":"480060","downloaders":"{\"size\":17026,\"mobile\":191,\"satellite\":0,\"tor\":0,\"tor_exit_nodes\":0,\"vpn\":190,\"relay\":0,\"proxy\":0,\"hosting\":106,\"service\":24}","uploaders":"{\"size\":377,\"mobile\":14,\"satellite\":0,\"tor\":0,\"tor_exit_nodes\":0,\"vpn\":0,\"relay\":0,\"proxy\":0,\"hosting\":2,\"service\":0}"},"geometry":{"type":"Point","coordinates":[35.90057,56.85836]}},{"type":"Feature","properties":{"country_code":"PRT","city":"Porto","geoname_id":"2735943","downloaders":"{\"size\":16859,\"mobile\":1331,\"satellite\":0,\"tor\":0,\"tor_exit_nodes\":0,\"vpn\":83,\"relay\":7,\"proxy\":0,\"hosting\":10,\"service\":8}","uploaders":"{\"size\":3426,\"mobile\":440,\"satellite\":0,\"tor\":0,\"tor_exit_nodes\":0,\"vpn\":7,\"relay\":2,\"proxy\":0,\"hosting\":4,\"service\":2}"},"geometry":{"type":"Point","coordinates":[-8.61099,41.14961]}},{"type":"Feature","properties":{"country_code":"RUS","city":"Kirov","geoname_id":"548408","downloaders":"{\"size\":16850,\"mobile\":33,\"satellite\":0,\"tor\":0,\"tor_exit_nodes\":0,\"vpn\":1252,\"relay\":0,\"proxy\":0,\"hosting\":0,\"service\":1161}","uploaders":"{\"size\":567,\"mobile\":4,\"satellite\":0,\"tor\":0,\"tor_exit_nodes\":0,\"vpn\":67,\"relay\":0,\"proxy\":0,\"hosting\":0,\"service\":63}"},"geometry":{"type":"Point","coordinates":[49.66007,58.59665]}},{"type":"Feature","properties":{"country_code":"ZAF","city":"Johannesburg","geoname_id":"993800","downloaders":"{\"size\":16591,\"mobile\":7814,\"satellite\":6,\"tor\":0,\"tor_exit_nodes\":0,\"vpn\":502,\"relay\":0,\"proxy\":14,\"hosting\":2508,\"service\":406}","uploaders":"{\"size\":3826,\"mobile\":1895,\"satellite\":2,\"tor\":0,\"tor_exit_nodes\":0,\"vpn\":90,\"relay\":0,\"proxy\":0,\"hosting\":501,\"service\":73}"},"geometry":{"type":"Point","coordinates":[28.0833,-26.2]}},{"type":"Feature","properties":{"country_code":"SGP","city":"Singapore","geoname_id":"1880252","downloaders":"{\"size\":16568,\"mobile\":1071,\"satellite\":1,\"tor\":0,\"tor_exit_nodes\":0,\"vpn\":4505,\"relay\":1,\"proxy\":1,\"hosting\":9736,\"service\":4424}","uploaders":"{\"size\":2103,\"mobile\":145,\"satellite\":1,\"tor\":0,\"tor_exit_nodes\":0,\"vpn\":991,\"relay\":0,\"proxy\":1,\"hosting\":1675,\"service\":980}"},"geometry":{"type":"Point","coordinates":[103.85007,1.28967]}},{"type":"Feature","properties":{"country_code":"RUS","city":"Penza","geoname_id":"511565","downloaders":"{\"size\":16563,\"mobile\":1438,\"satellite\":0,\"tor\":0,\"tor_exit_nodes\":0,\"vpn\":92,\"relay\":0,\"proxy\":0,\"hosting\":0,\"service\":7}","uploaders":"{\"size\":424,\"mobile\":34,\"satellite\":0,\"tor\":0,\"tor_exit_nodes\":0,\"vpn\":1,\"relay\":0,\"proxy\":0,\"hosting\":0,\"service\":0}"},"geometry":{"type":"Point","coordinates":[45.00464,53.20066]}},{"type":"Feature","properties":{"country_code":"COL","city":"Bogotá","geoname_id":"3688689","downloaders":"{\"size\":16474,\"mobile\":7403,\"satellite\":65,\"tor\":0,\"tor_exit_nodes\":0,\"vpn\":446,\"relay\":0,\"proxy\":0,\"hosting\":819,\"service\":313}","uploaders":"{\"size\":1105,\"mobile\":327,\"satellite\":32,\"tor\":0,\"tor_exit_nodes\":0,\"vpn\":75,\"relay\":0,\"proxy\":0,\"hosting\":212,\"service\":68}"},"geometry":{"type":"Point","coordinates":[-74.1036,4.6948]}},{"type":"Feature","properties":{"country_code":"USA","city":"Dallas","geoname_id":"4684888","downloaders":"{\"size\":16359,\"mobile\":161,\"satellite\":73,\"tor\":0,\"tor_exit_nodes\":1,\"vpn\":5890,\"relay\":2,\"proxy\":0,\"hosting\":13666,\"service\":5617}","uploaders":"{\"size\":4823,\"mobile\":8,\"satellite\":12,\"tor\":0,\"tor_exit_nodes\":0,\"vpn\":855,\"relay\":0,\"proxy\":0,\"hosting\":4748,\"service\":839}"},"geometry":{"type":"Point","coordinates":[-96.8703,32.8152]}},{"type":"Feature","properties":{"country_code":"KOR","city":"Daejeon","geoname_id":"1835235","downloaders":"{\"size\":16230,\"mobile\":13,\"satellite\":0,\"tor\":0,\"tor_exit_nodes\":0,\"vpn\":279,\"relay\":0,\"proxy\":0,\"hosting\":0,\"service\":42}","uploaders":"{\"size\":93,\"mobile\":0,\"satellite\":0,\"tor\":0,\"tor_exit_nodes\":0,\"vpn\":0,\"relay\":0,\"proxy\":0,\"hosting\":0,\"service\":0}"},"geometry":{"type":"Point","coordinates":[127.38493,36.34913]}},{"type":"Feature","properties":{"country_code":"RUS","city":"Ulyanovsk","geoname_id":"479123","downloaders":"{\"size\":16212,\"mobile\":726,\"satellite\":0,\"tor\":0,\"tor_exit_nodes\":0,\"vpn\":56,\"relay\":0,\"proxy\":0,\"hosting\":0,\"service\":4}","uploaders":"{\"size\":935,\"mobile\":29,\"satellite\":0,\"tor\":0,\"tor_exit_nodes\":0,\"vpn\":0,\"relay\":0,\"proxy\":0,\"hosting\":0,\"service\":0}"},"geometry":{"type":"Point","coordinates":[48.38657,54.32824]}},{"type":"Feature","properties":{"country_code":"POL","city":"Mokotów","geoname_id":"764484","downloaders":"{\"size\":16025,\"mobile\":177,\"satellite\":0,\"tor\":0,\"tor_exit_nodes\":0,\"vpn\":1,\"relay\":0,\"proxy\":0,\"hosting\":7,\"service\":0}","uploaders":"{\"size\":627,\"mobile\":28,\"satellite\":0,\"tor\":0,\"tor_exit_nodes\":0,\"vpn\":0,\"relay\":0,\"proxy\":0,\"hosting\":0,\"service\":0}"},"geometry":{"type":"Point","coordinates":[20.9944,52.177]}},{"type":"Feature","properties":{"country_code":"IRL","city":"Dublin","geoname_id":"2964574","downloaders":"{\"size\":15958,\"mobile\":734,\"satellite\":0,\"tor\":0,\"tor_exit_nodes\":0,\"vpn\":1340,\"relay\":5,\"proxy\":0,\"hosting\":6140,\"service\":1271}","uploaders":"{\"size\":1334,\"mobile\":143,\"satellite\":0,\"tor\":0,\"tor_exit_nodes\":0,\"vpn\":226,\"relay\":0,\"proxy\":0,\"hosting\":442,\"service\":215}"},"geometry":{"type":"Point","coordinates":[-6.24889,53.33306]}},{"type":"Feature","properties":{"country_code":"RUS","city":"Orenburg","geoname_id":"515003","downloaders":"{\"size\":15924,\"mobile\":22,\"satellite\":0,\"tor\":0,\"tor_exit_nodes\":0,\"vpn\":567,\"relay\":0,\"proxy\":0,\"hosting\":0,\"service\":471}","uploaders":"{\"size\":395,\"mobile\":0,\"satellite\":0,\"tor\":0,\"tor_exit_nodes\":0,\"vpn\":23,\"relay\":0,\"proxy\":0,\"hosting\":0,\"service\":21}"},"geometry":{"type":"Point","coordinates":[55.0988,51.7727]}},{"type":"Feature","properties":{"country_code":"RUS","city":"Bryansk","geoname_id":"571476","downloaders":"{\"size\":15880,\"mobile\":19,\"satellite\":0,\"tor\":0,\"tor_exit_nodes\":0,\"vpn\":63,\"relay\":0,\"proxy\":0,\"hosting\":0,\"service\":11}","uploaders":"{\"size\":355,\"mobile\":9,\"satellite\":0,\"tor\":0,\"tor_exit_nodes\":0,\"vpn\":3,\"relay\":0,\"proxy\":0,\"hosting\":0,\"service\":0}"},"geometry":{"type":"Point","coordinates":[34.37167,53.25209]}},{"type":"Feature","properties":{"country_code":"USA","city":"Seattle","geoname_id":"5809844","downloaders":"{\"size\":15771,\"mobile\":150,\"satellite\":47,\"tor\":0,\"tor_exit_nodes\":0,\"vpn\":6668,\"relay\":3,\"proxy\":3,\"hosting\":12471,\"service\":6487}","uploaders":"{\"size\":1673,\"mobile\":18,\"satellite\":12,\"tor\":0,\"tor_exit_nodes\":0,\"vpn\":675,\"relay\":0,\"proxy\":0,\"hosting\":1315,\"service\":658}"},"geometry":{"type":"Point","coordinates":[-122.3129,47.5413]}},{"type":"Feature","properties":{"country_code":"MAR","city":"Casablanca","geoname_id":"2553604","downloaders":"{\"size\":15622,\"mobile\":5191,\"satellite\":0,\"tor\":0,\"tor_exit_nodes\":0,\"vpn\":11,\"relay\":0,\"proxy\":0,\"hosting\":13,\"service\":0}","uploaders":"{\"size\":4504,\"mobile\":1358,\"satellite\":0,\"tor\":0,\"tor_exit_nodes\":0,\"vpn\":3,\"relay\":0,\"proxy\":0,\"hosting\":6,\"service\":0}"},"geometry":{"type":"Point","coordinates":[-7.61138,33.58831]}},{"type":"Feature","properties":{"country_code":"FRA","city":"Calais","geoname_id":"3029162","downloaders":"{\"size\":15352,\"mobile\":396,\"satellite\":0,\"tor\":11,\"tor_exit_nodes\":11,\"vpn\":332,\"relay\":0,\"proxy\":11,\"hosting\":14494,\"service\":48}","uploaders":"{\"size\":297,\"mobile\":2,\"satellite\":0,\"tor\":1,\"tor_exit_nodes\":1,\"vpn\":3,\"relay\":0,\"proxy\":0,\"hosting\":286,\"service\":2}"},"geometry":{"type":"Point","coordinates":[1.85635,50.95194]}},{"type":"Feature","properties":{"country_code":"ITA","city":"Naples","geoname_id":"3172394","downloaders":"{\"size\":15298,\"mobile\":3329,\"satellite\":0,\"tor\":0,\"tor_exit_nodes\":0,\"vpn\":26,\"relay\":0,\"proxy\":0,\"hosting\":15,\"service\":0}","uploaders":"{\"size\":371,\"mobile\":104,\"satellite\":0,\"tor\":0,\"tor_exit_nodes\":0,\"vpn\":2,\"relay\":0,\"proxy\":0,\"hosting\":2,\"service\":0}"},"geometry":{"type":"Point","coordinates":[14.26811,40.85216]}},{"type":"Feature","properties":{"country_code":"IRQ","city":"Baghdad","geoname_id":"98182","downloaders":"{\"size\":15273,\"mobile\":48,\"satellite\":0,\"tor\":0,\"tor_exit_nodes\":0,\"vpn\":11,\"relay\":4,\"proxy\":0,\"hosting\":26,\"service\":4}","uploaders":"{\"size\":47,\"mobile\":13,\"satellite\":0,\"tor\":0,\"tor_exit_nodes\":0,\"vpn\":1,\"relay\":0,\"proxy\":0,\"hosting\":2,\"service\":0}"},"geometry":{"type":"Point","coordinates":[44.40088,33.34058]}},{"type":"Feature","properties":{"country_code":"RUS","city":"Izhevsk","geoname_id":"554840","downloaders":"{\"size\":15183,\"mobile\":1217,\"satellite\":0,\"tor\":0,\"tor_exit_nodes\":0,\"vpn\":132,\"relay\":0,\"proxy\":0,\"hosting\":5,\"service\":1}","uploaders":"{\"size\":366,\"mobile\":53,\"satellite\":0,\"tor\":0,\"tor_exit_nodes\":0,\"vpn\":6,\"relay\":0,\"proxy\":0,\"hosting\":0,\"service\":0}"},"geometry":{"type":"Point","coordinates":[53.20448,56.84976]}},{"type":"Feature","properties":{"country_code":"KAZ","city":"Almaty","geoname_id":"1526384","downloaders":"{\"size\":15153,\"mobile\":3275,\"satellite\":0,\"tor\":0,\"tor_exit_nodes\":0,\"vpn\":75,\"relay\":0,\"proxy\":0,\"hosting\":1728,\"service\":8}","uploaders":"{\"size\":1363,\"mobile\":283,\"satellite\":0,\"tor\":0,\"tor_exit_nodes\":0,\"vpn\":2,\"relay\":0,\"proxy\":0,\"hosting\":82,\"service\":0}"},"geometry":{"type":"Point","coordinates":[76.9115,43.25249]}},{"type":"Feature","properties":{"country_code":"EGY","city":"Cairo","geoname_id":"360630","downloaders":"{\"size\":14977,\"mobile\":816,\"satellite\":0,\"tor\":0,\"tor_exit_nodes\":0,\"vpn\":56,\"relay\":0,\"proxy\":0,\"hosting\":75,\"service\":49}","uploaders":"{\"size\":1904,\"mobile\":170,\"satellite\":0,\"tor\":0,\"tor_exit_nodes\":0,\"vpn\":14,\"relay\":0,\"proxy\":0,\"hosting\":16,\"service\":14}"},"geometry":{"type":"Point","coordinates":[31.24967,30.06263]}},{"type":"Feature","properties":{"country_code":"KOR","city":"Hwaseong-si","geoname_id":"1843847","downloaders":"{\"size\":14722,\"mobile\":7,\"satellite\":0,\"tor\":0,\"tor_exit_nodes\":0,\"vpn\":269,\"relay\":0,\"proxy\":0,\"hosting\":0,\"service\":17}","uploaders":"{\"size\":44,\"mobile\":0,\"satellite\":0,\"tor\":0,\"tor_exit_nodes\":0,\"vpn\":1,\"relay\":0,\"proxy\":0,\"hosting\":0,\"service\":0}"},"geometry":{"type":"Point","coordinates":[126.8169,37.20682]}},{"type":"Feature","properties":{"country_code":"KOR","city":"Seongnam-si","geoname_id":"1897000","downloaders":"{\"size\":14539,\"mobile\":18,\"satellite\":0,\"tor\":0,\"tor_exit_nodes\":0,\"vpn\":185,\"relay\":0,\"proxy\":0,\"hosting\":0,\"service\":39}","uploaders":"{\"size\":65,\"mobile\":0,\"satellite\":0,\"tor\":0,\"tor_exit_nodes\":0,\"vpn\":0,\"relay\":0,\"proxy\":0,\"hosting\":0,\"service\":0}"},"geometry":{"type":"Point","coordinates":[127.13778,37.43861]}},{"type":"Feature","properties":{"country_code":"SAU","city":"Riyadh","geoname_id":"108410","downloaders":"{\"size\":14505,\"mobile\":5280,\"satellite\":0,\"tor\":0,\"tor_exit_nodes\":0,\"vpn\":134,\"relay\":0,\"proxy\":0,\"hosting\":201,\"service\":112}","uploaders":"{\"size\":2164,\"mobile\":1149,\"satellite\":0,\"tor\":0,\"tor_exit_nodes\":0,\"vpn\":24,\"relay\":0,\"proxy\":0,\"hosting\":44,\"service\":20}"},"geometry":{"type":"Point","coordinates":[46.72185,24.68773]}},{"type":"Feature","properties":{"country_code":"RUS","city":"Cheboksary","geoname_id":"569696","downloaders":"{\"size\":14378,\"mobile\":1726,\"satellite\":0,\"tor\":0,\"tor_exit_nodes\":0,\"vpn\":111,\"relay\":0,\"proxy\":0,\"hosting\":0,\"service\":2}","uploaders":"{\"size\":298,\"mobile\":81,\"satellite\":0,\"tor\":0,\"tor_exit_nodes\":0,\"vpn\":8,\"relay\":0,\"proxy\":0,\"hosting\":0,\"service\":0}"},"geometry":{"type":"Point","coordinates":[47.25194,56.13222]}},{"type":"Feature","properties":{"country_code":"FRA","city":"Marseille","geoname_id":"2995469","downloaders":"{\"size\":14287,\"mobile\":2583,\"satellite\":0,\"tor\":0,\"tor_exit_nodes\":0,\"vpn\":5081,\"relay\":0,\"proxy\":4,\"hosting\":5549,\"service\":5080}","uploaders":"{\"size\":2022,\"mobile\":330,\"satellite\":0,\"tor\":0,\"tor_exit_nodes\":0,\"vpn\":1384,\"relay\":0,\"proxy\":4,\"hosting\":1434,\"service\":1384}"},"geometry":{"type":"Point","coordinates":[5.38107,43.29695]}},{"type":"Feature","properties":{"country_code":"ISR","city":"Tel Aviv","geoname_id":"293397","downloaders":"{\"size\":14216,\"mobile\":3577,\"satellite\":0,\"tor\":0,\"tor_exit_nodes\":0,\"vpn\":475,\"relay\":0,\"proxy\":0,\"hosting\":605,\"service\":421}","uploaders":"{\"size\":2245,\"mobile\":778,\"satellite\":0,\"tor\":0,\"tor_exit_nodes\":0,\"vpn\":113,\"relay\":0,\"proxy\":0,\"hosting\":154,\"service\":111}"},"geometry":{"type":"Point","coordinates":[34.78057,32.08088]}},{"type":"Feature","properties":{"country_code":"AUT","city":"Vienna","geoname_id":"2761369","downloaders":"{\"size\":14059,\"mobile\":1666,\"satellite\":2,\"tor\":9,\"tor_exit_nodes\":11,\"vpn\":1429,\"relay\":6,\"proxy\":11,\"hosting\":1647,\"service\":1256}","uploaders":"{\"size\":866,\"mobile\":231,\"satellite\":0,\"tor\":0,\"tor_exit_nodes\":2,\"vpn\":331,\"relay\":0,\"proxy\":0,\"hosting\":371,\"service\":298}"},"geometry":{"type":"Point","coordinates":[16.2934,48.1433]}},{"type":"Feature","properties":{"country_code":"RUS","city":"Kaliningrad","geoname_id":"554234","downloaders":"{\"size\":14002,\"mobile\":286,\"satellite\":0,\"tor\":0,\"tor_exit_nodes\":0,\"vpn\":75,\"relay\":0,\"proxy\":0,\"hosting\":2,\"service\":14}","uploaders":"{\"size\":995,\"mobile\":24,\"satellite\":0,\"tor\":0,\"tor_exit_nodes\":0,\"vpn\":2,\"relay\":0,\"proxy\":0,\"hosting\":0,\"service\":0}"},"geometry":{"type":"Point","coordinates":[20.51095,54.70649]}},{"type":"Feature","properties":{"country_code":"RUS","city":"Khabarovsk","geoname_id":"2022890","downloaders":"{\"size\":13943,\"mobile\":1103,\"satellite\":12,\"tor\":0,\"tor_exit_nodes\":0,\"vpn\":228,\"relay\":0,\"proxy\":0,\"hosting\":87,\"service\":200}","uploaders":"{\"size\":765,\"mobile\":103,\"satellite\":0,\"tor\":0,\"tor_exit_nodes\":0,\"vpn\":21,\"relay\":0,\"proxy\":0,\"hosting\":16,\"service\":21}"},"geometry":{"type":"Point","coordinates":[135.08822,48.48032]}},{"type":"Feature","properties":{"country_code":"KOR","city":"Goyang-si","geoname_id":"1842485","downloaders":"{\"size\":13635,\"mobile\":1,\"satellite\":0,\"tor\":0,\"tor_exit_nodes\":0,\"vpn\":179,\"relay\":0,\"proxy\":0,\"hosting\":2,\"service\":20}","uploaders":"{\"size\":68,\"mobile\":0,\"satellite\":0,\"tor\":0,\"tor_exit_nodes\":0,\"vpn\":2,\"relay\":0,\"proxy\":0,\"hosting\":1,\"service\":1}"},"geometry":{"type":"Point","coordinates":[126.835,37.65639]}},{"type":"Feature","properties":{"country_code":"RUS","city":"Surgut","geoname_id":"1490624","downloaders":"{\"size\":13422,\"mobile\":1276,\"satellite\":0,\"tor\":0,\"tor_exit_nodes\":0,\"vpn\":70,\"relay\":0,\"proxy\":0,\"hosting\":29,\"service\":25}","uploaders":"{\"size\":417,\"mobile\":85,\"satellite\":0,\"tor\":0,\"tor_exit_nodes\":0,\"vpn\":0,\"relay\":0,\"proxy\":0,\"hosting\":3,\"service\":0}"},"geometry":{"type":"Point","coordinates":[73.41775,61.25757]}},{"type":"Feature","properties":{"country_code":"TUR","city":"Antalya","geoname_id":"323777","downloaders":"{\"size\":13405,\"mobile\":6287,\"satellite\":0,\"tor\":0,\"tor_exit_nodes\":0,\"vpn\":3,\"relay\":0,\"proxy\":0,\"hosting\":0,\"service\":0}","uploaders":"{\"size\":103,\"mobile\":31,\"satellite\":0,\"tor\":0,\"tor_exit_nodes\":0,\"vpn\":0,\"relay\":0,\"proxy\":0,\"hosting\":0,\"service\":0}"},"geometry":{"type":"Point","coordinates":[30.69556,36.90812]}},{"type":"Feature","properties":{"country_code":"AUS","city":"Melbourne","geoname_id":"2158177","downloaders":"{\"size\":13340,\"mobile\":663,\"satellite\":12,\"tor\":0,\"tor_exit_nodes\":0,\"vpn\":2191,\"relay\":0,\"proxy\":0,\"hosting\":3059,\"service\":1803}","uploaders":"{\"size\":1909,\"mobile\":181,\"satellite\":0,\"tor\":0,\"tor_exit_nodes\":0,\"vpn\":462,\"relay\":0,\"proxy\":0,\"hosting\":689,\"service\":408}"},"geometry":{"type":"Point","coordinates":[144.96332,-37.814]}},{"type":"Feature","properties":{"country_code":"BRA","city":"Guarulhos","geoname_id":"3461786","downloaders":"{\"size\":13301,\"mobile\":284,\"satellite\":0,\"tor\":0,\"tor_exit_nodes\":0,\"vpn\":37,\"relay\":0,\"proxy\":0,\"hosting\":0,\"service\":1}","uploaders":"{\"size\":61,\"mobile\":0,\"satellite\":0,\"tor\":0,\"tor_exit_nodes\":0,\"vpn\":0,\"relay\":0,\"proxy\":0,\"hosting\":0,\"service\":0}"},"geometry":{"type":"Point","coordinates":[-46.53333,-23.46278]}},{"type":"Feature","properties":{"country_code":"UKR","city":"Lviv","geoname_id":"702550","downloaders":"{\"size\":13254,\"mobile\":861,\"satellite\":0,\"tor\":0,\"tor_exit_nodes\":0,\"vpn\":126,\"relay\":0,\"proxy\":0,\"hosting\":39,\"service\":0}","uploaders":"{\"size\":990,\"mobile\":117,\"satellite\":0,\"tor\":0,\"tor_exit_nodes\":0,\"vpn\":9,\"relay\":0,\"proxy\":0,\"hosting\":6,\"service\":0}"},"geometry":{"type":"Point","coordinates":[24.0232,49.8383]}},{"type":"Feature","properties":{"country_code":"KOR","city":"Gwangju","geoname_id":"1841811","downloaders":"{\"size\":13136,\"mobile\":4,\"satellite\":0,\"tor\":0,\"tor_exit_nodes\":0,\"vpn\":48,\"relay\":0,\"proxy\":0,\"hosting\":1,\"service\":3}","uploaders":"{\"size\":75,\"mobile\":0,\"satellite\":0,\"tor\":0,\"tor_exit_nodes\":0,\"vpn\":0,\"relay\":0,\"proxy\":0,\"hosting\":0,\"service\":0}"},"geometry":{"type":"Point","coordinates":[126.91556,35.15472]}},{"type":"Feature","properties":{"country_code":"MDA","city":"Chisinau","geoname_id":"618426","downloaders":"{\"size\":13110,\"mobile\":249,\"satellite\":0,\"tor\":9,\"tor_exit_nodes\":11,\"vpn\":192,\"relay\":0,\"proxy\":0,\"hosting\":560,\"service\":144}","uploaders":"{\"size\":377,\"mobile\":11,\"satellite\":0,\"tor\":0,\"tor_exit_nodes\":0,\"vpn\":19,\"relay\":0,\"proxy\":0,\"hosting\":49,\"service\":14}"},"geometry":{"type":"Point","coordinates":[28.85938,47.00902]}},{"type":"Feature","properties":{"country_code":"RUS","city":"Kamensk-Ural’skiy","geoname_id":"1504826","downloaders":"{\"size\":12917,\"mobile\":0,\"satellite\":0,\"tor\":0,\"tor_exit_nodes\":0,\"vpn\":17,\"relay\":0,\"proxy\":2,\"hosting\":0,\"service\":3}","uploaders":"{\"size\":54,\"mobile\":0,\"satellite\":0,\"tor\":0,\"tor_exit_nodes\":0,\"vpn\":0,\"relay\":0,\"proxy\":0,\"hosting\":0,\"service\":0}"},"geometry":{"type":"Point","coordinates":[61.93347,56.40626]}},{"type":"Feature","properties":{"country_code":"CAN","city":"Barrie","geoname_id":"5894171","downloaders":"{\"size\":12895,\"mobile\":49,\"satellite\":0,\"tor\":0,\"tor_exit_nodes\":0,\"vpn\":0,\"relay\":0,\"proxy\":0,\"hosting\":6067,\"service\":0}","uploaders":"{\"size\":5962,\"mobile\":2,\"satellite\":0,\"tor\":0,\"tor_exit_nodes\":0,\"vpn\":0,\"relay\":0,\"proxy\":0,\"hosting\":1884,\"service\":0}"},"geometry":{"type":"Point","coordinates":[-79.66634,44.40011]}},{"type":"Feature","properties":{"country_code":"COL","city":"Medellín","geoname_id":"3674962","downloaders":"{\"size\":12818,\"mobile\":4474,\"satellite\":0,\"tor\":0,\"tor_exit_nodes\":0,\"vpn\":35,\"relay\":0,\"proxy\":0,\"hosting\":77,\"service\":0}","uploaders":"{\"size\":638,\"mobile\":436,\"satellite\":0,\"tor\":0,\"tor_exit_nodes\":0,\"vpn\":5,\"relay\":0,\"proxy\":0,\"hosting\":2,\"service\":0}"},"geometry":{"type":"Point","coordinates":[-75.57151,6.245]}},{"type":"Feature","properties":{"country_code":"BRA","city":"Colombo","geoname_id":"3465927","downloaders":"{\"size\":12818,\"mobile\":0,\"satellite\":0,\"tor\":0,\"tor_exit_nodes\":0,\"vpn\":7,\"relay\":0,\"proxy\":0,\"hosting\":0,\"service\":0}","uploaders":"{\"size\":52,\"mobile\":0,\"satellite\":0,\"tor\":0,\"tor_exit_nodes\":0,\"vpn\":0,\"relay\":0,\"proxy\":0,\"hosting\":0,\"service\":0}"},"geometry":{"type":"Point","coordinates":[-49.22417,-25.29167]}},{"type":"Feature","properties":{"country_code":"GHA","city":"Accra","geoname_id":"2306104","downloaders":"{\"size\":12759,\"mobile\":11213,\"satellite\":0,\"tor\":0,\"tor_exit_nodes\":0,\"vpn\":96,\"relay\":0,\"proxy\":0,\"hosting\":55,\"service\":1}","uploaders":"{\"size\":3132,\"mobile\":2706,\"satellite\":0,\"tor\":0,\"tor_exit_nodes\":0,\"vpn\":14,\"relay\":0,\"proxy\":0,\"hosting\":18,\"service\":1}"},"geometry":{"type":"Point","coordinates":[-0.1969,5.55602]}},{"type":"Feature","properties":{"country_code":"SAU","city":"Jeddah","geoname_id":"105343","downloaders":"{\"size\":12716,\"mobile\":3469,\"satellite\":0,\"tor\":0,\"tor_exit_nodes\":0,\"vpn\":29,\"relay\":0,\"proxy\":0,\"hosting\":322,\"service\":0}","uploaders":"{\"size\":1351,\"mobile\":654,\"satellite\":0,\"tor\":0,\"tor_exit_nodes\":0,\"vpn\":1,\"relay\":0,\"proxy\":0,\"hosting\":1,\"service\":0}"},"geometry":{"type":"Point","coordinates":[39.18624,21.49012]}},{"type":"Feature","properties":{"country_code":"KOR","city":"Ansan-si","geoname_id":"1846918","downloaders":"{\"size\":12711,\"mobile\":3,\"satellite\":0,\"tor\":0,\"tor_exit_nodes\":0,\"vpn\":172,\"relay\":0,\"proxy\":0,\"hosting\":0,\"service\":5}","uploaders":"{\"size\":48,\"mobile\":0,\"satellite\":0,\"tor\":0,\"tor_exit_nodes\":0,\"vpn\":0,\"relay\":0,\"proxy\":0,\"hosting\":0,\"service\":0}"},"geometry":{"type":"Point","coordinates":[126.82194,37.32361]}},{"type":"Feature","properties":{"country_code":"RUS","city":"Ryazan’","geoname_id":"500096","downloaders":"{\"size\":12703,\"mobile\":324,\"satellite\":0,\"tor\":0,\"tor_exit_nodes\":8,\"vpn\":261,\"relay\":0,\"proxy\":0,\"hosting\":31,\"service\":56}","uploaders":"{\"size\":337,\"mobile\":17,\"satellite\":0,\"tor\":0,\"tor_exit_nodes\":1,\"vpn\":12,\"relay\":0,\"proxy\":0,\"hosting\":1,\"service\":0}"},"geometry":{"type":"Point","coordinates":[39.6916,54.6269]}},{"type":"Feature","properties":{"country_code":"TUR","city":"Gaziantep","geoname_id":"314830","downloaders":"{\"size\":12528,\"mobile\":815,\"satellite\":0,\"tor\":0,\"tor_exit_nodes\":0,\"vpn\":2,\"relay\":0,\"proxy\":0,\"hosting\":0,\"service\":0}","uploaders":"{\"size\":20,\"mobile\":1,\"satellite\":0,\"tor\":0,\"tor_exit_nodes\":0,\"vpn\":1,\"relay\":0,\"proxy\":0,\"hosting\":0,\"service\":0}"},"geometry":{"type":"Point","coordinates":[37.3825,37.05944]}},{"type":"Feature","properties":{"country_code":"USA","city":"Phoenix","geoname_id":"5308655","downloaders":"{\"size\":12489,\"mobile\":66,\"satellite\":31,\"tor\":0,\"tor_exit_nodes\":2,\"vpn\":1058,\"relay\":0,\"proxy\":0,\"hosting\":6848,\"service\":979}","uploaders":"{\"size\":424,\"mobile\":2,\"satellite\":13,\"tor\":0,\"tor_exit_nodes\":0,\"vpn\":147,\"relay\":0,\"proxy\":0,\"hosting\":337,\"service\":141}"},"geometry":{"type":"Point","coordinates":[-112.07404,33.44838]}},{"type":"Feature","properties":{"country_code":"BRA","city":"Belo Horizonte","geoname_id":"3470127","downloaders":"{\"size\":12389,\"mobile\":433,\"satellite\":0,\"tor\":0,\"tor_exit_nodes\":0,\"vpn\":11,\"relay\":0,\"proxy\":0,\"hosting\":53,\"service\":0}","uploaders":"{\"size\":334,\"mobile\":50,\"satellite\":0,\"tor\":0,\"tor_exit_nodes\":0,\"vpn\":1,\"relay\":0,\"proxy\":0,\"hosting\":0,\"service\":0}"},"geometry":{"type":"Point","coordinates":[-43.93778,-19.92083]}},{"type":"Feature","properties":{"country_code":"RUS","city":"Vladivostok","geoname_id":"2013348","downloaders":"{\"size\":12241,\"mobile\":252,\"satellite\":1,\"tor\":0,\"tor_exit_nodes\":0,\"vpn\":1995,\"relay\":0,\"proxy\":0,\"hosting\":85,\"service\":1102}","uploaders":"{\"size\":612,\"mobile\":27,\"satellite\":0,\"tor\":0,\"tor_exit_nodes\":0,\"vpn\":91,\"relay\":0,\"proxy\":0,\"hosting\":0,\"service\":55}"},"geometry":{"type":"Point","coordinates":[131.87353,43.10562]}},{"type":"Feature","properties":{"country_code":"MEX","city":"Ciudad General Escobedo","geoname_id":"4005867","downloaders":"{\"size\":12203,\"mobile\":2,\"satellite\":0,\"tor\":0,\"tor_exit_nodes\":0,\"vpn\":18,\"relay\":0,\"proxy\":0,\"hosting\":0,\"service\":3}","uploaders":"{\"size\":22,\"mobile\":0,\"satellite\":0,\"tor\":0,\"tor_exit_nodes\":0,\"vpn\":0,\"relay\":0,\"proxy\":0,\"hosting\":0,\"service\":0}"},"geometry":{"type":"Point","coordinates":[-100.31791,25.79698]}},{"type":"Feature","properties":{"country_code":"USA","city":"Chicago","geoname_id":"4887398","downloaders":"{\"size\":12142,\"mobile\":245,\"satellite\":49,\"tor\":1,\"tor_exit_nodes\":7,\"vpn\":4675,\"relay\":3,\"proxy\":0,\"hosting\":5865,\"service\":4272}","uploaders":"{\"size\":734,\"mobile\":17,\"satellite\":1,\"tor\":0,\"tor_exit_nodes\":0,\"vpn\":510,\"relay\":0,\"proxy\":0,\"hosting\":620,\"service\":479}"},"geometry":{"type":"Point","coordinates":[-87.65005,41.85003]}},{"type":"Feature","properties":{"country_code":"POL","city":"Gdańsk","geoname_id":"3099434","downloaders":"{\"size\":12096,\"mobile\":104,\"satellite\":0,\"tor\":0,\"tor_exit_nodes\":0,\"vpn\":42,\"relay\":0,\"proxy\":0,\"hosting\":138,\"service\":22}","uploaders":"{\"size\":334,\"mobile\":2,\"satellite\":0,\"tor\":0,\"tor_exit_nodes\":0,\"vpn\":3,\"relay\":0,\"proxy\":0,\"hosting\":15,\"service\":0}"},"geometry":{"type":"Point","coordinates":[18.64912,54.35227]}},{"type":"Feature","properties":{"country_code":"RUS","city":"Novokuznetsk","geoname_id":"1496990","downloaders":"{\"size\":11991,\"mobile\":20,\"satellite\":0,\"tor\":0,\"tor_exit_nodes\":0,\"vpn\":19,\"relay\":0,\"proxy\":0,\"hosting\":7,\"service\":0}","uploaders":"{\"size\":155,\"mobile\":0,\"satellite\":0,\"tor\":0,\"tor_exit_nodes\":0,\"vpn\":0,\"relay\":0,\"proxy\":0,\"hosting\":0,\"service\":0}"},"geometry":{"type":"Point","coordinates":[87.13599,53.75752]}},{"type":"Feature","properties":{"country_code":"RUS","city":"Ivanovo","geoname_id":"555312","downloaders":"{\"size\":11790,\"mobile\":611,\"satellite\":0,\"tor\":0,\"tor_exit_nodes\":0,\"vpn\":206,\"relay\":0,\"proxy\":0,\"hosting\":0,\"service\":37}","uploaders":"{\"size\":176,\"mobile\":30,\"satellite\":0,\"tor\":0,\"tor_exit_nodes\":0,\"vpn\":1,\"relay\":0,\"proxy\":0,\"hosting\":0,\"service\":0}"},"geometry":{"type":"Point","coordinates":[40.97139,56.99719]}},{"type":"Feature","properties":{"country_code":"FRA","city":"Lyon","geoname_id":"2996944","downloaders":"{\"size\":11761,\"mobile\":3866,\"satellite\":0,\"tor\":0,\"tor_exit_nodes\":0,\"vpn\":21,\"relay\":0,\"proxy\":0,\"hosting\":73,\"service\":3}","uploaders":"{\"size\":1018,\"mobile\":708,\"satellite\":0,\"tor\":0,\"tor_exit_nodes\":0,\"vpn\":9,\"relay\":0,\"proxy\":0,\"hosting\":11,\"service\":2}"},"geometry":{"type":"Point","coordinates":[4.84671,45.74846]}},{"type":"Feature","properties":{"country_code":"URY","city":"Montevideo","geoname_id":"3441575","downloaders":"{\"size\":11656,\"mobile\":191,\"satellite\":0,\"tor\":0,\"tor_exit_nodes\":0,\"vpn\":68,\"relay\":0,\"proxy\":0,\"hosting\":43,\"service\":0}","uploaders":"{\"size\":1601,\"mobile\":66,\"satellite\":0,\"tor\":0,\"tor_exit_nodes\":0,\"vpn\":16,\"relay\":0,\"proxy\":0,\"hosting\":3,\"service\":0}"},"geometry":{"type":"Point","coordinates":[-56.1079,-34.88388]}},{"type":"Feature","properties":{"country_code":"PRY","city":"Asunción","geoname_id":"3439389","downloaders":"{\"size\":11633,\"mobile\":5035,\"satellite\":0,\"tor\":0,\"tor_exit_nodes\":0,\"vpn\":6,\"relay\":0,\"proxy\":0,\"hosting\":34,\"service\":0}","uploaders":"{\"size\":179,\"mobile\":48,\"satellite\":0,\"tor\":0,\"tor_exit_nodes\":0,\"vpn\":0,\"relay\":0,\"proxy\":0,\"hosting\":7,\"service\":0}"},"geometry":{"type":"Point","coordinates":[-57.647,-25.28646]}},{"type":"Feature","properties":{"country_code":"RUS","city":"Korolev","geoname_id":"554233","downloaders":"{\"size\":11581,\"mobile\":3,\"satellite\":0,\"tor\":0,\"tor_exit_nodes\":0,\"vpn\":351,\"relay\":0,\"proxy\":0,\"hosting\":424,\"service\":1}","uploaders":"{\"size\":169,\"mobile\":3,\"satellite\":0,\"tor\":0,\"tor_exit_nodes\":0,\"vpn\":1,\"relay\":0,\"proxy\":0,\"hosting\":0,\"service\":0}"},"geometry":{"type":"Point","coordinates":[37.82556,55.91417]}},{"type":"Feature","properties":{"country_code":"RUS","city":"Lyubertsy","geoname_id":"532615","downloaders":"{\"size\":11539,\"mobile\":70,\"satellite\":0,\"tor\":0,\"tor_exit_nodes\":0,\"vpn\":247,\"relay\":0,\"proxy\":0,\"hosting\":1169,\"service\":30}","uploaders":"{\"size\":670,\"mobile\":12,\"satellite\":0,\"tor\":0,\"tor_exit_nodes\":0,\"vpn\":5,\"relay\":0,\"proxy\":0,\"hosting\":6,\"service\":0}"},"geometry":{"type":"Point","coordinates":[37.89322,55.67719]}},{"type":"Feature","properties":{"country_code":"RUS","city":"Stavropol’","geoname_id":"487846","downloaders":"{\"size\":11468,\"mobile\":4893,\"satellite\":0,\"tor\":0,\"tor_exit_nodes\":0,\"vpn\":121,\"relay\":0,\"proxy\":0,\"hosting\":0,\"service\":32}","uploaders":"{\"size\":712,\"mobile\":345,\"satellite\":0,\"tor\":0,\"tor_exit_nodes\":0,\"vpn\":3,\"relay\":0,\"proxy\":0,\"hosting\":0,\"service\":0}"},"geometry":{"type":"Point","coordinates":[41.9734,45.0428]}},{"type":"Feature","properties":{"country_code":"RUS","city":"Odintsovo","geoname_id":"516215","downloaders":"{\"size\":11402,\"mobile\":3,\"satellite\":0,\"tor\":0,\"tor_exit_nodes\":0,\"vpn\":334,\"relay\":0,\"proxy\":0,\"hosting\":80,\"service\":0}","uploaders":"{\"size\":234,\"mobile\":0,\"satellite\":0,\"tor\":0,\"tor_exit_nodes\":0,\"vpn\":1,\"relay\":0,\"proxy\":0,\"hosting\":6,\"service\":0}"},"geometry":{"type":"Point","coordinates":[37.27716,55.66977]}},{"type":"Feature","properties":{"country_code":"EST","city":"Tallinn","geoname_id":"588409","downloaders":"{\"size\":11343,\"mobile\":556,\"satellite\":0,\"tor\":1,\"tor_exit_nodes\":0,\"vpn\":621,\"relay\":0,\"proxy\":0,\"hosting\":1024,\"service\":525}","uploaders":"{\"size\":802,\"mobile\":85,\"satellite\":0,\"tor\":0,\"tor_exit_nodes\":0,\"vpn\":67,\"relay\":0,\"proxy\":0,\"hosting\":126,\"service\":58}"},"geometry":{"type":"Point","coordinates":[24.75353,59.43696]}},{"type":"Feature","properties":{"country_code":"UKR","city":"Odesa","geoname_id":"698740","downloaders":"{\"size\":11325,\"mobile\":16,\"satellite\":0,\"tor\":0,\"tor_exit_nodes\":0,\"vpn\":92,\"relay\":0,\"proxy\":0,\"hosting\":54,\"service\":3}","uploaders":"{\"size\":710,\"mobile\":0,\"satellite\":0,\"tor\":0,\"tor_exit_nodes\":0,\"vpn\":4,\"relay\":0,\"proxy\":0,\"hosting\":13,\"service\":1}"},"geometry":{"type":"Point","coordinates":[30.74383,46.48572]}},{"type":"Feature","properties":{"country_code":"RUS","city":"Vladimir","geoname_id":"473247","downloaders":"{\"size\":11253,\"mobile\":271,\"satellite\":0,\"tor\":0,\"tor_exit_nodes\":0,\"vpn\":76,\"relay\":0,\"proxy\":0,\"hosting\":0,\"service\":0}","uploaders":"{\"size\":343,\"mobile\":13,\"satellite\":0,\"tor\":0,\"tor_exit_nodes\":0,\"vpn\":1,\"relay\":0,\"proxy\":0,\"hosting\":0,\"service\":0}"},"geometry":{"type":"Point","coordinates":[40.39658,56.13655]}},{"type":"Feature","properties":{"country_code":"DEU","city":"Hamburg","geoname_id":"2911298","downloaders":"{\"size\":11145,\"mobile\":5529,\"satellite\":0,\"tor\":0,\"tor_exit_nodes\":4,\"vpn\":15,\"relay\":2,\"proxy\":0,\"hosting\":7,\"service\":2}","uploaders":"{\"size\":26,\"mobile\":5,\"satellite\":0,\"tor\":0,\"tor_exit_nodes\":0,\"vpn\":0,\"relay\":0,\"proxy\":0,\"hosting\":0,\"service\":0}"},"geometry":{"type":"Point","coordinates":[9.99302,53.55073]}},{"type":"Feature","properties":{"country_code":"RUS","city":"Kaluga","geoname_id":"553915","downloaders":"{\"size\":11130,\"mobile\":25,\"satellite\":0,\"tor\":0,\"tor_exit_nodes\":0,\"vpn\":88,\"relay\":0,\"proxy\":0,\"hosting\":11,\"service\":0}","uploaders":"{\"size\":521,\"mobile\":2,\"satellite\":0,\"tor\":0,\"tor_exit_nodes\":0,\"vpn\":8,\"relay\":0,\"proxy\":0,\"hosting\":0,\"service\":0}"},"geometry":{"type":"Point","coordinates":[36.27542,54.5293]}},{"type":"Feature","properties":{"country_code":"BRA","city":"Campinas","geoname_id":"3467865","downloaders":"{\"size\":11096,\"mobile\":1583,\"satellite\":0,\"tor\":0,\"tor_exit_nodes\":0,\"vpn\":40,\"relay\":0,\"proxy\":0,\"hosting\":19,\"service\":8}","uploaders":"{\"size\":343,\"mobile\":78,\"satellite\":0,\"tor\":0,\"tor_exit_nodes\":0,\"vpn\":0,\"relay\":0,\"proxy\":0,\"hosting\":5,\"service\":0}"},"geometry":{"type":"Point","coordinates":[-47.06083,-22.90556]}},{"type":"Feature","properties":{"country_code":"RUS","city":"Naberezhnyye Chelny","geoname_id":"523750","downloaders":"{\"size\":10949,\"mobile\":1020,\"satellite\":0,\"tor\":0,\"tor_exit_nodes\":0,\"vpn\":86,\"relay\":0,\"proxy\":0,\"hosting\":2,\"service\":0}","uploaders":"{\"size\":352,\"mobile\":118,\"satellite\":0,\"tor\":0,\"tor_exit_nodes\":0,\"vpn\":7,\"relay\":0,\"proxy\":0,\"hosting\":0,\"service\":0}"},"geometry":{"type":"Point","coordinates":[52.41122,55.72545]}},{"type":"Feature","properties":{"country_code":"USA","city":"Atlanta","geoname_id":"4180439","downloaders":"{\"size\":10937,\"mobile\":146,\"satellite\":18,\"tor\":0,\"tor_exit_nodes\":1,\"vpn\":3392,\"relay\":0,\"proxy\":0,\"hosting\":4399,\"service\":3231}","uploaders":"{\"size\":612,\"mobile\":23,\"satellite\":4,\"tor\":0,\"tor_exit_nodes\":0,\"vpn\":437,\"relay\":0,\"proxy\":0,\"hosting\":525,\"service\":422}"},"geometry":{"type":"Point","coordinates":[-84.38798,33.749]}},{"type":"Feature","properties":{"country_code":"RUS","city":"Noginsk","geoname_id":"520068","downloaders":"{\"size\":10887,\"mobile\":16,\"satellite\":0,\"tor\":0,\"tor_exit_nodes\":0,\"vpn\":413,\"relay\":0,\"proxy\":0,\"hosting\":5,\"service\":193}","uploaders":"{\"size\":258,\"mobile\":0,\"satellite\":0,\"tor\":0,\"tor_exit_nodes\":0,\"vpn\":19,\"relay\":0,\"proxy\":0,\"hosting\":0,\"service\":8}"},"geometry":{"type":"Point","coordinates":[38.44853,55.86486]}},{"type":"Feature","properties":{"country_code":"UKR","city":"Dnipro","geoname_id":"709930","downloaders":"{\"size\":10835,\"mobile\":1265,\"satellite\":0,\"tor\":0,\"tor_exit_nodes\":0,\"vpn\":72,\"relay\":0,\"proxy\":0,\"hosting\":1622,\"service\":5}","uploaders":"{\"size\":672,\"mobile\":116,\"satellite\":0,\"tor\":0,\"tor_exit_nodes\":0,\"vpn\":10,\"relay\":0,\"proxy\":0,\"hosting\":79,\"service\":0}"},"geometry":{"type":"Point","coordinates":[35.04066,48.46664]}},{"type":"Feature","properties":{"country_code":"RUS","city":"Murmansk","geoname_id":"524305","downloaders":"{\"size\":10808,\"mobile\":450,\"satellite\":0,\"tor\":0,\"tor_exit_nodes\":0,\"vpn\":47,\"relay\":0,\"proxy\":0,\"hosting\":0,\"service\":7}","uploaders":"{\"size\":219,\"mobile\":26,\"satellite\":0,\"tor\":0,\"tor_exit_nodes\":0,\"vpn\":0,\"relay\":0,\"proxy\":0,\"hosting\":0,\"service\":0}"},"geometry":{"type":"Point","coordinates":[33.09747,68.97398]}},{"type":"Feature","properties":{"country_code":"LTU","city":"Kaunas","geoname_id":"598316","downloaders":"{\"size\":10738,\"mobile\":474,\"satellite\":0,\"tor\":0,\"tor_exit_nodes\":0,\"vpn\":44,\"relay\":0,\"proxy\":0,\"hosting\":222,\"service\":0}","uploaders":"{\"size\":337,\"mobile\":29,\"satellite\":0,\"tor\":0,\"tor_exit_nodes\":0,\"vpn\":0,\"relay\":0,\"proxy\":0,\"hosting\":1,\"service\":0}"},"geometry":{"type":"Point","coordinates":[23.90961,54.90272]}},{"type":"Feature","properties":{"country_code":"MEX","city":"Ciudad Juárez","geoname_id":"4013708","downloaders":"{\"size\":10606,\"mobile\":1,\"satellite\":0,\"tor\":0,\"tor_exit_nodes\":0,\"vpn\":25,\"relay\":0,\"proxy\":0,\"hosting\":0,\"service\":21}","uploaders":"{\"size\":24,\"mobile\":0,\"satellite\":0,\"tor\":0,\"tor_exit_nodes\":0,\"vpn\":3,\"relay\":0,\"proxy\":0,\"hosting\":0,\"service\":3}"},"geometry":{"type":"Point","coordinates":[-106.46084,31.72024]}},{"type":"Feature","properties":{"country_code":"KOR","city":"Cheongju-si","geoname_id":"1845604","downloaders":"{\"size\":10590,\"mobile\":0,\"satellite\":0,\"tor\":0,\"tor_exit_nodes\":0,\"vpn\":54,\"relay\":0,\"proxy\":0,\"hosting\":1,\"service\":6}","uploaders":"{\"size\":64,\"mobile\":0,\"satellite\":0,\"tor\":0,\"tor_exit_nodes\":0,\"vpn\":0,\"relay\":0,\"proxy\":0,\"hosting\":0,\"service\":0}"},"geometry":{"type":"Point","coordinates":[127.48972,36.63722]}},{"type":"Feature","properties":{"country_code":"KOR","city":"Haegok","geoname_id":"6398843","downloaders":"{\"size\":10237,\"mobile\":2,\"satellite\":0,\"tor\":0,\"tor_exit_nodes\":0,\"vpn\":63,\"relay\":0,\"proxy\":0,\"hosting\":0,\"service\":3}","uploaders":"{\"size\":45,\"mobile\":0,\"satellite\":0,\"tor\":0,\"tor_exit_nodes\":0,\"vpn\":1,\"relay\":0,\"proxy\":0,\"hosting\":0,\"service\":0}"},"geometry":{"type":"Point","coordinates":[127.27880999999999,37.19251]}},{"type":"Feature","properties":{"country_code":"SVK","city":"Bratislava","geoname_id":"3060972","downloaders":"{\"size\":10182,\"mobile\":100,\"satellite\":0,\"tor\":0,\"tor_exit_nodes\":0,\"vpn\":678,\"relay\":0,\"proxy\":0,\"hosting\":1007,\"service\":548}","uploaders":"{\"size\":527,\"mobile\":1,\"satellite\":0,\"tor\":0,\"tor_exit_nodes\":0,\"vpn\":127,\"relay\":0,\"proxy\":0,\"hosting\":147,\"service\":121}"},"geometry":{"type":"Point","coordinates":[17.10674,48.14816]}},{"type":"Feature","properties":{"country_code":"TZA","city":"Dar es Salaam","geoname_id":"160263","downloaders":"{\"size\":10179,\"mobile\":5265,\"satellite\":1,\"tor\":0,\"tor_exit_nodes\":0,\"vpn\":150,\"relay\":1,\"proxy\":0,\"hosting\":135,\"service\":9}","uploaders":"{\"size\":3012,\"mobile\":1301,\"satellite\":1,\"tor\":0,\"tor_exit_nodes\":0,\"vpn\":74,\"relay\":0,\"proxy\":0,\"hosting\":48,\"service\":5}"},"geometry":{"type":"Point","coordinates":[39.26951,-6.82349]}},{"type":"Feature","properties":{"country_code":"USA","city":"Fort Lauderdale","geoname_id":"4155966","downloaders":"{\"size\":10122,\"mobile\":0,\"satellite\":0,\"tor\":0,\"tor_exit_nodes\":0,\"vpn\":2,\"relay\":0,\"proxy\":0,\"hosting\":17,\"service\":0}","uploaders":"{\"size\":117,\"mobile\":0,\"satellite\":0,\"tor\":0,\"tor_exit_nodes\":0,\"vpn\":0,\"relay\":0,\"proxy\":0,\"hosting\":0,\"service\":0}"},"geometry":{"type":"Point","coordinates":[-80.14338,26.12231]}},{"type":"Feature","properties":{"country_code":"KOR","city":"Bucheon-si","geoname_id":"1838716","downloaders":"{\"size\":10114,\"mobile\":1,\"satellite\":0,\"tor\":0,\"tor_exit_nodes\":0,\"vpn\":183,\"relay\":0,\"proxy\":0,\"hosting\":0,\"service\":7}","uploaders":"{\"size\":45,\"mobile\":0,\"satellite\":0,\"tor\":0,\"tor_exit_nodes\":0,\"vpn\":0,\"relay\":0,\"proxy\":0,\"hosting\":0,\"service\":0}"},"geometry":{"type":"Point","coordinates":[126.78306,37.49889]}},{"type":"Feature","properties":{"country_code":"KOR","city":"Anyang-si","geoname_id":"1846898","downloaders":"{\"size\":10090,\"mobile\":1,\"satellite\":0,\"tor\":0,\"tor_exit_nodes\":0,\"vpn\":106,\"relay\":0,\"proxy\":0,\"hosting\":0,\"service\":28}","uploaders":"{\"size\":43,\"mobile\":0,\"satellite\":0,\"tor\":0,\"tor_exit_nodes\":0,\"vpn\":0,\"relay\":0,\"proxy\":0,\"hosting\":0,\"service\":0}"},"geometry":{"type":"Point","coordinates":[126.92694,37.3925]}},{"type":"Feature","properties":{"country_code":"TUR","city":"Konya","geoname_id":"306571","downloaders":"{\"size\":9928,\"mobile\":2756,\"satellite\":0,\"tor\":0,\"tor_exit_nodes\":0,\"vpn\":2,\"relay\":0,\"proxy\":0,\"hosting\":0,\"service\":0}","uploaders":"{\"size\":42,\"mobile\":18,\"satellite\":0,\"tor\":0,\"tor_exit_nodes\":0,\"vpn\":0,\"relay\":0,\"proxy\":0,\"hosting\":0,\"service\":0}"},"geometry":{"type":"Point","coordinates":[32.48464,37.87135]}},{"type":"Feature","properties":{"country_code":"NLD","city":"Haarlem","geoname_id":"2755003","downloaders":"{\"size\":9895,\"mobile\":0,\"satellite\":0,\"tor\":0,\"tor_exit_nodes\":1,\"vpn\":4664,\"relay\":1,\"proxy\":0,\"hosting\":9330,\"service\":1058}","uploaders":"{\"size\":350,\"mobile\":0,\"satellite\":0,\"tor\":0,\"tor_exit_nodes\":0,\"vpn\":128,\"relay\":0,\"proxy\":0,\"hosting\":320,\"service\":125}"},"geometry":{"type":"Point","coordinates":[4.63683,52.38084]}},{"type":"Feature","properties":{"country_code":"BRA","city":"Brasília","geoname_id":"3469058","downloaders":"{\"size\":9813,\"mobile\":299,\"satellite\":0,\"tor\":0,\"tor_exit_nodes\":0,\"vpn\":14,\"relay\":0,\"proxy\":0,\"hosting\":92,\"service\":0}","uploaders":"{\"size\":290,\"mobile\":17,\"satellite\":0,\"tor\":0,\"tor_exit_nodes\":0,\"vpn\":4,\"relay\":0,\"proxy\":0,\"hosting\":3,\"service\":0}"},"geometry":{"type":"Point","coordinates":[-47.92972,-15.77972]}},{"type":"Feature","properties":{"country_code":"MEX","city":"Zapopan","geoname_id":"3979770","downloaders":"{\"size\":9792,\"mobile\":27,\"satellite\":0,\"tor\":0,\"tor_exit_nodes\":0,\"vpn\":2,\"relay\":0,\"proxy\":0,\"hosting\":0,\"service\":0}","uploaders":"{\"size\":57,\"mobile\":1,\"satellite\":0,\"tor\":0,\"tor_exit_nodes\":0,\"vpn\":0,\"relay\":0,\"proxy\":0,\"hosting\":0,\"service\":0}"},"geometry":{"type":"Point","coordinates":[-103.38742,20.72111]}},{"type":"Feature","properties":{"country_code":"TWN","city":"Taipei","geoname_id":"1668341","downloaders":"{\"size\":9738,\"mobile\":618,\"satellite\":0,\"tor\":0,\"tor_exit_nodes\":0,\"vpn\":457,\"relay\":10,\"proxy\":0,\"hosting\":425,\"service\":166}","uploaders":"{\"size\":710,\"mobile\":73,\"satellite\":0,\"tor\":0,\"tor_exit_nodes\":0,\"vpn\":28,\"relay\":0,\"proxy\":0,\"hosting\":134,\"service\":19}"},"geometry":{"type":"Point","coordinates":[121.52639,25.05306]}},{"type":"Feature","properties":{"country_code":"ESP","city":"Zaragoza","geoname_id":"3104324","downloaders":"{\"size\":9676,\"mobile\":2999,\"satellite\":0,\"tor\":0,\"tor_exit_nodes\":0,\"vpn\":25,\"relay\":0,\"proxy\":0,\"hosting\":23,\"service\":0}","uploaders":"{\"size\":2489,\"mobile\":720,\"satellite\":0,\"tor\":0,\"tor_exit_nodes\":0,\"vpn\":16,\"relay\":0,\"proxy\":0,\"hosting\":5,\"service\":0}"},"geometry":{"type":"Point","coordinates":[-0.87734,41.65606]}},{"type":"Feature","properties":{"country_code":"MEX","city":"Tijuana","geoname_id":"3981609","downloaders":"{\"size\":9623,\"mobile\":14,\"satellite\":0,\"tor\":0,\"tor_exit_nodes\":0,\"vpn\":18,\"relay\":0,\"proxy\":0,\"hosting\":0,\"service\":5}","uploaders":"{\"size\":46,\"mobile\":1,\"satellite\":0,\"tor\":0,\"tor_exit_nodes\":0,\"vpn\":0,\"relay\":0,\"proxy\":0,\"hosting\":0,\"service\":0}"},"geometry":{"type":"Point","coordinates":[-117.00371,32.5027]}},{"type":"Feature","properties":{"country_code":"RUS","city":"Podolsk","geoname_id":"508101","downloaders":"{\"size\":9498,\"mobile\":69,\"satellite\":0,\"tor\":0,\"tor_exit_nodes\":0,\"vpn\":293,\"relay\":0,\"proxy\":0,\"hosting\":102,\"service\":0}","uploaders":"{\"size\":143,\"mobile\":5,\"satellite\":0,\"tor\":0,\"tor_exit_nodes\":0,\"vpn\":3,\"relay\":0,\"proxy\":0,\"hosting\":0,\"service\":0}"},"geometry":{"type":"Point","coordinates":[37.55472,55.42419]}},{"type":"Feature","properties":{"country_code":"USA","city":"Houston","geoname_id":"4699066","downloaders":"{\"size\":9464,\"mobile\":44,\"satellite\":0,\"tor\":0,\"tor_exit_nodes\":0,\"vpn\":635,\"relay\":7,\"proxy\":0,\"hosting\":815,\"service\":591}","uploaders":"{\"size\":238,\"mobile\":7,\"satellite\":0,\"tor\":0,\"tor_exit_nodes\":0,\"vpn\":82,\"relay\":2,\"proxy\":0,\"hosting\":118,\"service\":83}"},"geometry":{"type":"Point","coordinates":[-95.6481,29.8941]}},{"type":"Feature","properties":{"country_code":"BRA","city":"Curitiba","geoname_id":"3464975","downloaders":"{\"size\":9447,\"mobile\":423,\"satellite\":0,\"tor\":0,\"tor_exit_nodes\":0,\"vpn\":22,\"relay\":0,\"proxy\":0,\"hosting\":604,\"service\":3}","uploaders":"{\"size\":391,\"mobile\":69,\"satellite\":0,\"tor\":0,\"tor_exit_nodes\":0,\"vpn\":1,\"relay\":0,\"proxy\":0,\"hosting\":122,\"service\":0}"},"geometry":{"type":"Point","coordinates":[-49.27306,-25.42778]}},{"type":"Feature","properties":{"country_code":"TUR","city":"Adana","geoname_id":"325363","downloaders":"{\"size\":9445,\"mobile\":1005,\"satellite\":0,\"tor\":0,\"tor_exit_nodes\":0,\"vpn\":0,\"relay\":0,\"proxy\":0,\"hosting\":0,\"service\":0}","uploaders":"{\"size\":29,\"mobile\":7,\"satellite\":0,\"tor\":0,\"tor_exit_nodes\":0,\"vpn\":0,\"relay\":0,\"proxy\":0,\"hosting\":0,\"service\":0}"},"geometry":{"type":"Point","coordinates":[35.32531,36.98615]}},{"type":"Feature","properties":{"country_code":"GTM","city":"Guatemala City","geoname_id":"3598132","downloaders":"{\"size\":9441,\"mobile\":6955,\"satellite\":14,\"tor\":0,\"tor_exit_nodes\":0,\"vpn\":40,\"relay\":1,\"proxy\":0,\"hosting\":116,\"service\":21}","uploaders":"{\"size\":131,\"mobile\":89,\"satellite\":6,\"tor\":0,\"tor_exit_nodes\":0,\"vpn\":3,\"relay\":0,\"proxy\":0,\"hosting\":22,\"service\":3}"},"geometry":{"type":"Point","coordinates":[-90.51327,14.64072]}},{"type":"Feature","properties":{"country_code":"BRA","city":"Fortaleza","geoname_id":"3399415","downloaders":"{\"size\":9432,\"mobile\":217,\"satellite\":29,\"tor\":0,\"tor_exit_nodes\":0,\"vpn\":65,\"relay\":0,\"proxy\":0,\"hosting\":46,\"service\":0}","uploaders":"{\"size\":222,\"mobile\":28,\"satellite\":8,\"tor\":0,\"tor_exit_nodes\":0,\"vpn\":4,\"relay\":0,\"proxy\":0,\"hosting\":4,\"service\":0}"},"geometry":{"type":"Point","coordinates":[-38.54306,-3.71722]}},{"type":"Feature","properties":{"country_code":"JAM","city":"Kingston","geoname_id":"3489854","downloaders":"{\"size\":9430,\"mobile\":3753,\"satellite\":0,\"tor\":0,\"tor_exit_nodes\":0,\"vpn\":10,\"relay\":0,\"proxy\":0,\"hosting\":629,\"service\":0}","uploaders":"{\"size\":331,\"mobile\":130,\"satellite\":0,\"tor\":0,\"tor_exit_nodes\":0,\"vpn\":0,\"relay\":0,\"proxy\":0,\"hosting\":18,\"service\":0}"},"geometry":{"type":"Point","coordinates":[-76.79358,17.99702]}},{"type":"Feature","properties":{"country_code":"ETH","city":"Addis Ababa","geoname_id":"344979","downloaders":"{\"size\":9278,\"mobile\":4377,\"satellite\":0,\"tor\":0,\"tor_exit_nodes\":0,\"vpn\":13,\"relay\":0,\"proxy\":0,\"hosting\":23,\"service\":0}","uploaders":"{\"size\":2601,\"mobile\":1078,\"satellite\":0,\"tor\":0,\"tor_exit_nodes\":0,\"vpn\":3,\"relay\":0,\"proxy\":0,\"hosting\":16,\"service\":0}"},"geometry":{"type":"Point","coordinates":[38.74689,9.02497]}},{"type":"Feature","properties":{"country_code":"USA","city":"Miami","geoname_id":"4164138","downloaders":"{\"size\":9233,\"mobile\":177,\"satellite\":40,\"tor\":0,\"tor_exit_nodes\":7,\"vpn\":5284,\"relay\":0,\"proxy\":0,\"hosting\":7185,\"service\":5241}","uploaders":"{\"size\":871,\"mobile\":37,\"satellite\":9,\"tor\":0,\"tor_exit_nodes\":3,\"vpn\":661,\"relay\":0,\"proxy\":0,\"hosting\":745,\"service\":656}"},"geometry":{"type":"Point","coordinates":[-80.18,25.7867]}},{"type":"Feature","properties":{"country_code":"MEX","city":"Puebla","geoname_id":"3521081","downloaders":"{\"size\":9151,\"mobile\":37,\"satellite\":0,\"tor\":0,\"tor_exit_nodes\":0,\"vpn\":14,\"relay\":0,\"proxy\":0,\"hosting\":0,\"service\":3}","uploaders":"{\"size\":73,\"mobile\":9,\"satellite\":0,\"tor\":0,\"tor_exit_nodes\":0,\"vpn\":0,\"relay\":0,\"proxy\":0,\"hosting\":0,\"service\":0}"},"geometry":{"type":"Point","coordinates":[-98.20723,19.04778]}},{"type":"Feature","properties":{"country_code":"NOR","city":"Oslo","geoname_id":"3143244","downloaders":"{\"size\":8971,\"mobile\":628,\"satellite\":0,\"tor\":3,\"tor_exit_nodes\":41,\"vpn\":1910,\"relay\":6,\"proxy\":0,\"hosting\":1655,\"service\":1838}","uploaders":"{\"size\":635,\"mobile\":63,\"satellite\":0,\"tor\":0,\"tor_exit_nodes\":0,\"vpn\":281,\"relay\":0,\"proxy\":0,\"hosting\":248,\"service\":280}"},"geometry":{"type":"Point","coordinates":[10.74609,59.91273]}},{"type":"Feature","properties":{"country_code":"THA","city":"Bangkok","geoname_id":"1609350","downloaders":"{\"size\":8954,\"mobile\":2239,\"satellite\":0,\"tor\":0,\"tor_exit_nodes\":0,\"vpn\":198,\"relay\":0,\"proxy\":0,\"hosting\":1308,\"service\":131}","uploaders":"{\"size\":594,\"mobile\":147,\"satellite\":0,\"tor\":0,\"tor_exit_nodes\":0,\"vpn\":21,\"relay\":0,\"proxy\":0,\"hosting\":65,\"service\":18}"},"geometry":{"type":"Point","coordinates":[100.50144,13.75398]}},{"type":"Feature","properties":{"country_code":"PER","city":"San Isidro","geoname_id":"3929631","downloaders":"{\"size\":8937,\"mobile\":1,\"satellite\":0,\"tor\":0,\"tor_exit_nodes\":0,\"vpn\":27,\"relay\":0,\"proxy\":0,\"hosting\":0,\"service\":27}","uploaders":"{\"size\":84,\"mobile\":0,\"satellite\":0,\"tor\":0,\"tor_exit_nodes\":0,\"vpn\":0,\"relay\":0,\"proxy\":0,\"hosting\":0,\"service\":0}"},"geometry":{"type":"Point","coordinates":[-77.037,-12.1067]}},{"type":"Feature","properties":{"country_code":"DEU","city":"Nürnberg","geoname_id":"2861650","downloaders":"{\"size\":8928,\"mobile\":746,\"satellite\":0,\"tor\":87,\"tor_exit_nodes\":91,\"vpn\":165,\"relay\":0,\"proxy\":0,\"hosting\":7527,\"service\":51}","uploaders":"{\"size\":1127,\"mobile\":0,\"satellite\":0,\"tor\":9,\"tor_exit_nodes\":9,\"vpn\":1,\"relay\":0,\"proxy\":0,\"hosting\":1074,\"service\":1}"},"geometry":{"type":"Point","coordinates":[11.07752,49.45421]}},{"type":"Feature","properties":{"country_code":"DEU","city":"Düsseldorf","geoname_id":"2934246","downloaders":"{\"size\":8857,\"mobile\":4410,\"satellite\":3,\"tor\":3,\"tor_exit_nodes\":9,\"vpn\":93,\"relay\":0,\"proxy\":0,\"hosting\":608,\"service\":80}","uploaders":"{\"size\":101,\"mobile\":14,\"satellite\":2,\"tor\":3,\"tor_exit_nodes\":3,\"vpn\":16,\"relay\":0,\"proxy\":0,\"hosting\":66,\"service\":16}"},"geometry":{"type":"Point","coordinates":[6.77616,51.22172]}},{"type":"Feature","properties":{"country_code":"RUS","city":"Orël","geoname_id":"515012","downloaders":"{\"size\":8835,\"mobile\":149,\"satellite\":0,\"tor\":0,\"tor_exit_nodes\":0,\"vpn\":41,\"relay\":0,\"proxy\":0,\"hosting\":0,\"service\":0}","uploaders":"{\"size\":272,\"mobile\":18,\"satellite\":0,\"tor\":0,\"tor_exit_nodes\":0,\"vpn\":2,\"relay\":0,\"proxy\":0,\"hosting\":0,\"service\":0}"},"geometry":{"type":"Point","coordinates":[36.07805,52.95932]}},{"type":"Feature","properties":{"country_code":"RUS","city":"Kursk","geoname_id":"538560","downloaders":"{\"size\":8833,\"mobile\":42,\"satellite\":0,\"tor\":0,\"tor_exit_nodes\":0,\"vpn\":24,\"relay\":0,\"proxy\":0,\"hosting\":322,\"service\":0}","uploaders":"{\"size\":227,\"mobile\":0,\"satellite\":0,\"tor\":0,\"tor_exit_nodes\":0,\"vpn\":0,\"relay\":0,\"proxy\":0,\"hosting\":9,\"service\":0}"},"geometry":{"type":"Point","coordinates":[36.18712,51.73758]}},{"type":"Feature","properties":{"country_code":"RUS","city":"Mytishchi","geoname_id":"523812","downloaders":"{\"size\":8806,\"mobile\":8,\"satellite\":0,\"tor\":0,\"tor_exit_nodes\":0,\"vpn\":235,\"relay\":0,\"proxy\":0,\"hosting\":163,\"service\":3}","uploaders":"{\"size\":239,\"mobile\":0,\"satellite\":0,\"tor\":0,\"tor_exit_nodes\":0,\"vpn\":1,\"relay\":0,\"proxy\":0,\"hosting\":0,\"service\":0}"},"geometry":{"type":"Point","coordinates":[37.72964,55.91099]}},{"type":"Feature","properties":{"country_code":"CAN","city":"Vancouver","geoname_id":"6173331","downloaders":"{\"size\":8682,\"mobile\":442,\"satellite\":8,\"tor\":0,\"tor_exit_nodes\":0,\"vpn\":4099,\"relay\":5,\"proxy\":1,\"hosting\":3745,\"service\":3698}","uploaders":"{\"size\":1023,\"mobile\":39,\"satellite\":0,\"tor\":0,\"tor_exit_nodes\":0,\"vpn\":660,\"relay\":0,\"proxy\":0,\"hosting\":638,\"service\":627}"},"geometry":{"type":"Point","coordinates":[-123.11934,49.24966]}},{"type":"Feature","properties":{"country_code":"RUS","city":"Smolensk","geoname_id":"491687","downloaders":"{\"size\":8675,\"mobile\":6,\"satellite\":0,\"tor\":0,\"tor_exit_nodes\":0,\"vpn\":119,\"relay\":0,\"proxy\":0,\"hosting\":0,\"service\":13}","uploaders":"{\"size\":281,\"mobile\":0,\"satellite\":0,\"tor\":0,\"tor_exit_nodes\":0,\"vpn\":3,\"relay\":0,\"proxy\":0,\"hosting\":0,\"service\":0}"},"geometry":{"type":"Point","coordinates":[32.04371,54.77944]}},{"type":"Feature","properties":{"country_code":"ZAF","city":"Cape Town","geoname_id":"3369157","downloaders":"{\"size\":8625,\"mobile\":2999,\"satellite\":0,\"tor\":0,\"tor_exit_nodes\":0,\"vpn\":51,\"relay\":0,\"proxy\":117,\"hosting\":1840,\"service\":0}","uploaders":"{\"size\":1941,\"mobile\":521,\"satellite\":0,\"tor\":0,\"tor_exit_nodes\":0,\"vpn\":11,\"relay\":0,\"proxy\":8,\"hosting\":407,\"service\":0}"},"geometry":{"type":"Point","coordinates":[18.42322,-33.92584]}},{"type":"Feature","properties":{"country_code":"RUS","city":"Magnitogorsk","geoname_id":"532288","downloaders":"{\"size\":8606,\"mobile\":368,\"satellite\":0,\"tor\":0,\"tor_exit_nodes\":0,\"vpn\":3664,\"relay\":0,\"proxy\":0,\"hosting\":1,\"service\":1}","uploaders":"{\"size\":208,\"mobile\":19,\"satellite\":0,\"tor\":0,\"tor_exit_nodes\":0,\"vpn\":123,\"relay\":0,\"proxy\":0,\"hosting\":0,\"service\":0}"},"geometry":{"type":"Point","coordinates":[59.0066,53.39808]}},{"type":"Feature","properties":{"country_code":"PRT","city":"Queluz","geoname_id":"2264268","downloaders":"{\"size\":8580,\"mobile\":332,\"satellite\":0,\"tor\":0,\"tor_exit_nodes\":0,\"vpn\":31,\"relay\":0,\"proxy\":0,\"hosting\":1,\"service\":2}","uploaders":"{\"size\":1468,\"mobile\":49,\"satellite\":0,\"tor\":0,\"tor_exit_nodes\":0,\"vpn\":3,\"relay\":0,\"proxy\":0,\"hosting\":0,\"service\":0}"},"geometry":{"type":"Point","coordinates":[-9.25451,38.75657]}},{"type":"Feature","properties":{"country_code":"FRA","city":"Strasbourg","geoname_id":"2973783","downloaders":"{\"size\":8519,\"mobile\":1419,\"satellite\":0,\"tor\":0,\"tor_exit_nodes\":15,\"vpn\":256,\"relay\":0,\"proxy\":0,\"hosting\":3883,\"service\":244}","uploaders":"{\"size\":428,\"mobile\":121,\"satellite\":0,\"tor\":0,\"tor_exit_nodes\":2,\"vpn\":12,\"relay\":0,\"proxy\":0,\"hosting\":212,\"service\":11}"},"geometry":{"type":"Point","coordinates":[7.74553,48.58392]}},{"type":"Feature","properties":{"country_code":"TUN","city":"Tunis","geoname_id":"2464470","downloaders":"{\"size\":8505,\"mobile\":1028,\"satellite\":0,\"tor\":0,\"tor_exit_nodes\":0,\"vpn\":5,\"relay\":0,\"proxy\":0,\"hosting\":1031,\"service\":0}","uploaders":"{\"size\":2979,\"mobile\":335,\"satellite\":0,\"tor\":0,\"tor_exit_nodes\":0,\"vpn\":1,\"relay\":0,\"proxy\":0,\"hosting\":370,\"service\":0}"},"geometry":{"type":"Point","coordinates":[10.16579,36.81897]}},{"type":"Feature","properties":{"country_code":"RUS","city":"Angarsk","geoname_id":"2027667","downloaders":"{\"size\":8465,\"mobile\":0,\"satellite\":0,\"tor\":0,\"tor_exit_nodes\":0,\"vpn\":9,\"relay\":0,\"proxy\":0,\"hosting\":0,\"service\":0}","uploaders":"{\"size\":431,\"mobile\":0,\"satellite\":0,\"tor\":0,\"tor_exit_nodes\":0,\"vpn\":0,\"relay\":0,\"proxy\":0,\"hosting\":0,\"service\":0}"},"geometry":{"type":"Point","coordinates":[103.8195,52.4546]}},{"type":"Feature","properties":{"country_code":"ITA","city":"Turin","geoname_id":"3165524","downloaders":"{\"size\":8421,\"mobile\":3653,\"satellite\":0,\"tor\":0,\"tor_exit_nodes\":1,\"vpn\":198,\"relay\":0,\"proxy\":0,\"hosting\":158,\"service\":143}","uploaders":"{\"size\":390,\"mobile\":165,\"satellite\":0,\"tor\":0,\"tor_exit_nodes\":0,\"vpn\":4,\"relay\":0,\"proxy\":0,\"hosting\":1,\"service\":0}"},"geometry":{"type":"Point","coordinates":[7.68682,45.07049]}},{"type":"Feature","properties":{"country_code":"ZAF","city":"Pretoria","geoname_id":"964137","downloaders":"{\"size\":8406,\"mobile\":7805,\"satellite\":0,\"tor\":0,\"tor_exit_nodes\":0,\"vpn\":14,\"relay\":0,\"proxy\":0,\"hosting\":70,\"service\":0}","uploaders":"{\"size\":1282,\"mobile\":1144,\"satellite\":0,\"tor\":0,\"tor_exit_nodes\":0,\"vpn\":1,\"relay\":0,\"proxy\":0,\"hosting\":31,\"service\":0}"},"geometry":{"type":"Point","coordinates":[28.18783,-25.74486]}},{"type":"Feature","properties":{"country_code":"RUS","city":"Belgorod","geoname_id":"578072","downloaders":"{\"size\":8382,\"mobile\":63,\"satellite\":0,\"tor\":0,\"tor_exit_nodes\":0,\"vpn\":49,\"relay\":0,\"proxy\":0,\"hosting\":0,\"service\":1}","uploaders":"{\"size\":233,\"mobile\":6,\"satellite\":0,\"tor\":0,\"tor_exit_nodes\":0,\"vpn\":2,\"relay\":0,\"proxy\":0,\"hosting\":0,\"service\":0}"},"geometry":{"type":"Point","coordinates":[36.58015,50.61074]}},