{"type":"FeatureCollection","id":"A Murder at the End of the World","swarm_features":99,"features":[{"type":"Feature","properties":{"country_code":"RUS","city":"Moscow","geoname_id":"524901","downloaders":"{\"size\":213224,\"mobile\":9058,\"satellite\":6,\"tor\":0,\"tor_exit_nodes\":1,\"vpn\":10101,\"relay\":0,\"proxy\":33,\"hosting\":26607,\"service\":2358}","uploaders":"{\"size\":4364,\"mobile\":348,\"satellite\":0,\"tor\":0,\"tor_exit_nodes\":0,\"vpn\":96,\"relay\":0,\"proxy\":0,\"hosting\":397,\"service\":41}"},"geometry":{"type":"Point","coordinates":[37.61556,55.75222]}},{"type":"Feature","properties":{"country_code":"KOR","city":"Seoul","geoname_id":"1835848","downloaders":"{\"size\":173367,\"mobile\":258,\"satellite\":0,\"tor\":0,\"tor_exit_nodes\":0,\"vpn\":3083,\"relay\":29,\"proxy\":0,\"hosting\":2208,\"service\":594}","uploaders":"{\"size\":297,\"mobile\":13,\"satellite\":0,\"tor\":0,\"tor_exit_nodes\":0,\"vpn\":16,\"relay\":1,\"proxy\":0,\"hosting\":36,\"service\":16}"},"geometry":{"type":"Point","coordinates":[126.9784,37.566]}},{"type":"Feature","properties":{"country_code":"RUS","city":"Saint Petersburg","geoname_id":"498817","downloaders":"{\"size\":100927,\"mobile\":3690,\"satellite\":0,\"tor\":0,\"tor_exit_nodes\":0,\"vpn\":2154,\"relay\":0,\"proxy\":9,\"hosting\":4182,\"service\":92}","uploaders":"{\"size\":1544,\"mobile\":192,\"satellite\":0,\"tor\":0,\"tor_exit_nodes\":0,\"vpn\":15,\"relay\":0,\"proxy\":0,\"hosting\":117,\"service\":2}"},"geometry":{"type":"Point","coordinates":[30.31413,59.93863]}},{"type":"Feature","properties":{"country_code":"TUR","city":"Istanbul","geoname_id":"745044","downloaders":"{\"size\":99494,\"mobile\":7972,\"satellite\":0,\"tor\":0,\"tor_exit_nodes\":0,\"vpn\":194,\"relay\":0,\"proxy\":0,\"hosting\":345,\"service\":99}","uploaders":"{\"size\":509,\"mobile\":77,\"satellite\":0,\"tor\":0,\"tor_exit_nodes\":0,\"vpn\":29,\"relay\":0,\"proxy\":0,\"hosting\":31,\"service\":28}"},"geometry":{"type":"Point","coordinates":[28.94966,41.01384]}},{"type":"Feature","properties":{"country_code":"NLD","city":"Amsterdam","geoname_id":"2759794","downloaders":"{\"size\":97637,\"mobile\":118,\"satellite\":2,\"tor\":65,\"tor_exit_nodes\":93,\"vpn\":24620,\"relay\":62,\"proxy\":0,\"hosting\":88371,\"service\":11250}","uploaders":"{\"size\":3560,\"mobile\":37,\"satellite\":0,\"tor\":2,\"tor_exit_nodes\":3,\"vpn\":1879,\"relay\":13,\"proxy\":0,\"hosting\":2884,\"service\":1590}"},"geometry":{"type":"Point","coordinates":[4.88969,52.37403]}},{"type":"Feature","properties":{"country_code":"CHN","city":"Shanghai","geoname_id":"1796236","downloaders":"{\"size\":70420,\"mobile\":685,\"satellite\":0,\"tor\":0,\"tor_exit_nodes\":0,\"vpn\":727,\"relay\":0,\"proxy\":0,\"hosting\":7476,\"service\":0}","uploaders":"{\"size\":2854,\"mobile\":16,\"satellite\":0,\"tor\":0,\"tor_exit_nodes\":0,\"vpn\":4,\"relay\":0,\"proxy\":0,\"hosting\":375,\"service\":0}"},"geometry":{"type":"Point","coordinates":[121.45806,31.22222]}},{"type":"Feature","properties":{"country_code":"GBR","city":"London","geoname_id":"2643743","downloaders":"{\"size\":66194,\"mobile\":1628,\"satellite\":94,\"tor\":0,\"tor_exit_nodes\":5,\"vpn\":14032,\"relay\":153,\"proxy\":0,\"hosting\":17113,\"service\":12449}","uploaders":"{\"size\":4392,\"mobile\":234,\"satellite\":21,\"tor\":0,\"tor_exit_nodes\":0,\"vpn\":2559,\"relay\":52,\"proxy\":0,\"hosting\":2620,\"service\":2253}"},"geometry":{"type":"Point","coordinates":[-0.12574,51.50853]}},{"type":"Feature","properties":{"country_code":"USA","city":"Ashburn","geoname_id":"4744870","downloaders":"{\"size\":54406,\"mobile\":82,\"satellite\":17,\"tor\":0,\"tor_exit_nodes\":0,\"vpn\":2620,\"relay\":9,\"proxy\":0,\"hosting\":53357,\"service\":2511}","uploaders":"{\"size\":11338,\"mobile\":17,\"satellite\":1,\"tor\":0,\"tor_exit_nodes\":0,\"vpn\":378,\"relay\":5,\"proxy\":0,\"hosting\":11268,\"service\":378}"},"geometry":{"type":"Point","coordinates":[-77.48749,39.04372]}},{"type":"Feature","properties":{"country_code":"FRA","city":"Paris","geoname_id":"2988507","downloaders":"{\"size\":54285,\"mobile\":8910,\"satellite\":57,\"tor\":17,\"tor_exit_nodes\":25,\"vpn\":7271,\"relay\":11,\"proxy\":2,\"hosting\":16334,\"service\":5293}","uploaders":"{\"size\":1464,\"mobile\":185,\"satellite\":3,\"tor\":0,\"tor_exit_nodes\":2,\"vpn\":730,\"relay\":0,\"proxy\":0,\"hosting\":745,\"service\":666}"},"geometry":{"type":"Point","coordinates":[2.3488,48.85341]}},{"type":"Feature","properties":{"country_code":"MEX","city":"Mexico City","geoname_id":"3530597","downloaders":"{\"size\":51870,\"mobile\":58,\"satellite\":68,\"tor\":0,\"tor_exit_nodes\":0,\"vpn\":79,\"relay\":8,\"proxy\":0,\"hosting\":80,\"service\":64}","uploaders":"{\"size\":806,\"mobile\":1,\"satellite\":6,\"tor\":0,\"tor_exit_nodes\":0,\"vpn\":1,\"relay\":4,\"proxy\":0,\"hosting\":8,\"service\":5}"},"geometry":{"type":"Point","coordinates":[-99.12766,19.42847]}},{"type":"Feature","properties":{"country_code":"HUN","city":"Budapest","geoname_id":"3054643","downloaders":"{\"size\":50647,\"mobile\":2226,\"satellite\":0,\"tor\":0,\"tor_exit_nodes\":1,\"vpn\":1335,\"relay\":0,\"proxy\":0,\"hosting\":1480,\"service\":258}","uploaders":"{\"size\":485,\"mobile\":26,\"satellite\":0,\"tor\":0,\"tor_exit_nodes\":1,\"vpn\":28,\"relay\":0,\"proxy\":0,\"hosting\":32,\"service\":25}"},"geometry":{"type":"Point","coordinates":[19.04045,47.49835]}},{"type":"Feature","properties":{"country_code":"RUS","city":"Yekaterinburg","geoname_id":"1486209","downloaders":"{\"size\":40747,\"mobile\":2932,\"satellite\":0,\"tor\":0,\"tor_exit_nodes\":0,\"vpn\":1235,\"relay\":0,\"proxy\":0,\"hosting\":3019,\"service\":188}","uploaders":"{\"size\":484,\"mobile\":67,\"satellite\":0,\"tor\":0,\"tor_exit_nodes\":0,\"vpn\":5,\"relay\":0,\"proxy\":0,\"hosting\":25,\"service\":1}"},"geometry":{"type":"Point","coordinates":[60.6122,56.8519]}},{"type":"Feature","properties":{"country_code":"POL","city":"Warsaw","geoname_id":"756135","downloaders":"{\"size\":39367,\"mobile\":3461,\"satellite\":27,\"tor\":12,\"tor_exit_nodes\":17,\"vpn\":954,\"relay\":0,\"proxy\":13,\"hosting\":2599,\"service\":710}","uploaders":"{\"size\":835,\"mobile\":129,\"satellite\":3,\"tor\":0,\"tor_exit_nodes\":0,\"vpn\":113,\"relay\":0,\"proxy\":0,\"hosting\":223,\"service\":101}"},"geometry":{"type":"Point","coordinates":[21.01178,52.22977]}},{"type":"Feature","properties":{"country_code":"BRA","city":"São Paulo","geoname_id":"3448439","downloaders":"{\"size\":38844,\"mobile\":4497,\"satellite\":35,\"tor\":0,\"tor_exit_nodes\":0,\"vpn\":642,\"relay\":0,\"proxy\":0,\"hosting\":1677,\"service\":572}","uploaders":"{\"size\":777,\"mobile\":86,\"satellite\":2,\"tor\":0,\"tor_exit_nodes\":0,\"vpn\":90,\"relay\":0,\"proxy\":0,\"hosting\":151,\"service\":89}"},"geometry":{"type":"Point","coordinates":[-46.63611,-23.5475]}},{"type":"Feature","properties":{"country_code":"RUS","city":"Novosibirsk","geoname_id":"1496747","downloaders":"{\"size\":36760,\"mobile\":3002,\"satellite\":0,\"tor\":0,\"tor_exit_nodes\":0,\"vpn\":127,\"relay\":0,\"proxy\":0,\"hosting\":162,\"service\":42}","uploaders":"{\"size\":530,\"mobile\":77,\"satellite\":0,\"tor\":0,\"tor_exit_nodes\":0,\"vpn\":2,\"relay\":0,\"proxy\":0,\"hosting\":5,\"service\":0}"},"geometry":{"type":"Point","coordinates":[82.94339,55.03442]}},{"type":"Feature","properties":{"country_code":"BGR","city":"Sofia","geoname_id":"727011","downloaders":"{\"size\":32109,\"mobile\":4946,\"satellite\":30,\"tor\":0,\"tor_exit_nodes\":0,\"vpn\":1551,\"relay\":3,\"proxy\":3,\"hosting\":3428,\"service\":764}","uploaders":"{\"size\":784,\"mobile\":238,\"satellite\":3,\"tor\":0,\"tor_exit_nodes\":0,\"vpn\":122,\"relay\":0,\"proxy\":0,\"hosting\":168,\"service\":107}"},"geometry":{"type":"Point","coordinates":[23.32415,42.69751]}},{"type":"Feature","properties":{"country_code":"KOR","city":"Incheon","geoname_id":"1843564","downloaders":"{\"size\":30342,\"mobile\":9,\"satellite\":0,\"tor\":0,\"tor_exit_nodes\":0,\"vpn\":425,\"relay\":0,\"proxy\":0,\"hosting\":227,\"service\":85}","uploaders":"{\"size\":37,\"mobile\":0,\"satellite\":0,\"tor\":0,\"tor_exit_nodes\":0,\"vpn\":0,\"relay\":0,\"proxy\":0,\"hosting\":6,\"service\":0}"},"geometry":{"type":"Point","coordinates":[126.70515,37.45646]}},{"type":"Feature","properties":{"country_code":"BEL","city":"Brussels","geoname_id":"2800866","downloaders":"{\"size\":29900,\"mobile\":394,\"satellite\":0,\"tor\":0,\"tor_exit_nodes\":2,\"vpn\":1182,\"relay\":77,\"proxy\":0,\"hosting\":926,\"service\":1176}","uploaders":"{\"size\":739,\"mobile\":66,\"satellite\":0,\"tor\":0,\"tor_exit_nodes\":0,\"vpn\":173,\"relay\":5,\"proxy\":0,\"hosting\":153,\"service\":176}"},"geometry":{"type":"Point","coordinates":[4.34878,50.85045]}},{"type":"Feature","properties":{"country_code":"TUR","city":"Ankara","geoname_id":"323786","downloaders":"{\"size\":29276,\"mobile\":1631,\"satellite\":1,\"tor\":0,\"tor_exit_nodes\":0,\"vpn\":15,\"relay\":0,\"proxy\":0,\"hosting\":7,\"service\":3}","uploaders":"{\"size\":168,\"mobile\":20,\"satellite\":0,\"tor\":0,\"tor_exit_nodes\":0,\"vpn\":0,\"relay\":0,\"proxy\":0,\"hosting\":0,\"service\":0}"},"geometry":{"type":"Point","coordinates":[32.85427,39.91987]}},{"type":"Feature","properties":{"country_code":"ESP","city":"Madrid","geoname_id":"3117735","downloaders":"{\"size\":27871,\"mobile\":10390,\"satellite\":36,\"tor\":0,\"tor_exit_nodes\":0,\"vpn\":2327,\"relay\":26,\"proxy\":0,\"hosting\":2548,\"service\":2184}","uploaders":"{\"size\":1005,\"mobile\":255,\"satellite\":9,\"tor\":0,\"tor_exit_nodes\":0,\"vpn\":392,\"relay\":1,\"proxy\":0,\"hosting\":426,\"service\":384}"},"geometry":{"type":"Point","coordinates":[-3.70256,40.4165]}},{"type":"Feature","properties":{"country_code":"RUS","city":"Krasnodar","geoname_id":"542420","downloaders":"{\"size\":27199,\"mobile\":5983,\"satellite\":0,\"tor\":0,\"tor_exit_nodes\":0,\"vpn\":644,\"relay\":0,\"proxy\":0,\"hosting\":1676,\"service\":417}","uploaders":"{\"size\":735,\"mobile\":311,\"satellite\":0,\"tor\":0,\"tor_exit_nodes\":0,\"vpn\":15,\"relay\":0,\"proxy\":0,\"hosting\":35,\"service\":10}"},"geometry":{"type":"Point","coordinates":[38.97603,45.04484]}},{"type":"Feature","properties":{"country_code":"USA","city":"New York City","geoname_id":"5128581","downloaders":"{\"size\":27109,\"mobile\":277,\"satellite\":7,\"tor\":6,\"tor_exit_nodes\":13,\"vpn\":10870,\"relay\":137,\"proxy\":0,\"hosting\":12805,\"service\":10232}","uploaders":"{\"size\":1962,\"mobile\":27,\"satellite\":0,\"tor\":1,\"tor_exit_nodes\":1,\"vpn\":1493,\"relay\":26,\"proxy\":0,\"hosting\":1677,\"service\":1404}"},"geometry":{"type":"Point","coordinates":[-74.00597,40.71427]}},{"type":"Feature","properties":{"country_code":"RUS","city":"Nizhniy Novgorod","geoname_id":"520555","downloaders":"{\"size\":26755,\"mobile\":5198,\"satellite\":0,\"tor\":0,\"tor_exit_nodes\":0,\"vpn\":275,\"relay\":0,\"proxy\":0,\"hosting\":15,\"service\":22}","uploaders":"{\"size\":379,\"mobile\":117,\"satellite\":0,\"tor\":0,\"tor_exit_nodes\":0,\"vpn\":3,\"relay\":0,\"proxy\":0,\"hosting\":2,\"service\":2}"},"geometry":{"type":"Point","coordinates":[44.00205,56.32867]}},{"type":"Feature","properties":{"country_code":"CAN","city":"Toronto","geoname_id":"6167865","downloaders":"{\"size\":24750,\"mobile\":1045,\"satellite\":34,\"tor\":30,\"tor_exit_nodes\":194,\"vpn\":9825,\"relay\":33,\"proxy\":30,\"hosting\":13453,\"service\":9281}","uploaders":"{\"size\":2835,\"mobile\":39,\"satellite\":2,\"tor\":4,\"tor_exit_nodes\":23,\"vpn\":1777,\"relay\":1,\"proxy\":0,\"hosting\":2129,\"service\":1702}"},"geometry":{"type":"Point","coordinates":[-79.39864,43.70643]}},{"type":"Feature","properties":{"country_code":"RUS","city":"Samara","geoname_id":"499099","downloaders":"{\"size\":24309,\"mobile\":2636,\"satellite\":0,\"tor\":0,\"tor_exit_nodes\":0,\"vpn\":464,\"relay\":0,\"proxy\":0,\"hosting\":17,\"service\":218}","uploaders":"{\"size\":287,\"mobile\":55,\"satellite\":0,\"tor\":0,\"tor_exit_nodes\":0,\"vpn\":4,\"relay\":0,\"proxy\":0,\"hosting\":1,\"service\":2}"},"geometry":{"type":"Point","coordinates":[50.15,53.20007]}},{"type":"Feature","properties":{"country_code":"NLD","city":"Lelystad","geoname_id":"2751738","downloaders":"{\"size\":24025,\"mobile\":0,\"satellite\":0,\"tor\":23,\"tor_exit_nodes\":17,\"vpn\":3065,\"relay\":0,\"proxy\":0,\"hosting\":23174,\"service\":1237}","uploaders":"{\"size\":389,\"mobile\":0,\"satellite\":0,\"tor\":5,\"tor_exit_nodes\":1,\"vpn\":67,\"relay\":0,\"proxy\":0,\"hosting\":365,\"service\":62}"},"geometry":{"type":"Point","coordinates":[5.475,52.50833]}},{"type":"Feature","properties":{"country_code":"UKR","city":"Kyiv","geoname_id":"703448","downloaders":"{\"size\":22631,\"mobile\":200,\"satellite\":72,\"tor\":0,\"tor_exit_nodes\":0,\"vpn\":632,\"relay\":18,\"proxy\":0,\"hosting\":3738,\"service\":248}","uploaders":"{\"size\":836,\"mobile\":11,\"satellite\":12,\"tor\":0,\"tor_exit_nodes\":0,\"vpn\":32,\"relay\":1,\"proxy\":0,\"hosting\":188,\"service\":27}"},"geometry":{"type":"Point","coordinates":[30.5238,50.45466]}},{"type":"Feature","properties":{"country_code":"RUS","city":"Chelyabinsk","geoname_id":"1508291","downloaders":"{\"size\":21892,\"mobile\":1402,\"satellite\":0,\"tor\":0,\"tor_exit_nodes\":0,\"vpn\":79,\"relay\":0,\"proxy\":0,\"hosting\":4,\"service\":17}","uploaders":"{\"size\":279,\"mobile\":36,\"satellite\":0,\"tor\":0,\"tor_exit_nodes\":0,\"vpn\":0,\"relay\":0,\"proxy\":0,\"hosting\":0,\"service\":0}"},"geometry":{"type":"Point","coordinates":[61.42915,55.15402]}},{"type":"Feature","properties":{"country_code":"CHN","city":"Nanjing","geoname_id":"1799962","downloaders":"{\"size\":21876,\"mobile\":0,\"satellite\":0,\"tor\":0,\"tor_exit_nodes\":0,\"vpn\":451,\"relay\":0,\"proxy\":0,\"hosting\":317,\"service\":0}","uploaders":"{\"size\":426,\"mobile\":0,\"satellite\":0,\"tor\":0,\"tor_exit_nodes\":0,\"vpn\":8,\"relay\":0,\"proxy\":0,\"hosting\":22,\"service\":0}"},"geometry":{"type":"Point","coordinates":[118.77778,32.06167]}},{"type":"Feature","properties":{"country_code":"DEU","city":"Frankfurt am Main","geoname_id":"2925533","downloaders":"{\"size\":21831,\"mobile\":447,\"satellite\":9,\"tor\":0,\"tor_exit_nodes\":28,\"vpn\":5813,\"relay\":15,\"proxy\":1,\"hosting\":16721,\"service\":5436}","uploaders":"{\"size\":1364,\"mobile\":7,\"satellite\":0,\"tor\":0,\"tor_exit_nodes\":0,\"vpn\":671,\"relay\":6,\"proxy\":0,\"hosting\":1262,\"service\":642}"},"geometry":{"type":"Point","coordinates":[8.68417,50.11552]}},{"type":"Feature","properties":{"country_code":"CHN","city":"Shenzhen","geoname_id":"1795565","downloaders":"{\"size\":21585,\"mobile\":41,\"satellite\":0,\"tor\":0,\"tor_exit_nodes\":0,\"vpn\":496,\"relay\":0,\"proxy\":0,\"hosting\":545,\"service\":0}","uploaders":"{\"size\":684,\"mobile\":4,\"satellite\":0,\"tor\":0,\"tor_exit_nodes\":0,\"vpn\":20,\"relay\":0,\"proxy\":0,\"hosting\":31,\"service\":0}"},"geometry":{"type":"Point","coordinates":[114.0683,22.54554]}},{"type":"Feature","properties":{"country_code":"CAN","city":"Montréal","geoname_id":"6077243","downloaders":"{\"size\":21503,\"mobile\":1417,\"satellite\":0,\"tor\":0,\"tor_exit_nodes\":6,\"vpn\":5926,\"relay\":0,\"proxy\":0,\"hosting\":9647,\"service\":5739}","uploaders":"{\"size\":1534,\"mobile\":25,\"satellite\":0,\"tor\":0,\"tor_exit_nodes\":1,\"vpn\":1040,\"relay\":0,\"proxy\":0,\"hosting\":984,\"service\":1036}"},"geometry":{"type":"Point","coordinates":[-73.58781,45.50884]}},{"type":"Feature","properties":{"country_code":"CHN","city":"Qingdao","geoname_id":"1797929","downloaders":"{\"size\":21359,\"mobile\":0,\"satellite\":0,\"tor\":0,\"tor_exit_nodes\":0,\"vpn\":243,\"relay\":0,\"proxy\":0,\"hosting\":190,\"service\":0}","uploaders":"{\"size\":242,\"mobile\":0,\"satellite\":0,\"tor\":0,\"tor_exit_nodes\":0,\"vpn\":4,\"relay\":0,\"proxy\":0,\"hosting\":1,\"service\":0}"},"geometry":{"type":"Point","coordinates":[120.38042,36.06488]}},{"type":"Feature","properties":{"country_code":"RUS","city":"Voronezh","geoname_id":"472045","downloaders":"{\"size\":20588,\"mobile\":270,\"satellite\":0,\"tor\":0,\"tor_exit_nodes\":0,\"vpn\":251,\"relay\":0,\"proxy\":0,\"hosting\":238,\"service\":6}","uploaders":"{\"size\":298,\"mobile\":20,\"satellite\":0,\"tor\":0,\"tor_exit_nodes\":0,\"vpn\":1,\"relay\":0,\"proxy\":0,\"hosting\":4,\"service\":0}"},"geometry":{"type":"Point","coordinates":[39.1843,51.67204]}},{"type":"Feature","properties":{"country_code":"RUS","city":"Ufa","geoname_id":"479561","downloaders":"{\"size\":19925,\"mobile\":535,\"satellite\":0,\"tor\":0,\"tor_exit_nodes\":0,\"vpn\":128,\"relay\":0,\"proxy\":0,\"hosting\":0,\"service\":31}","uploaders":"{\"size\":290,\"mobile\":16,\"satellite\":0,\"tor\":0,\"tor_exit_nodes\":0,\"vpn\":1,\"relay\":0,\"proxy\":0,\"hosting\":0,\"service\":0}"},"geometry":{"type":"Point","coordinates":[55.96779,54.74306]}},{"type":"Feature","properties":{"country_code":"FIN","city":"Helsinki","geoname_id":"658225","downloaders":"{\"size\":19531,\"mobile\":367,\"satellite\":0,\"tor\":0,\"tor_exit_nodes\":3,\"vpn\":2365,\"relay\":3,\"proxy\":0,\"hosting\":16827,\"service\":1467}","uploaders":"{\"size\":366,\"mobile\":33,\"satellite\":0,\"tor\":0,\"tor_exit_nodes\":0,\"vpn\":253,\"relay\":0,\"proxy\":0,\"hosting\":313,\"service\":232}"},"geometry":{"type":"Point","coordinates":[24.93545,60.16952]}},{"type":"Feature","properties":{"country_code":"CHN","city":"Beijing","geoname_id":"1816670","downloaders":"{\"size\":18747,\"mobile\":0,\"satellite\":0,\"tor\":0,\"tor_exit_nodes\":0,\"vpn\":319,\"relay\":0,\"proxy\":0,\"hosting\":3297,\"service\":0}","uploaders":"{\"size\":799,\"mobile\":0,\"satellite\":0,\"tor\":0,\"tor_exit_nodes\":0,\"vpn\":6,\"relay\":0,\"proxy\":0,\"hosting\":319,\"service\":0}"},"geometry":{"type":"Point","coordinates":[116.39723,39.9075]}},{"type":"Feature","properties":{"country_code":"TUR","city":"İzmir","geoname_id":"311046","downloaders":"{\"size\":18669,\"mobile\":3719,\"satellite\":0,\"tor\":0,\"tor_exit_nodes\":0,\"vpn\":14,\"relay\":0,\"proxy\":0,\"hosting\":7,\"service\":0}","uploaders":"{\"size\":123,\"mobile\":17,\"satellite\":0,\"tor\":0,\"tor_exit_nodes\":0,\"vpn\":0,\"relay\":0,\"proxy\":0,\"hosting\":1,\"service\":0}"},"geometry":{"type":"Point","coordinates":[27.13838,38.41273]}},{"type":"Feature","properties":{"country_code":"RUS","city":"Perm","geoname_id":"511196","downloaders":"{\"size\":18571,\"mobile\":1092,\"satellite\":1,\"tor\":0,\"tor_exit_nodes\":0,\"vpn\":158,\"relay\":0,\"proxy\":0,\"hosting\":7,\"service\":2}","uploaders":"{\"size\":352,\"mobile\":26,\"satellite\":0,\"tor\":0,\"tor_exit_nodes\":0,\"vpn\":0,\"relay\":0,\"proxy\":0,\"hosting\":0,\"service\":0}"},"geometry":{"type":"Point","coordinates":[56.25017,58.01046]}},{"type":"Feature","properties":{"country_code":"RUS","city":"Rostov-na-Donu","geoname_id":"501175","downloaders":"{\"size\":18359,\"mobile\":1220,\"satellite\":0,\"tor\":0,\"tor_exit_nodes\":0,\"vpn\":366,\"relay\":0,\"proxy\":7,\"hosting\":0,\"service\":23}","uploaders":"{\"size\":764,\"mobile\":201,\"satellite\":0,\"tor\":0,\"tor_exit_nodes\":0,\"vpn\":13,\"relay\":0,\"proxy\":0,\"hosting\":0,\"service\":1}"},"geometry":{"type":"Point","coordinates":[39.72328,47.23135]}},{"type":"Feature","properties":{"country_code":"KOR","city":"Busan","geoname_id":"1838524","downloaders":"{\"size\":18179,\"mobile\":22,\"satellite\":0,\"tor\":0,\"tor_exit_nodes\":0,\"vpn\":112,\"relay\":0,\"proxy\":0,\"hosting\":4,\"service\":36}","uploaders":"{\"size\":32,\"mobile\":0,\"satellite\":0,\"tor\":0,\"tor_exit_nodes\":0,\"vpn\":0,\"relay\":0,\"proxy\":0,\"hosting\":0,\"service\":0}"},"geometry":{"type":"Point","coordinates":[129.03004,35.10168]}},{"type":"Feature","properties":{"country_code":"RUS","city":"Tyumen","geoname_id":"1488754","downloaders":"{\"size\":16741,\"mobile\":2948,\"satellite\":0,\"tor\":0,\"tor_exit_nodes\":0,\"vpn\":95,\"relay\":0,\"proxy\":0,\"hosting\":0,\"service\":4}","uploaders":"{\"size\":181,\"mobile\":44,\"satellite\":0,\"tor\":0,\"tor_exit_nodes\":0,\"vpn\":0,\"relay\":0,\"proxy\":0,\"hosting\":0,\"service\":0}"},"geometry":{"type":"Point","coordinates":[65.52722,57.15222]}},{"type":"Feature","properties":{"country_code":"RUS","city":"Omsk","geoname_id":"1496153","downloaders":"{\"size\":16573,\"mobile\":27,\"satellite\":0,\"tor\":0,\"tor_exit_nodes\":0,\"vpn\":47,\"relay\":0,\"proxy\":0,\"hosting\":4,\"service\":23}","uploaders":"{\"size\":204,\"mobile\":0,\"satellite\":0,\"tor\":0,\"tor_exit_nodes\":0,\"vpn\":1,\"relay\":0,\"proxy\":0,\"hosting\":0,\"service\":0}"},"geometry":{"type":"Point","coordinates":[73.36859,54.99244]}},{"type":"Feature","properties":{"country_code":"DEU","city":"Falkenstein","geoname_id":"2927913","downloaders":"{\"size\":16545,\"mobile\":0,\"satellite\":0,\"tor\":0,\"tor_exit_nodes\":0,\"vpn\":4,\"relay\":0,\"proxy\":1,\"hosting\":16542,\"service\":4}","uploaders":"{\"size\":184,\"mobile\":0,\"satellite\":0,\"tor\":0,\"tor_exit_nodes\":0,\"vpn\":0,\"relay\":0,\"proxy\":0,\"hosting\":184,\"service\":0}"},"geometry":{"type":"Point","coordinates":[12.37129,50.47788]}},{"type":"Feature","properties":{"country_code":"RUS","city":"Tomsk","geoname_id":"1489425","downloaders":"{\"size\":16428,\"mobile\":17,\"satellite\":0,\"tor\":0,\"tor_exit_nodes\":0,\"vpn\":37,\"relay\":0,\"proxy\":1,\"hosting\":8,\"service\":6}","uploaders":"{\"size\":395,\"mobile\":2,\"satellite\":0,\"tor\":0,\"tor_exit_nodes\":0,\"vpn\":0,\"relay\":0,\"proxy\":0,\"hosting\":0,\"service\":0}"},"geometry":{"type":"Point","coordinates":[84.98204,56.50032]}},{"type":"Feature","properties":{"country_code":"RUS","city":"Krasnoyarsk","geoname_id":"1502026","downloaders":"{\"size\":16357,\"mobile\":1137,\"satellite\":1,\"tor\":0,\"tor_exit_nodes\":0,\"vpn\":88,\"relay\":0,\"proxy\":0,\"hosting\":37,\"service\":48}","uploaders":"{\"size\":285,\"mobile\":12,\"satellite\":0,\"tor\":0,\"tor_exit_nodes\":0,\"vpn\":1,\"relay\":0,\"proxy\":0,\"hosting\":1,\"service\":0}"},"geometry":{"type":"Point","coordinates":[92.90765,56.02668]}},{"type":"Feature","properties":{"country_code":"POL","city":"Ursynów","geoname_id":"6545326","downloaders":"{\"size\":16043,\"mobile\":0,\"satellite\":0,\"tor\":0,\"tor_exit_nodes\":0,\"vpn\":160,\"relay\":0,\"proxy\":0,\"hosting\":162,\"service\":159}","uploaders":"{\"size\":112,\"mobile\":0,\"satellite\":0,\"tor\":0,\"tor_exit_nodes\":0,\"vpn\":17,\"relay\":0,\"proxy\":0,\"hosting\":18,\"service\":17}"},"geometry":{"type":"Point","coordinates":[21.0068,52.1552]}},{"type":"Feature","properties":{"country_code":"FRA","city":"Dunkerque","geoname_id":"3020686","downloaders":"{\"size\":16020,\"mobile\":227,\"satellite\":0,\"tor\":0,\"tor_exit_nodes\":0,\"vpn\":300,\"relay\":0,\"proxy\":0,\"hosting\":15276,\"service\":71}","uploaders":"{\"size\":163,\"mobile\":0,\"satellite\":0,\"tor\":0,\"tor_exit_nodes\":0,\"vpn\":0,\"relay\":0,\"proxy\":0,\"hosting\":163,\"service\":0}"},"geometry":{"type":"Point","coordinates":[2.37681,51.0344]}},{"type":"Feature","properties":{"country_code":"AUS","city":"Sydney","geoname_id":"2147714","downloaders":"{\"size\":15616,\"mobile\":1162,\"satellite\":167,\"tor\":0,\"tor_exit_nodes\":0,\"vpn\":5076,\"relay\":60,\"proxy\":0,\"hosting\":5945,\"service\":4742}","uploaders":"{\"size\":1975,\"mobile\":146,\"satellite\":40,\"tor\":0,\"tor_exit_nodes\":0,\"vpn\":838,\"relay\":15,\"proxy\":0,\"hosting\":923,\"service\":808}"},"geometry":{"type":"Point","coordinates":[151.20732,-33.86785]}},{"type":"Feature","properties":{"country_code":"TUR","city":"Bursa","geoname_id":"750269","downloaders":"{\"size\":15595,\"mobile\":1392,\"satellite\":0,\"tor\":0,\"tor_exit_nodes\":0,\"vpn\":2,\"relay\":0,\"proxy\":0,\"hosting\":70,\"service\":0}","uploaders":"{\"size\":108,\"mobile\":4,\"satellite\":0,\"tor\":0,\"tor_exit_nodes\":0,\"vpn\":0,\"relay\":0,\"proxy\":0,\"hosting\":4,\"service\":0}"},"geometry":{"type":"Point","coordinates":[29.06013,40.19559]}},{"type":"Feature","properties":{"country_code":"KOR","city":"Daegu","geoname_id":"1835329","downloaders":"{\"size\":15085,\"mobile\":15,\"satellite\":0,\"tor\":0,\"tor_exit_nodes\":0,\"vpn\":157,\"relay\":0,\"proxy\":0,\"hosting\":308,\"service\":39}","uploaders":"{\"size\":24,\"mobile\":0,\"satellite\":0,\"tor\":0,\"tor_exit_nodes\":0,\"vpn\":0,\"relay\":0,\"proxy\":0,\"hosting\":0,\"service\":0}"},"geometry":{"type":"Point","coordinates":[128.59111,35.87028]}},{"type":"Feature","properties":{"country_code":"ITA","city":"Milan","geoname_id":"3173435","downloaders":"{\"size\":15013,\"mobile\":3436,\"satellite\":10,\"tor\":0,\"tor_exit_nodes\":0,\"vpn\":1594,\"relay\":0,\"proxy\":2,\"hosting\":1908,\"service\":1478}","uploaders":"{\"size\":1079,\"mobile\":207,\"satellite\":3,\"tor\":0,\"tor_exit_nodes\":0,\"vpn\":430,\"relay\":0,\"proxy\":0,\"hosting\":449,\"service\":428}"},"geometry":{"type":"Point","coordinates":[9.18951,45.46427]}},{"type":"Feature","properties":{"country_code":"RUS","city":"Barnaul","geoname_id":"1510853","downloaders":"{\"size\":14876,\"mobile\":4,\"satellite\":0,\"tor\":0,\"tor_exit_nodes\":0,\"vpn\":42,\"relay\":0,\"proxy\":0,\"hosting\":0,\"service\":21}","uploaders":"{\"size\":207,\"mobile\":1,\"satellite\":0,\"tor\":0,\"tor_exit_nodes\":0,\"vpn\":0,\"relay\":0,\"proxy\":0,\"hosting\":0,\"service\":0}"},"geometry":{"type":"Point","coordinates":[83.7456,53.3598]}},{"type":"Feature","properties":{"country_code":"HKG","city":"Hong Kong","geoname_id":"1819729","downloaders":"{\"size\":14838,\"mobile\":114,\"satellite\":0,\"tor\":0,\"tor_exit_nodes\":0,\"vpn\":1186,\"relay\":0,\"proxy\":9,\"hosting\":2659,\"service\":826}","uploaders":"{\"size\":524,\"mobile\":11,\"satellite\":0,\"tor\":0,\"tor_exit_nodes\":0,\"vpn\":164,\"relay\":0,\"proxy\":1,\"hosting\":336,\"service\":163}"},"geometry":{"type":"Point","coordinates":[114.17469,22.27832]}},{"type":"Feature","properties":{"country_code":"RUS","city":"Saratov","geoname_id":"498677","downloaders":"{\"size\":14701,\"mobile\":311,\"satellite\":0,\"tor\":0,\"tor_exit_nodes\":0,\"vpn\":113,\"relay\":0,\"proxy\":0,\"hosting\":4,\"service\":5}","uploaders":"{\"size\":230,\"mobile\":6,\"satellite\":0,\"tor\":0,\"tor_exit_nodes\":0,\"vpn\":0,\"relay\":0,\"proxy\":0,\"hosting\":0,\"service\":0}"},"geometry":{"type":"Point","coordinates":[46.00861,51.54056]}},{"type":"Feature","properties":{"country_code":"MEX","city":"Guadalajara","geoname_id":"4005539","downloaders":"{\"size\":14666,\"mobile\":20,\"satellite\":0,\"tor\":0,\"tor_exit_nodes\":0,\"vpn\":17,\"relay\":0,\"proxy\":0,\"hosting\":0,\"service\":0}","uploaders":"{\"size\":59,\"mobile\":0,\"satellite\":0,\"tor\":0,\"tor_exit_nodes\":0,\"vpn\":0,\"relay\":0,\"proxy\":0,\"hosting\":0,\"service\":0}"},"geometry":{"type":"Point","coordinates":[-103.34749,20.67738]}},{"type":"Feature","properties":{"country_code":"BRA","city":"Rio de Janeiro","geoname_id":"3451190","downloaders":"{\"size\":14633,\"mobile\":798,\"satellite\":0,\"tor\":0,\"tor_exit_nodes\":0,\"vpn\":32,\"relay\":0,\"proxy\":0,\"hosting\":89,\"service\":0}","uploaders":"{\"size\":314,\"mobile\":15,\"satellite\":0,\"tor\":0,\"tor_exit_nodes\":0,\"vpn\":1,\"relay\":0,\"proxy\":0,\"hosting\":1,\"service\":0}"},"geometry":{"type":"Point","coordinates":[-43.18223,-22.90642]}},{"type":"Feature","properties":{"country_code":"ARG","city":"Buenos Aires","geoname_id":"3435910","downloaders":"{\"size\":14260,\"mobile\":2159,\"satellite\":26,\"tor\":0,\"tor_exit_nodes\":0,\"vpn\":88,\"relay\":0,\"proxy\":0,\"hosting\":180,\"service\":44}","uploaders":"{\"size\":714,\"mobile\":86,\"satellite\":12,\"tor\":0,\"tor_exit_nodes\":0,\"vpn\":9,\"relay\":0,\"proxy\":0,\"hosting\":20,\"service\":7}"},"geometry":{"type":"Point","coordinates":[-58.37723,-34.61315]}},{"type":"Feature","properties":{"country_code":"BLR","city":"Minsk","geoname_id":"625144","downloaders":"{\"size\":14097,\"mobile\":150,\"satellite\":0,\"tor\":0,\"tor_exit_nodes\":0,\"vpn\":263,\"relay\":0,\"proxy\":0,\"hosting\":381,\"service\":46}","uploaders":"{\"size\":517,\"mobile\":3,\"satellite\":0,\"tor\":0,\"tor_exit_nodes\":0,\"vpn\":8,\"relay\":0,\"proxy\":0,\"hosting\":2,\"service\":1}"},"geometry":{"type":"Point","coordinates":[27.56653,53.90019]}},{"type":"Feature","properties":{"country_code":"USA","city":"Los Angeles","geoname_id":"5368361","downloaders":"{\"size\":13833,\"mobile\":121,\"satellite\":32,\"tor\":0,\"tor_exit_nodes\":1,\"vpn\":7186,\"relay\":0,\"proxy\":0,\"hosting\":10098,\"service\":6691}","uploaders":"{\"size\":2080,\"mobile\":16,\"satellite\":3,\"tor\":0,\"tor_exit_nodes\":0,\"vpn\":1247,\"relay\":0,\"proxy\":0,\"hosting\":1834,\"service\":1198}"},"geometry":{"type":"Point","coordinates":[-118.24368,34.05223]}},{"type":"Feature","properties":{"country_code":"KOR","city":"Suwon","geoname_id":"1835553","downloaders":"{\"size\":13769,\"mobile\":13,\"satellite\":0,\"tor\":0,\"tor_exit_nodes\":0,\"vpn\":204,\"relay\":0,\"proxy\":0,\"hosting\":0,\"service\":17}","uploaders":"{\"size\":19,\"mobile\":0,\"satellite\":0,\"tor\":0,\"tor_exit_nodes\":0,\"vpn\":0,\"relay\":0,\"proxy\":0,\"hosting\":0,\"service\":0}"},"geometry":{"type":"Point","coordinates":[127.00889,37.29111]}},{"type":"Feature","properties":{"country_code":"JPN","city":"Tokyo","geoname_id":"1850147","downloaders":"{\"size\":13180,\"mobile\":698,\"satellite\":4,\"tor\":0,\"tor_exit_nodes\":0,\"vpn\":1716,\"relay\":17,\"proxy\":2,\"hosting\":3680,\"service\":1532}","uploaders":"{\"size\":288,\"mobile\":24,\"satellite\":0,\"tor\":0,\"tor_exit_nodes\":0,\"vpn\":122,\"relay\":0,\"proxy\":1,\"hosting\":206,\"service\":122}"},"geometry":{"type":"Point","coordinates":[139.69171,35.6895]}},{"type":"Feature","properties":{"country_code":"SWE","city":"Stockholm","geoname_id":"2673730","downloaders":"{\"size\":12963,\"mobile\":516,\"satellite\":1,\"tor\":5,\"tor_exit_nodes\":7,\"vpn\":5589,\"relay\":4,\"proxy\":0,\"hosting\":3785,\"service\":5363}","uploaders":"{\"size\":1040,\"mobile\":26,\"satellite\":0,\"tor\":0,\"tor_exit_nodes\":0,\"vpn\":836,\"relay\":0,\"proxy\":0,\"hosting\":482,\"service\":827}"},"geometry":{"type":"Point","coordinates":[18.06871,59.32938]}},{"type":"Feature","properties":{"country_code":"LVA","city":"Riga","geoname_id":"456172","downloaders":"{\"size\":12918,\"mobile\":249,\"satellite\":0,\"tor\":0,\"tor_exit_nodes\":0,\"vpn\":598,\"relay\":0,\"proxy\":0,\"hosting\":994,\"service\":382}","uploaders":"{\"size\":487,\"mobile\":11,\"satellite\":0,\"tor\":0,\"tor_exit_nodes\":0,\"vpn\":114,\"relay\":0,\"proxy\":0,\"hosting\":144,\"service\":108}"},"geometry":{"type":"Point","coordinates":[24.10589,56.946]}},{"type":"Feature","properties":{"country_code":"RUS","city":"Kemerovo","geoname_id":"1503901","downloaders":"{\"size\":12615,\"mobile\":8,\"satellite\":0,\"tor\":0,\"tor_exit_nodes\":0,\"vpn\":92,\"relay\":0,\"proxy\":0,\"hosting\":13,\"service\":0}","uploaders":"{\"size\":78,\"mobile\":0,\"satellite\":0,\"tor\":0,\"tor_exit_nodes\":0,\"vpn\":0,\"relay\":0,\"proxy\":0,\"hosting\":0,\"service\":0}"},"geometry":{"type":"Point","coordinates":[86.08333,55.33333]}},{"type":"Feature","properties":{"country_code":"RUS","city":"Kazan","geoname_id":"551487","downloaders":"{\"size\":12541,\"mobile\":1425,\"satellite\":0,\"tor\":0,\"tor_exit_nodes\":0,\"vpn\":181,\"relay\":0,\"proxy\":0,\"hosting\":47,\"service\":2}","uploaders":"{\"size\":250,\"mobile\":59,\"satellite\":0,\"tor\":0,\"tor_exit_nodes\":0,\"vpn\":0,\"relay\":0,\"proxy\":0,\"hosting\":0,\"service\":0}"},"geometry":{"type":"Point","coordinates":[49.12214,55.78874]}},{"type":"Feature","properties":{"country_code":"RUS","city":"Volgograd","geoname_id":"472757","downloaders":"{\"size\":11716,\"mobile\":609,\"satellite\":0,\"tor\":0,\"tor_exit_nodes\":0,\"vpn\":100,\"relay\":0,\"proxy\":0,\"hosting\":0,\"service\":1}","uploaders":"{\"size\":256,\"mobile\":10,\"satellite\":0,\"tor\":0,\"tor_exit_nodes\":0,\"vpn\":1,\"relay\":0,\"proxy\":0,\"hosting\":0,\"service\":0}"},"geometry":{"type":"Point","coordinates":[44.50183,48.71939]}},{"type":"Feature","properties":{"country_code":"ITA","city":"Rome","geoname_id":"3169070","downloaders":"{\"size\":11672,\"mobile\":3005,\"satellite\":0,\"tor\":0,\"tor_exit_nodes\":0,\"vpn\":273,\"relay\":85,\"proxy\":0,\"hosting\":370,\"service\":324}","uploaders":"{\"size\":581,\"mobile\":204,\"satellite\":0,\"tor\":0,\"tor_exit_nodes\":0,\"vpn\":46,\"relay\":19,\"proxy\":0,\"hosting\":69,\"service\":65}"},"geometry":{"type":"Point","coordinates":[12.51133,41.89193]}},{"type":"Feature","properties":{"country_code":"ROU","city":"Bucharest","geoname_id":"683506","downloaders":"{\"size\":11670,\"mobile\":2104,\"satellite\":0,\"tor\":6,\"tor_exit_nodes\":11,\"vpn\":1443,\"relay\":5,\"proxy\":1,\"hosting\":1655,\"service\":1239}","uploaders":"{\"size\":540,\"mobile\":72,\"satellite\":0,\"tor\":0,\"tor_exit_nodes\":0,\"vpn\":187,\"relay\":1,\"proxy\":0,\"hosting\":187,\"service\":176}"},"geometry":{"type":"Point","coordinates":[26.10626,44.43225]}},{"type":"Feature","properties":{"country_code":"CHN","city":"Zhengzhou","geoname_id":"1784658","downloaders":"{\"size\":11638,\"mobile\":0,\"satellite\":0,\"tor\":0,\"tor_exit_nodes\":0,\"vpn\":118,\"relay\":0,\"proxy\":0,\"hosting\":17,\"service\":1}","uploaders":"{\"size\":101,\"mobile\":0,\"satellite\":0,\"tor\":0,\"tor_exit_nodes\":0,\"vpn\":1,\"relay\":0,\"proxy\":0,\"hosting\":0,\"service\":0}"},"geometry":{"type":"Point","coordinates":[113.64861,34.75778]}},{"type":"Feature","properties":{"country_code":"LTU","city":"Vilnius","geoname_id":"593116","downloaders":"{\"size\":11472,\"mobile\":540,\"satellite\":0,\"tor\":0,\"tor_exit_nodes\":0,\"vpn\":247,\"relay\":12,\"proxy\":0,\"hosting\":757,\"service\":176}","uploaders":"{\"size\":261,\"mobile\":24,\"satellite\":0,\"tor\":0,\"tor_exit_nodes\":0,\"vpn\":22,\"relay\":3,\"proxy\":0,\"hosting\":32,\"service\":24}"},"geometry":{"type":"Point","coordinates":[25.2798,54.68916]}},{"type":"Feature","properties":{"country_code":"RUS","city":"Tula","geoname_id":"480562","downloaders":"{\"size\":11399,\"mobile\":2236,\"satellite\":0,\"tor\":0,\"tor_exit_nodes\":0,\"vpn\":65,\"relay\":0,\"proxy\":0,\"hosting\":150,\"service\":3}","uploaders":"{\"size\":116,\"mobile\":28,\"satellite\":0,\"tor\":0,\"tor_exit_nodes\":0,\"vpn\":0,\"relay\":0,\"proxy\":0,\"hosting\":5,\"service\":0}"},"geometry":{"type":"Point","coordinates":[37.61822,54.19609]}},{"type":"Feature","properties":{"country_code":"CHL","city":"Santiago","geoname_id":"3871336","downloaders":"{\"size\":11224,\"mobile\":2567,\"satellite\":21,\"tor\":0,\"tor_exit_nodes\":0,\"vpn\":61,\"relay\":0,\"proxy\":0,\"hosting\":805,\"service\":49}","uploaders":"{\"size\":261,\"mobile\":97,\"satellite\":2,\"tor\":0,\"tor_exit_nodes\":0,\"vpn\":14,\"relay\":0,\"proxy\":0,\"hosting\":21,\"service\":12}"},"geometry":{"type":"Point","coordinates":[-70.64827,-33.45694]}},{"type":"Feature","properties":{"country_code":"RUS","city":"Khimki","geoname_id":"550280","downloaders":"{\"size\":11073,\"mobile\":3,\"satellite\":2,\"tor\":0,\"tor_exit_nodes\":0,\"vpn\":835,\"relay\":0,\"proxy\":0,\"hosting\":2271,\"service\":253}","uploaders":"{\"size\":161,\"mobile\":0,\"satellite\":0,\"tor\":0,\"tor_exit_nodes\":0,\"vpn\":9,\"relay\":0,\"proxy\":0,\"hosting\":29,\"service\":6}"},"geometry":{"type":"Point","coordinates":[37.42848,55.9001]}},{"type":"Feature","properties":{"country_code":"SVN","city":"Ljubljana","geoname_id":"3196359","downloaders":"{\"size\":10940,\"mobile\":326,\"satellite\":0,\"tor\":0,\"tor_exit_nodes\":1,\"vpn\":353,\"relay\":4,\"proxy\":0,\"hosting\":213,\"service\":184}","uploaders":"{\"size\":321,\"mobile\":33,\"satellite\":0,\"tor\":0,\"tor_exit_nodes\":0,\"vpn\":30,\"relay\":0,\"proxy\":0,\"hosting\":29,\"service\":29}"},"geometry":{"type":"Point","coordinates":[14.50513,46.05108]}},{"type":"Feature","properties":{"country_code":"AUS","city":"Melbourne","geoname_id":"2158177","downloaders":"{\"size\":10918,\"mobile\":523,\"satellite\":10,\"tor\":0,\"tor_exit_nodes\":0,\"vpn\":2329,\"relay\":0,\"proxy\":0,\"hosting\":2922,\"service\":1967}","uploaders":"{\"size\":1401,\"mobile\":58,\"satellite\":3,\"tor\":0,\"tor_exit_nodes\":0,\"vpn\":439,\"relay\":0,\"proxy\":0,\"hosting\":554,\"service\":385}"},"geometry":{"type":"Point","coordinates":[144.96332,-37.814]}},{"type":"Feature","properties":{"country_code":"ESP","city":"Barcelona","geoname_id":"3128760","downloaders":"{\"size\":10862,\"mobile\":3933,\"satellite\":0,\"tor\":0,\"tor_exit_nodes\":0,\"vpn\":327,\"relay\":24,\"proxy\":0,\"hosting\":350,\"service\":334}","uploaders":"{\"size\":266,\"mobile\":63,\"satellite\":0,\"tor\":0,\"tor_exit_nodes\":0,\"vpn\":49,\"relay\":11,\"proxy\":0,\"hosting\":60,\"service\":59}"},"geometry":{"type":"Point","coordinates":[2.15899,41.38879]}},{"type":"Feature","properties":{"country_code":"POL","city":"Poznań","geoname_id":"3088171","downloaders":"{\"size\":10582,\"mobile\":476,\"satellite\":0,\"tor\":2,\"tor_exit_nodes\":2,\"vpn\":57,\"relay\":0,\"proxy\":0,\"hosting\":19,\"service\":0}","uploaders":"{\"size\":144,\"mobile\":68,\"satellite\":0,\"tor\":0,\"tor_exit_nodes\":0,\"vpn\":2,\"relay\":0,\"proxy\":0,\"hosting\":0,\"service\":0}"},"geometry":{"type":"Point","coordinates":[16.92993,52.40692]}},{"type":"Feature","properties":{"country_code":"KOR","city":"Daejeon","geoname_id":"1835235","downloaders":"{\"size\":10536,\"mobile\":3,\"satellite\":0,\"tor\":0,\"tor_exit_nodes\":0,\"vpn\":239,\"relay\":0,\"proxy\":0,\"hosting\":0,\"service\":43}","uploaders":"{\"size\":7,\"mobile\":0,\"satellite\":0,\"tor\":0,\"tor_exit_nodes\":0,\"vpn\":0,\"relay\":0,\"proxy\":0,\"hosting\":0,\"service\":0}"},"geometry":{"type":"Point","coordinates":[127.38493,36.34913]}},{"type":"Feature","properties":{"country_code":"RUS","city":"Lipetsk","geoname_id":"535121","downloaders":"{\"size\":10465,\"mobile\":1449,\"satellite\":0,\"tor\":0,\"tor_exit_nodes\":0,\"vpn\":93,\"relay\":0,\"proxy\":0,\"hosting\":0,\"service\":4}","uploaders":"{\"size\":109,\"mobile\":20,\"satellite\":0,\"tor\":0,\"tor_exit_nodes\":0,\"vpn\":0,\"relay\":0,\"proxy\":0,\"hosting\":0,\"service\":0}"},"geometry":{"type":"Point","coordinates":[39.57076,52.60311]}},{"type":"Feature","properties":{"country_code":"USA","city":"Seattle","geoname_id":"5809844","downloaders":"{\"size\":10325,\"mobile\":146,\"satellite\":109,\"tor\":0,\"tor_exit_nodes\":0,\"vpn\":5943,\"relay\":1,\"proxy\":0,\"hosting\":8375,\"service\":5598}","uploaders":"{\"size\":1287,\"mobile\":22,\"satellite\":17,\"tor\":0,\"tor_exit_nodes\":0,\"vpn\":1005,\"relay\":0,\"proxy\":0,\"hosting\":1148,\"service\":974}"},"geometry":{"type":"Point","coordinates":[-122.3129,47.5413]}},{"type":"Feature","properties":{"country_code":"HRV","city":"Zagreb","geoname_id":"3186886","downloaders":"{\"size\":10179,\"mobile\":997,\"satellite\":0,\"tor\":0,\"tor_exit_nodes\":0,\"vpn\":269,\"relay\":0,\"proxy\":0,\"hosting\":239,\"service\":223}","uploaders":"{\"size\":1107,\"mobile\":187,\"satellite\":0,\"tor\":0,\"tor_exit_nodes\":0,\"vpn\":29,\"relay\":0,\"proxy\":0,\"hosting\":26,\"service\":27}"},"geometry":{"type":"Point","coordinates":[15.97798,45.81444]}},{"type":"Feature","properties":{"country_code":"CZE","city":"Prague","geoname_id":"3067696","downloaders":"{\"size\":10130,\"mobile\":766,\"satellite\":3,\"tor\":0,\"tor_exit_nodes\":0,\"vpn\":1585,\"relay\":7,\"proxy\":0,\"hosting\":2220,\"service\":1380}","uploaders":"{\"size\":330,\"mobile\":16,\"satellite\":0,\"tor\":0,\"tor_exit_nodes\":0,\"vpn\":210,\"relay\":1,\"proxy\":0,\"hosting\":220,\"service\":207}"},"geometry":{"type":"Point","coordinates":[14.42076,50.08804]}},{"type":"Feature","properties":{"country_code":"RUS","city":"Yaroslavl","geoname_id":"468902","downloaders":"{\"size\":10073,\"mobile\":949,\"satellite\":0,\"tor\":0,\"tor_exit_nodes\":0,\"vpn\":86,\"relay\":0,\"proxy\":0,\"hosting\":0,\"service\":1}","uploaders":"{\"size\":176,\"mobile\":44,\"satellite\":0,\"tor\":0,\"tor_exit_nodes\":0,\"vpn\":1,\"relay\":0,\"proxy\":0,\"hosting\":0,\"service\":0}"},"geometry":{"type":"Point","coordinates":[39.87368,57.62987]}},{"type":"Feature","properties":{"country_code":"RUS","city":"Irkutsk","geoname_id":"2023469","downloaders":"{\"size\":9980,\"mobile\":816,\"satellite\":0,\"tor\":0,\"tor_exit_nodes\":0,\"vpn\":9,\"relay\":0,\"proxy\":0,\"hosting\":0,\"service\":1}","uploaders":"{\"size\":157,\"mobile\":23,\"satellite\":0,\"tor\":0,\"tor_exit_nodes\":0,\"vpn\":0,\"relay\":0,\"proxy\":0,\"hosting\":0,\"service\":0}"},"geometry":{"type":"Point","coordinates":[104.29585,52.29795]}},{"type":"Feature","properties":{"country_code":"KOR","city":"Hwaseong-si","geoname_id":"1843847","downloaders":"{\"size\":9975,\"mobile\":3,\"satellite\":0,\"tor\":0,\"tor_exit_nodes\":0,\"vpn\":171,\"relay\":0,\"proxy\":0,\"hosting\":0,\"service\":14}","uploaders":"{\"size\":8,\"mobile\":0,\"satellite\":0,\"tor\":0,\"tor_exit_nodes\":0,\"vpn\":0,\"relay\":0,\"proxy\":0,\"hosting\":0,\"service\":0}"},"geometry":{"type":"Point","coordinates":[126.8169,37.20682]}},{"type":"Feature","properties":{"country_code":"IRQ","city":"Baghdad","geoname_id":"98182","downloaders":"{\"size\":9687,\"mobile\":26,\"satellite\":0,\"tor\":0,\"tor_exit_nodes\":0,\"vpn\":7,\"relay\":0,\"proxy\":0,\"hosting\":6,\"service\":0}","uploaders":"{\"size\":10,\"mobile\":2,\"satellite\":0,\"tor\":0,\"tor_exit_nodes\":0,\"vpn\":0,\"relay\":0,\"proxy\":0,\"hosting\":0,\"service\":0}"},"geometry":{"type":"Point","coordinates":[44.40088,33.34058]}},{"type":"Feature","properties":{"country_code":"SGP","city":"Singapore","geoname_id":"1880252","downloaders":"{\"size\":9606,\"mobile\":513,\"satellite\":0,\"tor\":0,\"tor_exit_nodes\":0,\"vpn\":2682,\"relay\":15,\"proxy\":17,\"hosting\":5895,\"service\":2633}","uploaders":"{\"size\":865,\"mobile\":32,\"satellite\":0,\"tor\":0,\"tor_exit_nodes\":0,\"vpn\":449,\"relay\":1,\"proxy\":8,\"hosting\":682,\"service\":446}"},"geometry":{"type":"Point","coordinates":[103.7907,1.2959]}},{"type":"Feature","properties":{"country_code":"FRA","city":"Calais","geoname_id":"3029162","downloaders":"{\"size\":9489,\"mobile\":234,\"satellite\":0,\"tor\":5,\"tor_exit_nodes\":5,\"vpn\":272,\"relay\":0,\"proxy\":11,\"hosting\":8997,\"service\":24}","uploaders":"{\"size\":57,\"mobile\":0,\"satellite\":0,\"tor\":0,\"tor_exit_nodes\":0,\"vpn\":0,\"relay\":0,\"proxy\":0,\"hosting\":57,\"service\":0}"},"geometry":{"type":"Point","coordinates":[1.85635,50.95194]}},{"type":"Feature","properties":{"country_code":"KOR","city":"Seongnam-si","geoname_id":"1897000","downloaders":"{\"size\":9454,\"mobile\":6,\"satellite\":0,\"tor\":0,\"tor_exit_nodes\":0,\"vpn\":153,\"relay\":0,\"proxy\":0,\"hosting\":0,\"service\":25}","uploaders":"{\"size\":16,\"mobile\":0,\"satellite\":0,\"tor\":0,\"tor_exit_nodes\":0,\"vpn\":0,\"relay\":0,\"proxy\":0,\"hosting\":0,\"service\":0}"},"geometry":{"type":"Point","coordinates":[127.13778,37.43861]}},{"type":"Feature","properties":{"country_code":"IRL","city":"Dublin","geoname_id":"2964574","downloaders":"{\"size\":9288,\"mobile\":946,\"satellite\":0,\"tor\":0,\"tor_exit_nodes\":0,\"vpn\":954,\"relay\":21,\"proxy\":0,\"hosting\":3424,\"service\":933}","uploaders":"{\"size\":641,\"mobile\":163,\"satellite\":0,\"tor\":0,\"tor_exit_nodes\":0,\"vpn\":127,\"relay\":5,\"proxy\":0,\"hosting\":204,\"service\":127}"},"geometry":{"type":"Point","coordinates":[-6.24889,53.33306]}},{"type":"Feature","properties":{"country_code":"USA","city":"Chicago","geoname_id":"4887398","downloaders":"{\"size\":9286,\"mobile\":260,\"satellite\":49,\"tor\":0,\"tor_exit_nodes\":11,\"vpn\":4196,\"relay\":0,\"proxy\":1,\"hosting\":4933,\"service\":3663}","uploaders":"{\"size\":1137,\"mobile\":74,\"satellite\":2,\"tor\":0,\"tor_exit_nodes\":0,\"vpn\":811,\"relay\":0,\"proxy\":0,\"hosting\":882,\"service\":759}"},"geometry":{"type":"Point","coordinates":[-87.65005,41.85003]}},{"type":"Feature","properties":{"country_code":"CHE","city":"Zürich","geoname_id":"2657896","downloaders":"{\"size\":9276,\"mobile\":1038,\"satellite\":0,\"tor\":17,\"tor_exit_nodes\":9,\"vpn\":5002,\"relay\":2,\"proxy\":4,\"hosting\":4808,\"service\":4713}","uploaders":"{\"size\":1088,\"mobile\":189,\"satellite\":0,\"tor\":0,\"tor_exit_nodes\":0,\"vpn\":696,\"relay\":0,\"proxy\":0,\"hosting\":661,\"service\":640}"},"geometry":{"type":"Point","coordinates":[8.55,47.36667]}},{"type":"Feature","properties":{"country_code":"KOR","city":"Goyang-si","geoname_id":"1842485","downloaders":"{\"size\":9226,\"mobile\":0,\"satellite\":0,\"tor\":0,\"tor_exit_nodes\":0,\"vpn\":127,\"relay\":0,\"proxy\":0,\"hosting\":3,\"service\":16}","uploaders":"{\"size\":6,\"mobile\":0,\"satellite\":0,\"tor\":0,\"tor_exit_nodes\":0,\"vpn\":0,\"relay\":0,\"proxy\":0,\"hosting\":0,\"service\":0}"},"geometry":{"type":"Point","coordinates":[126.835,37.65639]}},{"type":"Feature","properties":{"country_code":"RUS","city":"Balashikha","geoname_id":"579464","downloaders":"{\"size\":9222,\"mobile\":199,\"satellite\":0,\"tor\":0,\"tor_exit_nodes\":0,\"vpn\":543,\"relay\":0,\"proxy\":0,\"hosting\":415,\"service\":52}","uploaders":"{\"size\":108,\"mobile\":8,\"satellite\":0,\"tor\":0,\"tor_exit_nodes\":0,\"vpn\":4,\"relay\":0,\"proxy\":0,\"hosting\":7,\"service\":3}"},"geometry":{"type":"Point","coordinates":[37.94794,55.79479]}},{"type":"Feature","properties":{"country_code":"RUS","city":"Tver","geoname_id":"480060","downloaders":"{\"size\":9169,\"mobile\":153,\"satellite\":0,\"tor\":0,\"tor_exit_nodes\":0,\"vpn\":114,\"relay\":0,\"proxy\":0,\"hosting\":53,\"service\":20}","uploaders":"{\"size\":94,\"mobile\":14,\"satellite\":0,\"tor\":0,\"tor_exit_nodes\":0,\"vpn\":0,\"relay\":0,\"proxy\":0,\"hosting\":1,\"service\":0}"},"geometry":{"type":"Point","coordinates":[35.90057,56.85836]}},{"type":"Feature","properties":{"country_code":"KOR","city":"Gwangju","geoname_id":"1841811","downloaders":"{\"size\":8987,\"mobile\":1,\"satellite\":0,\"tor\":0,\"tor_exit_nodes\":0,\"vpn\":26,\"relay\":0,\"proxy\":0,\"hosting\":0,\"service\":2}","uploaders":"{\"size\":14,\"mobile\":0,\"satellite\":0,\"tor\":0,\"tor_exit_nodes\":0,\"vpn\":0,\"relay\":0,\"proxy\":0,\"hosting\":0,\"service\":0}"},"geometry":{"type":"Point","coordinates":[126.91556,35.15472]}},{"type":"Feature","properties":{"country_code":"DEU","city":"Berlin","geoname_id":"2950159","downloaders":"{\"size\":8842,\"mobile\":2974,\"satellite\":37,\"tor\":128,\"tor_exit_nodes\":144,\"vpn\":938,\"relay\":3,\"proxy\":0,\"hosting\":1120,\"service\":819}","uploaders":"{\"size\":139,\"mobile\":19,\"satellite\":1,\"tor\":2,\"tor_exit_nodes\":2,\"vpn\":91,\"relay\":0,\"proxy\":0,\"hosting\":92,\"service\":88}"},"geometry":{"type":"Point","coordinates":[13.41053,52.52437]}},{"type":"Feature","properties":{"country_code":"RUS","city":"Penza","geoname_id":"511565","downloaders":"{\"size\":8724,\"mobile\":795,\"satellite\":0,\"tor\":0,\"tor_exit_nodes\":0,\"vpn\":57,\"relay\":0,\"proxy\":0,\"hosting\":0,\"service\":4}","uploaders":"{\"size\":91,\"mobile\":12,\"satellite\":0,\"tor\":0,\"tor_exit_nodes\":0,\"vpn\":0,\"relay\":0,\"proxy\":0,\"hosting\":0,\"service\":0}"},"geometry":{"type":"Point","coordinates":[45.00464,53.20066]}},{"type":"Feature","properties":{"country_code":"RUS","city":"Bryansk","geoname_id":"571476","downloaders":"{\"size\":8609,\"mobile\":6,\"satellite\":0,\"tor\":0,\"tor_exit_nodes\":0,\"vpn\":103,\"relay\":0,\"proxy\":0,\"hosting\":0,\"service\":7}","uploaders":"{\"size\":129,\"mobile\":0,\"satellite\":0,\"tor\":0,\"tor_exit_nodes\":0,\"vpn\":0,\"relay\":0,\"proxy\":0,\"hosting\":0,\"service\":0}"},"geometry":{"type":"Point","coordinates":[34.37167,53.25209]}},{"type":"Feature","properties":{"country_code":"RUS","city":"Tolyatti","geoname_id":"482283","downloaders":"{\"size\":8473,\"mobile\":4,\"satellite\":0,\"tor\":0,\"tor_exit_nodes\":0,\"vpn\":64,\"relay\":0,\"proxy\":0,\"hosting\":0,\"service\":2}","uploaders":"{\"size\":149,\"mobile\":1,\"satellite\":0,\"tor\":0,\"tor_exit_nodes\":0,\"vpn\":1,\"relay\":0,\"proxy\":0,\"hosting\":0,\"service\":0}"},"geometry":{"type":"Point","coordinates":[49.3461,53.5303]}},{"type":"Feature","properties":{"country_code":"RUS","city":"Ulyanovsk","geoname_id":"479123","downloaders":"{\"size\":8463,\"mobile\":479,\"satellite\":0,\"tor\":0,\"tor_exit_nodes\":0,\"vpn\":55,\"relay\":0,\"proxy\":0,\"hosting\":0,\"service\":11}","uploaders":"{\"size\":148,\"mobile\":16,\"satellite\":0,\"tor\":0,\"tor_exit_nodes\":0,\"vpn\":1,\"relay\":0,\"proxy\":0,\"hosting\":0,\"service\":0}"},"geometry":{"type":"Point","coordinates":[48.38657,54.32824]}},{"type":"Feature","properties":{"country_code":"RUS","city":"Orenburg","geoname_id":"515003","downloaders":"{\"size\":8443,\"mobile\":17,\"satellite\":0,\"tor\":0,\"tor_exit_nodes\":0,\"vpn\":284,\"relay\":0,\"proxy\":0,\"hosting\":0,\"service\":246}","uploaders":"{\"size\":61,\"mobile\":0,\"satellite\":0,\"tor\":0,\"tor_exit_nodes\":0,\"vpn\":5,\"relay\":0,\"proxy\":0,\"hosting\":0,\"service\":5}"},"geometry":{"type":"Point","coordinates":[55.0988,51.7727]}},{"type":"Feature","properties":{"country_code":"KOR","city":"Ansan-si","geoname_id":"1846918","downloaders":"{\"size\":8272,\"mobile\":0,\"satellite\":0,\"tor\":0,\"tor_exit_nodes\":0,\"vpn\":120,\"relay\":0,\"proxy\":0,\"hosting\":0,\"service\":3}","uploaders":"{\"size\":7,\"mobile\":0,\"satellite\":0,\"tor\":0,\"tor_exit_nodes\":0,\"vpn\":0,\"relay\":0,\"proxy\":0,\"hosting\":0,\"service\":0}"},"geometry":{"type":"Point","coordinates":[126.82194,37.32361]}},{"type":"Feature","properties":{"country_code":"RUS","city":"Kirov","geoname_id":"548408","downloaders":"{\"size\":8203,\"mobile\":9,\"satellite\":0,\"tor\":0,\"tor_exit_nodes\":0,\"vpn\":721,\"relay\":0,\"proxy\":0,\"hosting\":0,\"service\":664}","uploaders":"{\"size\":206,\"mobile\":0,\"satellite\":0,\"tor\":0,\"tor_exit_nodes\":0,\"vpn\":20,\"relay\":0,\"proxy\":0,\"hosting\":0,\"service\":19}"},"geometry":{"type":"Point","coordinates":[49.66007,58.59665]}},{"type":"Feature","properties":{"country_code":"GRC","city":"Athens","geoname_id":"264371","downloaders":"{\"size\":8096,\"mobile\":1109,\"satellite\":4,\"tor\":0,\"tor_exit_nodes\":0,\"vpn\":396,\"relay\":0,\"proxy\":0,\"hosting\":558,\"service\":370}","uploaders":"{\"size\":1562,\"mobile\":256,\"satellite\":0,\"tor\":0,\"tor_exit_nodes\":0,\"vpn\":56,\"relay\":0,\"proxy\":0,\"hosting\":85,\"service\":51}"},"geometry":{"type":"Point","coordinates":[23.72784,37.98376]}},{"type":"Feature","properties":{"country_code":"TUR","city":"Gaziantep","geoname_id":"314830","downloaders":"{\"size\":8063,\"mobile\":494,\"satellite\":0,\"tor\":0,\"tor_exit_nodes\":0,\"vpn\":2,\"relay\":0,\"proxy\":0,\"hosting\":0,\"service\":0}","uploaders":"{\"size\":8,\"mobile\":0,\"satellite\":0,\"tor\":0,\"tor_exit_nodes\":0,\"vpn\":0,\"relay\":0,\"proxy\":0,\"hosting\":0,\"service\":0}"},"geometry":{"type":"Point","coordinates":[37.3825,37.05944]}},{"type":"Feature","properties":{"country_code":"ISR","city":"Tel Aviv","geoname_id":"293397","downloaders":"{\"size\":7829,\"mobile\":1722,\"satellite\":0,\"tor\":0,\"tor_exit_nodes\":0,\"vpn\":304,\"relay\":86,\"proxy\":0,\"hosting\":483,\"service\":355}","uploaders":"{\"size\":1430,\"mobile\":271,\"satellite\":0,\"tor\":0,\"tor_exit_nodes\":0,\"vpn\":76,\"relay\":14,\"proxy\":0,\"hosting\":122,\"service\":86}"},"geometry":{"type":"Point","coordinates":[34.78057,32.08088]}},{"type":"Feature","properties":{"country_code":"PRT","city":"Lisbon","geoname_id":"2267057","downloaders":"{\"size\":7684,\"mobile\":667,\"satellite\":0,\"tor\":0,\"tor_exit_nodes\":0,\"vpn\":350,\"relay\":14,\"proxy\":0,\"hosting\":425,\"service\":329}","uploaders":"{\"size\":675,\"mobile\":107,\"satellite\":0,\"tor\":0,\"tor_exit_nodes\":0,\"vpn\":68,\"relay\":3,\"proxy\":0,\"hosting\":81,\"service\":68}"},"geometry":{"type":"Point","coordinates":[-9.1498,38.72509]}},{"type":"Feature","properties":{"country_code":"RUS","city":"Kamensk-Ural’skiy","geoname_id":"1504826","downloaders":"{\"size\":7662,\"mobile\":0,\"satellite\":0,\"tor\":0,\"tor_exit_nodes\":0,\"vpn\":8,\"relay\":0,\"proxy\":4,\"hosting\":0,\"service\":2}","uploaders":"{\"size\":9,\"mobile\":0,\"satellite\":0,\"tor\":0,\"tor_exit_nodes\":0,\"vpn\":0,\"relay\":0,\"proxy\":0,\"hosting\":0,\"service\":0}"},"geometry":{"type":"Point","coordinates":[61.93347,56.40626]}},{"type":"Feature","properties":{"country_code":"TUR","city":"Antalya","geoname_id":"323777","downloaders":"{\"size\":7620,\"mobile\":3868,\"satellite\":0,\"tor\":0,\"tor_exit_nodes\":0,\"vpn\":3,\"relay\":0,\"proxy\":0,\"hosting\":0,\"service\":0}","uploaders":"{\"size\":44,\"mobile\":20,\"satellite\":0,\"tor\":0,\"tor_exit_nodes\":0,\"vpn\":0,\"relay\":0,\"proxy\":0,\"hosting\":0,\"service\":0}"},"geometry":{"type":"Point","coordinates":[30.69556,36.90812]}},{"type":"Feature","properties":{"country_code":"USA","city":"Phoenix","geoname_id":"5308655","downloaders":"{\"size\":7589,\"mobile\":94,\"satellite\":13,\"tor\":0,\"tor_exit_nodes\":1,\"vpn\":1049,\"relay\":0,\"proxy\":0,\"hosting\":4336,\"service\":993}","uploaders":"{\"size\":422,\"mobile\":17,\"satellite\":3,\"tor\":0,\"tor_exit_nodes\":0,\"vpn\":248,\"relay\":0,\"proxy\":0,\"hosting\":357,\"service\":232}"},"geometry":{"type":"Point","coordinates":[-112.07404,33.44838]}},{"type":"Feature","properties":{"country_code":"RUS","city":"Cheboksary","geoname_id":"569696","downloaders":"{\"size\":7515,\"mobile\":1043,\"satellite\":0,\"tor\":0,\"tor_exit_nodes\":0,\"vpn\":82,\"relay\":0,\"proxy\":0,\"hosting\":0,\"service\":9}","uploaders":"{\"size\":54,\"mobile\":14,\"satellite\":0,\"tor\":0,\"tor_exit_nodes\":0,\"vpn\":0,\"relay\":0,\"proxy\":0,\"hosting\":0,\"service\":0}"},"geometry":{"type":"Point","coordinates":[47.25194,56.13222]}},{"type":"Feature","properties":{"country_code":"USA","city":"Atlanta","geoname_id":"4180439","downloaders":"{\"size\":7511,\"mobile\":54,\"satellite\":18,\"tor\":0,\"tor_exit_nodes\":0,\"vpn\":2494,\"relay\":0,\"proxy\":0,\"hosting\":3670,\"service\":2283}","uploaders":"{\"size\":568,\"mobile\":1,\"satellite\":5,\"tor\":0,\"tor_exit_nodes\":0,\"vpn\":346,\"relay\":0,\"proxy\":0,\"hosting\":520,\"service\":328}"},"geometry":{"type":"Point","coordinates":[-84.38798,33.749]}},{"type":"Feature","properties":{"country_code":"RUS","city":"Izhevsk","geoname_id":"554840","downloaders":"{\"size\":7423,\"mobile\":679,\"satellite\":0,\"tor\":0,\"tor_exit_nodes\":0,\"vpn\":63,\"relay\":0,\"proxy\":0,\"hosting\":8,\"service\":8}","uploaders":"{\"size\":109,\"mobile\":32,\"satellite\":0,\"tor\":0,\"tor_exit_nodes\":0,\"vpn\":1,\"relay\":0,\"proxy\":0,\"hosting\":0,\"service\":0}"},"geometry":{"type":"Point","coordinates":[53.20448,56.84976]}},{"type":"Feature","properties":{"country_code":"USA","city":"Miami","geoname_id":"4164138","downloaders":"{\"size\":7313,\"mobile\":51,\"satellite\":10,\"tor\":2,\"tor_exit_nodes\":2,\"vpn\":5174,\"relay\":0,\"proxy\":0,\"hosting\":5725,\"service\":5119}","uploaders":"{\"size\":835,\"mobile\":4,\"satellite\":3,\"tor\":0,\"tor_exit_nodes\":0,\"vpn\":727,\"relay\":0,\"proxy\":0,\"hosting\":720,\"service\":720}"},"geometry":{"type":"Point","coordinates":[-80.19366,25.77427]}},{"type":"Feature","properties":{"country_code":"KOR","city":"Cheongju-si","geoname_id":"1845604","downloaders":"{\"size\":7158,\"mobile\":1,\"satellite\":0,\"tor\":0,\"tor_exit_nodes\":0,\"vpn\":50,\"relay\":0,\"proxy\":0,\"hosting\":0,\"service\":6}","uploaders":"{\"size\":3,\"mobile\":0,\"satellite\":0,\"tor\":0,\"tor_exit_nodes\":0,\"vpn\":1,\"relay\":0,\"proxy\":0,\"hosting\":0,\"service\":1}"},"geometry":{"type":"Point","coordinates":[127.48972,36.63722]}},{"type":"Feature","properties":{"country_code":"AUT","city":"Vienna","geoname_id":"2761369","downloaders":"{\"size\":7099,\"mobile\":894,\"satellite\":1,\"tor\":12,\"tor_exit_nodes\":15,\"vpn\":926,\"relay\":4,\"proxy\":9,\"hosting\":1104,\"service\":882}","uploaders":"{\"size\":425,\"mobile\":127,\"satellite\":0,\"tor\":0,\"tor_exit_nodes\":0,\"vpn\":141,\"relay\":0,\"proxy\":0,\"hosting\":161,\"service\":139}"},"geometry":{"type":"Point","coordinates":[16.37208,48.20849]}},{"type":"Feature","properties":{"country_code":"CAN","city":"Vancouver","geoname_id":"6173331","downloaders":"{\"size\":7012,\"mobile\":255,\"satellite\":21,\"tor\":0,\"tor_exit_nodes\":0,\"vpn\":3777,\"relay\":0,\"proxy\":0,\"hosting\":3389,\"service\":3408}","uploaders":"{\"size\":828,\"mobile\":28,\"satellite\":6,\"tor\":0,\"tor_exit_nodes\":0,\"vpn\":565,\"relay\":0,\"proxy\":0,\"hosting\":528,\"service\":526}"},"geometry":{"type":"Point","coordinates":[-123.11934,49.24966]}},{"type":"Feature","properties":{"country_code":"GRC","city":"Thessaloníki","geoname_id":"734077","downloaders":"{\"size\":7000,\"mobile\":497,\"satellite\":0,\"tor\":0,\"tor_exit_nodes\":0,\"vpn\":5,\"relay\":0,\"proxy\":0,\"hosting\":143,\"service\":3}","uploaders":"{\"size\":918,\"mobile\":134,\"satellite\":0,\"tor\":0,\"tor_exit_nodes\":0,\"vpn\":0,\"relay\":0,\"proxy\":0,\"hosting\":13,\"service\":0}"},"geometry":{"type":"Point","coordinates":[22.93086,40.64361]}},{"type":"Feature","properties":{"country_code":"RUS","city":"Surgut","geoname_id":"1490624","downloaders":"{\"size\":6975,\"mobile\":715,\"satellite\":0,\"tor\":0,\"tor_exit_nodes\":0,\"vpn\":39,\"relay\":0,\"proxy\":0,\"hosting\":13,\"service\":12}","uploaders":"{\"size\":114,\"mobile\":23,\"satellite\":0,\"tor\":0,\"tor_exit_nodes\":0,\"vpn\":0,\"relay\":0,\"proxy\":0,\"hosting\":0,\"service\":0}"},"geometry":{"type":"Point","coordinates":[73.41775,61.25757]}},{"type":"Feature","properties":{"country_code":"EGY","city":"Cairo","geoname_id":"360630","downloaders":"{\"size\":6801,\"mobile\":235,\"satellite\":0,\"tor\":0,\"tor_exit_nodes\":0,\"vpn\":17,\"relay\":0,\"proxy\":0,\"hosting\":14,\"service\":12}","uploaders":"{\"size\":465,\"mobile\":40,\"satellite\":0,\"tor\":0,\"tor_exit_nodes\":0,\"vpn\":4,\"relay\":0,\"proxy\":0,\"hosting\":4,\"service\":4}"},"geometry":{"type":"Point","coordinates":[31.24967,30.06263]}},{"type":"Feature","properties":{"country_code":"USA","city":"Dallas","geoname_id":"4684888","downloaders":"{\"size\":6789,\"mobile\":215,\"satellite\":60,\"tor\":0,\"tor_exit_nodes\":0,\"vpn\":3804,\"relay\":0,\"proxy\":4,\"hosting\":5081,\"service\":3612}","uploaders":"{\"size\":960,\"mobile\":33,\"satellite\":17,\"tor\":0,\"tor_exit_nodes\":0,\"vpn\":649,\"relay\":0,\"proxy\":1,\"hosting\":827,\"service\":634}"},"geometry":{"type":"Point","coordinates":[-96.826,32.8456]}},{"type":"Feature","properties":{"country_code":"KOR","city":"Anyang-si","geoname_id":"1846898","downloaders":"{\"size\":6780,\"mobile\":3,\"satellite\":0,\"tor\":0,\"tor_exit_nodes\":0,\"vpn\":118,\"relay\":0,\"proxy\":0,\"hosting\":0,\"service\":27}","uploaders":"{\"size\":6,\"mobile\":0,\"satellite\":0,\"tor\":0,\"tor_exit_nodes\":0,\"vpn\":0,\"relay\":0,\"proxy\":0,\"hosting\":0,\"service\":0}"},"geometry":{"type":"Point","coordinates":[126.92694,37.3925]}},{"type":"Feature","properties":{"country_code":"KOR","city":"Bucheon-si","geoname_id":"1838716","downloaders":"{\"size\":6751,\"mobile\":1,\"satellite\":0,\"tor\":0,\"tor_exit_nodes\":0,\"vpn\":130,\"relay\":0,\"proxy\":0,\"hosting\":0,\"service\":10}","uploaders":"{\"size\":6,\"mobile\":0,\"satellite\":0,\"tor\":0,\"tor_exit_nodes\":0,\"vpn\":0,\"relay\":0,\"proxy\":0,\"hosting\":0,\"service\":0}"},"geometry":{"type":"Point","coordinates":[126.78306,37.49889]}},{"type":"Feature","properties":{"country_code":"KOR","city":"Haegok","geoname_id":"6398843","downloaders":"{\"size\":6748,\"mobile\":2,\"satellite\":0,\"tor\":0,\"tor_exit_nodes\":0,\"vpn\":119,\"relay\":0,\"proxy\":0,\"hosting\":0,\"service\":1}","uploaders":"{\"size\":10,\"mobile\":0,\"satellite\":0,\"tor\":0,\"tor_exit_nodes\":0,\"vpn\":0,\"relay\":0,\"proxy\":0,\"hosting\":0,\"service\":0}"},"geometry":{"type":"Point","coordinates":[127.27880999999999,37.19251]}},{"type":"Feature","properties":{"country_code":"MDA","city":"Chisinau","geoname_id":"618426","downloaders":"{\"size\":6737,\"mobile\":99,\"satellite\":0,\"tor\":1,\"tor_exit_nodes\":2,\"vpn\":155,\"relay\":0,\"proxy\":1,\"hosting\":356,\"service\":122}","uploaders":"{\"size\":109,\"mobile\":3,\"satellite\":0,\"tor\":1,\"tor_exit_nodes\":1,\"vpn\":16,\"relay\":0,\"proxy\":0,\"hosting\":23,\"service\":15}"},"geometry":{"type":"Point","coordinates":[28.85938,47.00902]}},{"type":"Feature","properties":{"country_code":"CAN","city":"Barrie","geoname_id":"5894171","downloaders":"{\"size\":6700,\"mobile\":22,\"satellite\":0,\"tor\":0,\"tor_exit_nodes\":0,\"vpn\":2,\"relay\":0,\"proxy\":0,\"hosting\":2957,\"service\":0}","uploaders":"{\"size\":3382,\"mobile\":0,\"satellite\":0,\"tor\":0,\"tor_exit_nodes\":0,\"vpn\":0,\"relay\":0,\"proxy\":0,\"hosting\":1074,\"service\":0}"},"geometry":{"type":"Point","coordinates":[-79.66634,44.40011]}},{"type":"Feature","properties":{"country_code":"RUS","city":"Kaliningrad","geoname_id":"554234","downloaders":"{\"size\":6698,\"mobile\":28,\"satellite\":0,\"tor\":0,\"tor_exit_nodes\":0,\"vpn\":38,\"relay\":0,\"proxy\":0,\"hosting\":4,\"service\":0}","uploaders":"{\"size\":221,\"mobile\":0,\"satellite\":0,\"tor\":0,\"tor_exit_nodes\":0,\"vpn\":1,\"relay\":0,\"proxy\":0,\"hosting\":0,\"service\":0}"},"geometry":{"type":"Point","coordinates":[20.51095,54.70649]}},{"type":"Feature","properties":{"country_code":"RUS","city":"Ryazan’","geoname_id":"500096","downloaders":"{\"size\":6650,\"mobile\":169,\"satellite\":0,\"tor\":0,\"tor_exit_nodes\":2,\"vpn\":119,\"relay\":0,\"proxy\":0,\"hosting\":13,\"service\":42}","uploaders":"{\"size\":99,\"mobile\":9,\"satellite\":0,\"tor\":0,\"tor_exit_nodes\":0,\"vpn\":1,\"relay\":0,\"proxy\":0,\"hosting\":0,\"service\":1}"},"geometry":{"type":"Point","coordinates":[39.6916,54.6269]}},{"type":"Feature","properties":{"country_code":"RUS","city":"Odintsovo","geoname_id":"516215","downloaders":"{\"size\":6588,\"mobile\":5,\"satellite\":0,\"tor\":0,\"tor_exit_nodes\":0,\"vpn\":181,\"relay\":0,\"proxy\":0,\"hosting\":63,\"service\":0}","uploaders":"{\"size\":132,\"mobile\":0,\"satellite\":0,\"tor\":0,\"tor_exit_nodes\":0,\"vpn\":0,\"relay\":0,\"proxy\":0,\"hosting\":0,\"service\":0}"},"geometry":{"type":"Point","coordinates":[37.27716,55.66977]}},{"type":"Feature","properties":{"country_code":"PRT","city":"Porto","geoname_id":"2735943","downloaders":"{\"size\":6559,\"mobile\":267,\"satellite\":0,\"tor\":0,\"tor_exit_nodes\":0,\"vpn\":55,\"relay\":1,\"proxy\":0,\"hosting\":1,\"service\":1}","uploaders":"{\"size\":302,\"mobile\":35,\"satellite\":0,\"tor\":0,\"tor_exit_nodes\":0,\"vpn\":1,\"relay\":0,\"proxy\":0,\"hosting\":0,\"service\":0}"},"geometry":{"type":"Point","coordinates":[-8.61099,41.14961]}},{"type":"Feature","properties":{"country_code":"NLD","city":"Haarlem","geoname_id":"2755003","downloaders":"{\"size\":6507,\"mobile\":1,\"satellite\":0,\"tor\":0,\"tor_exit_nodes\":0,\"vpn\":3340,\"relay\":2,\"proxy\":0,\"hosting\":6146,\"service\":760}","uploaders":"{\"size\":140,\"mobile\":1,\"satellite\":0,\"tor\":0,\"tor_exit_nodes\":0,\"vpn\":64,\"relay\":0,\"proxy\":0,\"hosting\":129,\"service\":56}"},"geometry":{"type":"Point","coordinates":[4.63683,52.38084]}},{"type":"Feature","properties":{"country_code":"EST","city":"Tallinn","geoname_id":"588409","downloaders":"{\"size\":6506,\"mobile\":349,\"satellite\":0,\"tor\":0,\"tor_exit_nodes\":0,\"vpn\":511,\"relay\":0,\"proxy\":0,\"hosting\":720,\"service\":441}","uploaders":"{\"size\":327,\"mobile\":66,\"satellite\":0,\"tor\":0,\"tor_exit_nodes\":0,\"vpn\":59,\"relay\":0,\"proxy\":0,\"hosting\":77,\"service\":57}"},"geometry":{"type":"Point","coordinates":[24.75353,59.43696]}},{"type":"Feature","properties":{"country_code":"RUS","city":"Khabarovsk","geoname_id":"2022890","downloaders":"{\"size\":6494,\"mobile\":599,\"satellite\":11,\"tor\":0,\"tor_exit_nodes\":0,\"vpn\":104,\"relay\":0,\"proxy\":0,\"hosting\":25,\"service\":98}","uploaders":"{\"size\":258,\"mobile\":25,\"satellite\":2,\"tor\":0,\"tor_exit_nodes\":0,\"vpn\":10,\"relay\":0,\"proxy\":0,\"hosting\":2,\"service\":10}"},"geometry":{"type":"Point","coordinates":[135.08822,48.48032]}},{"type":"Feature","properties":{"country_code":"RUS","city":"Kaluga","geoname_id":"553915","downloaders":"{\"size\":6446,\"mobile\":5,\"satellite\":0,\"tor\":0,\"tor_exit_nodes\":0,\"vpn\":42,\"relay\":0,\"proxy\":0,\"hosting\":7,\"service\":0}","uploaders":"{\"size\":157,\"mobile\":0,\"satellite\":0,\"tor\":0,\"tor_exit_nodes\":0,\"vpn\":1,\"relay\":0,\"proxy\":0,\"hosting\":0,\"service\":0}"},"geometry":{"type":"Point","coordinates":[36.27542,54.5293]}},{"type":"Feature","properties":{"country_code":"ZAF","city":"Johannesburg","geoname_id":"993800","downloaders":"{\"size\":6410,\"mobile\":1625,\"satellite\":6,\"tor\":0,\"tor_exit_nodes\":0,\"vpn\":574,\"relay\":0,\"proxy\":0,\"hosting\":1731,\"service\":529}","uploaders":"{\"size\":1097,\"mobile\":293,\"satellite\":0,\"tor\":0,\"tor_exit_nodes\":0,\"vpn\":72,\"relay\":0,\"proxy\":0,\"hosting\":242,\"service\":68}"},"geometry":{"type":"Point","coordinates":[28.04363,-26.20227]}},{"type":"Feature","properties":{"country_code":"BRA","city":"Colombo","geoname_id":"3465927","downloaders":"{\"size\":6399,\"mobile\":0,\"satellite\":0,\"tor\":0,\"tor_exit_nodes\":0,\"vpn\":3,\"relay\":0,\"proxy\":0,\"hosting\":0,\"service\":0}","uploaders":"{\"size\":38,\"mobile\":0,\"satellite\":0,\"tor\":0,\"tor_exit_nodes\":0,\"vpn\":0,\"relay\":0,\"proxy\":0,\"hosting\":0,\"service\":0}"},"geometry":{"type":"Point","coordinates":[-49.22417,-25.29167]}},{"type":"Feature","properties":{"country_code":"RUS","city":"Novokuznetsk","geoname_id":"1496990","downloaders":"{\"size\":6391,\"mobile\":4,\"satellite\":0,\"tor\":0,\"tor_exit_nodes\":0,\"vpn\":14,\"relay\":0,\"proxy\":0,\"hosting\":0,\"service\":0}","uploaders":"{\"size\":63,\"mobile\":0,\"satellite\":0,\"tor\":0,\"tor_exit_nodes\":0,\"vpn\":0,\"relay\":0,\"proxy\":0,\"hosting\":0,\"service\":0}"},"geometry":{"type":"Point","coordinates":[87.13599,53.75752]}},{"type":"Feature","properties":{"country_code":"POL","city":"Gdańsk","geoname_id":"3099434","downloaders":"{\"size\":6386,\"mobile\":65,\"satellite\":0,\"tor\":0,\"tor_exit_nodes\":0,\"vpn\":38,\"relay\":0,\"proxy\":0,\"hosting\":57,\"service\":12}","uploaders":"{\"size\":118,\"mobile\":1,\"satellite\":0,\"tor\":0,\"tor_exit_nodes\":0,\"vpn\":2,\"relay\":0,\"proxy\":0,\"hosting\":6,\"service\":2}"},"geometry":{"type":"Point","coordinates":[18.64912,54.35227]}},{"type":"Feature","properties":{"country_code":"TWN","city":"Taipei","geoname_id":"1668341","downloaders":"{\"size\":6331,\"mobile\":306,\"satellite\":0,\"tor\":3,\"tor_exit_nodes\":3,\"vpn\":388,\"relay\":11,\"proxy\":0,\"hosting\":293,\"service\":169}","uploaders":"{\"size\":224,\"mobile\":20,\"satellite\":0,\"tor\":0,\"tor_exit_nodes\":0,\"vpn\":10,\"relay\":0,\"proxy\":0,\"hosting\":48,\"service\":9}"},"geometry":{"type":"Point","coordinates":[121.52639,25.05306]}},{"type":"Feature","properties":{"country_code":"MEX","city":"Ciudad General Escobedo","geoname_id":"4005867","downloaders":"{\"size\":6318,\"mobile\":1,\"satellite\":0,\"tor\":0,\"tor_exit_nodes\":0,\"vpn\":3,\"relay\":0,\"proxy\":0,\"hosting\":0,\"service\":0}","uploaders":"{\"size\":12,\"mobile\":0,\"satellite\":0,\"tor\":0,\"tor_exit_nodes\":0,\"vpn\":0,\"relay\":0,\"proxy\":0,\"hosting\":0,\"service\":0}"},"geometry":{"type":"Point","coordinates":[-100.31791,25.79698]}},{"type":"Feature","properties":{"country_code":"COL","city":"Bogotá","geoname_id":"3688689","downloaders":"{\"size\":6297,\"mobile\":2752,\"satellite\":7,\"tor\":0,\"tor_exit_nodes\":0,\"vpn\":259,\"relay\":2,\"proxy\":0,\"hosting\":335,\"service\":189}","uploaders":"{\"size\":123,\"mobile\":26,\"satellite\":0,\"tor\":0,\"tor_exit_nodes\":0,\"vpn\":36,\"relay\":0,\"proxy\":0,\"hosting\":53,\"service\":28}"},"geometry":{"type":"Point","coordinates":[-74.08175,4.60971]}},{"type":"Feature","properties":{"country_code":"CHN","city":"Ningbo","geoname_id":"1799397","downloaders":"{\"size\":6287,\"mobile\":0,\"satellite\":0,\"tor\":0,\"tor_exit_nodes\":0,\"vpn\":54,\"relay\":0,\"proxy\":0,\"hosting\":16,\"service\":0}","uploaders":"{\"size\":414,\"mobile\":0,\"satellite\":0,\"tor\":0,\"tor_exit_nodes\":0,\"vpn\":1,\"relay\":0,\"proxy\":0,\"hosting\":3,\"service\":0}"},"geometry":{"type":"Point","coordinates":[121.54945,29.87819]}},{"type":"Feature","properties":{"country_code":"UKR","city":"Lviv","geoname_id":"702550","downloaders":"{\"size\":6284,\"mobile\":396,\"satellite\":0,\"tor\":0,\"tor_exit_nodes\":0,\"vpn\":51,\"relay\":0,\"proxy\":0,\"hosting\":27,\"service\":0}","uploaders":"{\"size\":191,\"mobile\":38,\"satellite\":0,\"tor\":0,\"tor_exit_nodes\":0,\"vpn\":1,\"relay\":0,\"proxy\":0,\"hosting\":5,\"service\":0}"},"geometry":{"type":"Point","coordinates":[24.0232,49.8383]}},{"type":"Feature","properties":{"country_code":"MEX","city":"Ciudad Juárez","geoname_id":"4013708","downloaders":"{\"size\":6245,\"mobile\":1,\"satellite\":0,\"tor\":0,\"tor_exit_nodes\":0,\"vpn\":16,\"relay\":0,\"proxy\":0,\"hosting\":0,\"service\":10}","uploaders":"{\"size\":19,\"mobile\":0,\"satellite\":0,\"tor\":0,\"tor_exit_nodes\":0,\"vpn\":0,\"relay\":0,\"proxy\":0,\"hosting\":0,\"service\":0}"},"geometry":{"type":"Point","coordinates":[-106.46084,31.72024]}},{"type":"Feature","properties":{"country_code":"FRA","city":"Marseille","geoname_id":"2995469","downloaders":"{\"size\":6210,\"mobile\":1352,\"satellite\":0,\"tor\":0,\"tor_exit_nodes\":0,\"vpn\":958,\"relay\":0,\"proxy\":0,\"hosting\":1241,\"service\":958}","uploaders":"{\"size\":375,\"mobile\":17,\"satellite\":0,\"tor\":0,\"tor_exit_nodes\":0,\"vpn\":312,\"relay\":0,\"proxy\":0,\"hosting\":332,\"service\":312}"},"geometry":{"type":"Point","coordinates":[5.38107,43.29695]}},{"type":"Feature","properties":{"country_code":"SAU","city":"Riyadh","geoname_id":"108410","downloaders":"{\"size\":6197,\"mobile\":1797,\"satellite\":0,\"tor\":0,\"tor_exit_nodes\":0,\"vpn\":59,\"relay\":0,\"proxy\":0,\"hosting\":70,\"service\":42}","uploaders":"{\"size\":285,\"mobile\":120,\"satellite\":0,\"tor\":0,\"tor_exit_nodes\":0,\"vpn\":5,\"relay\":0,\"proxy\":0,\"hosting\":8,\"service\":4}"},"geometry":{"type":"Point","coordinates":[46.72185,24.68773]}},{"type":"Feature","properties":{"country_code":"RUS","city":"Ivanovo","geoname_id":"555312","downloaders":"{\"size\":6158,\"mobile\":346,\"satellite\":0,\"tor\":0,\"tor_exit_nodes\":0,\"vpn\":123,\"relay\":0,\"proxy\":0,\"hosting\":0,\"service\":15}","uploaders":"{\"size\":60,\"mobile\":12,\"satellite\":0,\"tor\":0,\"tor_exit_nodes\":0,\"vpn\":1,\"relay\":0,\"proxy\":0,\"hosting\":0,\"service\":0}"},"geometry":{"type":"Point","coordinates":[40.97139,56.99719]}},{"type":"Feature","properties":{"country_code":"ITA","city":"Naples","geoname_id":"3172394","downloaders":"{\"size\":6158,\"mobile\":1302,\"satellite\":0,\"tor\":0,\"tor_exit_nodes\":0,\"vpn\":20,\"relay\":0,\"proxy\":0,\"hosting\":3,\"service\":0}","uploaders":"{\"size\":82,\"mobile\":34,\"satellite\":0,\"tor\":0,\"tor_exit_nodes\":0,\"vpn\":1,\"relay\":0,\"proxy\":0,\"hosting\":0,\"service\":0}"},"geometry":{"type":"Point","coordinates":[14.26811,40.85216]}},{"type":"Feature","properties":{"country_code":"KAZ","city":"Almaty","geoname_id":"1526384","downloaders":"{\"size\":6148,\"mobile\":1263,\"satellite\":0,\"tor\":0,\"tor_exit_nodes\":0,\"vpn\":33,\"relay\":0,\"proxy\":0,\"hosting\":853,\"service\":0}","uploaders":"{\"size\":197,\"mobile\":42,\"satellite\":0,\"tor\":0,\"tor_exit_nodes\":0,\"vpn\":0,\"relay\":0,\"proxy\":0,\"hosting\":9,\"service\":0}"},"geometry":{"type":"Point","coordinates":[76.9115,43.25249]}},{"type":"Feature","properties":{"country_code":"TUR","city":"Konya","geoname_id":"306571","downloaders":"{\"size\":6121,\"mobile\":1698,\"satellite\":0,\"tor\":0,\"tor_exit_nodes\":0,\"vpn\":0,\"relay\":0,\"proxy\":0,\"hosting\":0,\"service\":0}","uploaders":"{\"size\":9,\"mobile\":1,\"satellite\":0,\"tor\":0,\"tor_exit_nodes\":0,\"vpn\":0,\"relay\":0,\"proxy\":0,\"hosting\":0,\"service\":0}"},"geometry":{"type":"Point","coordinates":[32.48464,37.87135]}},{"type":"Feature","properties":{"country_code":"BRA","city":"Guarulhos","geoname_id":"3461786","downloaders":"{\"size\":6120,\"mobile\":132,\"satellite\":0,\"tor\":0,\"tor_exit_nodes\":0,\"vpn\":17,\"relay\":0,\"proxy\":0,\"hosting\":0,\"service\":1}","uploaders":"{\"size\":34,\"mobile\":0,\"satellite\":0,\"tor\":0,\"tor_exit_nodes\":0,\"vpn\":0,\"relay\":0,\"proxy\":0,\"hosting\":0,\"service\":0}"},"geometry":{"type":"Point","coordinates":[-46.53333,-23.46278]}},{"type":"Feature","properties":{"country_code":"RUS","city":"Korolev","geoname_id":"554233","downloaders":"{\"size\":6111,\"mobile\":3,\"satellite\":0,\"tor\":0,\"tor_exit_nodes\":0,\"vpn\":141,\"relay\":0,\"proxy\":0,\"hosting\":284,\"service\":2}","uploaders":"{\"size\":43,\"mobile\":0,\"satellite\":0,\"tor\":0,\"tor_exit_nodes\":0,\"vpn\":2,\"relay\":0,\"proxy\":0,\"hosting\":0,\"service\":0}"},"geometry":{"type":"Point","coordinates":[37.82556,55.91417]}},{"type":"Feature","properties":{"country_code":"AUS","city":"Brisbane","geoname_id":"2174003","downloaders":"{\"size\":6070,\"mobile\":587,\"satellite\":69,\"tor\":0,\"tor_exit_nodes\":0,\"vpn\":1680,\"relay\":4,\"proxy\":0,\"hosting\":1746,\"service\":1067}","uploaders":"{\"size\":851,\"mobile\":100,\"satellite\":21,\"tor\":0,\"tor_exit_nodes\":0,\"vpn\":352,\"relay\":1,\"proxy\":0,\"hosting\":368,\"service\":250}"},"geometry":{"type":"Point","coordinates":[153.02809,-27.46794]}},{"type":"Feature","properties":{"country_code":"UKR","city":"Dnipro","geoname_id":"709930","downloaders":"{\"size\":6052,\"mobile\":638,\"satellite\":0,\"tor\":0,\"tor_exit_nodes\":0,\"vpn\":37,\"relay\":0,\"proxy\":0,\"hosting\":847,\"service\":4}","uploaders":"{\"size\":317,\"mobile\":21,\"satellite\":0,\"tor\":0,\"tor_exit_nodes\":0,\"vpn\":4,\"relay\":0,\"proxy\":0,\"hosting\":27,\"service\":2}"},"geometry":{"type":"Point","coordinates":[35.04066,48.46664]}},{"type":"Feature","properties":{"country_code":"RUS","city":"Vladivostok","geoname_id":"2013348","downloaders":"{\"size\":5998,\"mobile\":133,\"satellite\":0,\"tor\":0,\"tor_exit_nodes\":0,\"vpn\":1150,\"relay\":0,\"proxy\":0,\"hosting\":36,\"service\":716}","uploaders":"{\"size\":210,\"mobile\":10,\"satellite\":0,\"tor\":0,\"tor_exit_nodes\":0,\"vpn\":42,\"relay\":0,\"proxy\":0,\"hosting\":0,\"service\":36}"},"geometry":{"type":"Point","coordinates":[131.87353,43.10562]}},{"type":"Feature","properties":{"country_code":"RUS","city":"Stavropol’","geoname_id":"487846","downloaders":"{\"size\":5953,\"mobile\":2432,\"satellite\":0,\"tor\":0,\"tor_exit_nodes\":0,\"vpn\":49,\"relay\":0,\"proxy\":0,\"hosting\":0,\"service\":12}","uploaders":"{\"size\":144,\"mobile\":69,\"satellite\":0,\"tor\":0,\"tor_exit_nodes\":0,\"vpn\":4,\"relay\":0,\"proxy\":0,\"hosting\":0,\"service\":0}"},"geometry":{"type":"Point","coordinates":[41.9734,45.0428]}},{"type":"Feature","properties":{"country_code":"FRA","city":"Lyon","geoname_id":"2996944","downloaders":"{\"size\":5935,\"mobile\":1100,\"satellite\":0,\"tor\":0,\"tor_exit_nodes\":0,\"vpn\":13,\"relay\":0,\"proxy\":0,\"hosting\":101,\"service\":2}","uploaders":"{\"size\":56,\"mobile\":33,\"satellite\":0,\"tor\":0,\"tor_exit_nodes\":0,\"vpn\":1,\"relay\":0,\"proxy\":0,\"hosting\":2,\"service\":0}"},"geometry":{"type":"Point","coordinates":[4.84671,45.74846]}},{"type":"Feature","properties":{"country_code":"POL","city":"Mokotów","geoname_id":"764484","downloaders":"{\"size\":5918,\"mobile\":110,\"satellite\":0,\"tor\":0,\"tor_exit_nodes\":0,\"vpn\":1,\"relay\":0,\"proxy\":0,\"hosting\":14,\"service\":0}","uploaders":"{\"size\":86,\"mobile\":23,\"satellite\":0,\"tor\":0,\"tor_exit_nodes\":0,\"vpn\":0,\"relay\":0,\"proxy\":0,\"hosting\":0,\"service\":0}"},"geometry":{"type":"Point","coordinates":[20.9944,52.177]}},{"type":"Feature","properties":{"country_code":"NOR","city":"Oslo","geoname_id":"3143244","downloaders":"{\"size\":5865,\"mobile\":421,\"satellite\":0,\"tor\":4,\"tor_exit_nodes\":25,\"vpn\":1480,\"relay\":7,\"proxy\":0,\"hosting\":1139,\"service\":1435}","uploaders":"{\"size\":422,\"mobile\":44,\"satellite\":0,\"tor\":1,\"tor_exit_nodes\":1,\"vpn\":233,\"relay\":2,\"proxy\":0,\"hosting\":161,\"service\":231}"},"geometry":{"type":"Point","coordinates":[10.74609,59.91273]}},{"type":"Feature","properties":{"country_code":"KOR","city":"Ulsan","geoname_id":"1833747","downloaders":"{\"size\":5839,\"mobile\":7,\"satellite\":0,\"tor\":0,\"tor_exit_nodes\":0,\"vpn\":47,\"relay\":0,\"proxy\":0,\"hosting\":0,\"service\":20}","uploaders":"{\"size\":8,\"mobile\":0,\"satellite\":0,\"tor\":0,\"tor_exit_nodes\":0,\"vpn\":0,\"relay\":0,\"proxy\":0,\"hosting\":0,\"service\":0}"},"geometry":{"type":"Point","coordinates":[129.31667,35.53722]}},{"type":"Feature","properties":{"country_code":"BGR","city":"Plovdiv","geoname_id":"728193","downloaders":"{\"size\":5824,\"mobile\":127,\"satellite\":0,\"tor\":0,\"tor_exit_nodes\":0,\"vpn\":78,\"relay\":0,\"proxy\":0,\"hosting\":1593,\"service\":0}","uploaders":"{\"size\":90,\"mobile\":1,\"satellite\":0,\"tor\":0,\"tor_exit_nodes\":0,\"vpn\":0,\"relay\":0,\"proxy\":0,\"hosting\":16,\"service\":0}"},"geometry":{"type":"Point","coordinates":[24.75,42.15]}},{"type":"Feature","properties":{"country_code":"MEX","city":"Zapopan","geoname_id":"3979770","downloaders":"{\"size\":5700,\"mobile\":4,\"satellite\":0,\"tor\":0,\"tor_exit_nodes\":0,\"vpn\":3,\"relay\":0,\"proxy\":0,\"hosting\":0,\"service\":0}","uploaders":"{\"size\":38,\"mobile\":0,\"satellite\":0,\"tor\":0,\"tor_exit_nodes\":0,\"vpn\":1,\"relay\":0,\"proxy\":0,\"hosting\":0,\"service\":0}"},"geometry":{"type":"Point","coordinates":[-103.38742,20.72111]}},{"type":"Feature","properties":{"country_code":"RUS","city":"Vladimir","geoname_id":"473247","downloaders":"{\"size\":5644,\"mobile\":131,\"satellite\":0,\"tor\":0,\"tor_exit_nodes\":0,\"vpn\":32,\"relay\":0,\"proxy\":0,\"hosting\":0,\"service\":1}","uploaders":"{\"size\":57,\"mobile\":6,\"satellite\":0,\"tor\":0,\"tor_exit_nodes\":0,\"vpn\":1,\"relay\":0,\"proxy\":0,\"hosting\":0,\"service\":0}"},"geometry":{"type":"Point","coordinates":[40.39658,56.13655]}},{"type":"Feature","properties":{"country_code":"BRA","city":"Belo Horizonte","geoname_id":"3470127","downloaders":"{\"size\":5593,\"mobile\":242,\"satellite\":0,\"tor\":0,\"tor_exit_nodes\":0,\"vpn\":16,\"relay\":0,\"proxy\":0,\"hosting\":11,\"service\":0}","uploaders":"{\"size\":155,\"mobile\":18,\"satellite\":0,\"tor\":0,\"tor_exit_nodes\":0,\"vpn\":0,\"relay\":0,\"proxy\":0,\"hosting\":0,\"service\":0}"},"geometry":{"type":"Point","coordinates":[-43.93778,-19.92083]}},{"type":"Feature","properties":{"country_code":"USA","city":"Houston","geoname_id":"4699066","downloaders":"{\"size\":5510,\"mobile\":43,\"satellite\":0,\"tor\":0,\"tor_exit_nodes\":0,\"vpn\":521,\"relay\":0,\"proxy\":0,\"hosting\":833,\"service\":482}","uploaders":"{\"size\":156,\"mobile\":0,\"satellite\":0,\"tor\":0,\"tor_exit_nodes\":0,\"vpn\":75,\"relay\":0,\"proxy\":0,\"hosting\":110,\"service\":73}"},"geometry":{"type":"Point","coordinates":[-95.36327,29.76328]}},{"type":"Feature","properties":{"country_code":"RUS","city":"Lyubertsy","geoname_id":"532615","downloaders":"{\"size\":5495,\"mobile\":52,\"satellite\":0,\"tor\":0,\"tor_exit_nodes\":0,\"vpn\":136,\"relay\":0,\"proxy\":0,\"hosting\":578,\"service\":4}","uploaders":"{\"size\":64,\"mobile\":1,\"satellite\":0,\"tor\":0,\"tor_exit_nodes\":0,\"vpn\":2,\"relay\":0,\"proxy\":0,\"hosting\":1,\"service\":0}"},"geometry":{"type":"Point","coordinates":[37.89322,55.67719]}},{"type":"Feature","properties":{"country_code":"SAU","city":"Jeddah","geoname_id":"105343","downloaders":"{\"size\":5494,\"mobile\":1233,\"satellite\":0,\"tor\":0,\"tor_exit_nodes\":0,\"vpn\":6,\"relay\":0,\"proxy\":0,\"hosting\":144,\"service\":0}","uploaders":"{\"size\":182,\"mobile\":88,\"satellite\":0,\"tor\":0,\"tor_exit_nodes\":0,\"vpn\":0,\"relay\":0,\"proxy\":0,\"hosting\":3,\"service\":0}"},"geometry":{"type":"Point","coordinates":[39.18624,21.49012]}},{"type":"Feature","properties":{"country_code":"TUR","city":"Adana","geoname_id":"325363","downloaders":"{\"size\":5483,\"mobile\":201,\"satellite\":0,\"tor\":0,\"tor_exit_nodes\":0,\"vpn\":2,\"relay\":0,\"proxy\":0,\"hosting\":0,\"service\":0}","uploaders":"{\"size\":16,\"mobile\":2,\"satellite\":0,\"tor\":0,\"tor_exit_nodes\":0,\"vpn\":0,\"relay\":0,\"proxy\":0,\"hosting\":0,\"service\":0}"},"geometry":{"type":"Point","coordinates":[35.32531,36.98615]}},{"type":"Feature","properties":{"country_code":"JPN","city":"Osaka","geoname_id":"1853909","downloaders":"{\"size\":5409,\"mobile\":335,\"satellite\":0,\"tor\":0,\"tor_exit_nodes\":0,\"vpn\":313,\"relay\":0,\"proxy\":0,\"hosting\":433,\"service\":255}","uploaders":"{\"size\":44,\"mobile\":16,\"satellite\":0,\"tor\":0,\"tor_exit_nodes\":0,\"vpn\":6,\"relay\":0,\"proxy\":0,\"hosting\":24,\"service\":6}"},"geometry":{"type":"Point","coordinates":[135.50107,34.69379]}},{"type":"Feature","properties":{"country_code":"MEX","city":"Tijuana","geoname_id":"3981609","downloaders":"{\"size\":5378,\"mobile\":3,\"satellite\":0,\"tor\":0,\"tor_exit_nodes\":0,\"vpn\":7,\"relay\":0,\"proxy\":0,\"hosting\":0,\"service\":1}","uploaders":"{\"size\":10,\"mobile\":0,\"satellite\":0,\"tor\":0,\"tor_exit_nodes\":0,\"vpn\":0,\"relay\":0,\"proxy\":0,\"hosting\":0,\"service\":0}"},"geometry":{"type":"Point","coordinates":[-117.00371,32.5027]}},{"type":"Feature","properties":{"country_code":"MEX","city":"Puebla","geoname_id":"3521081","downloaders":"{\"size\":5310,\"mobile\":9,\"satellite\":0,\"tor\":0,\"tor_exit_nodes\":0,\"vpn\":0,\"relay\":0,\"proxy\":0,\"hosting\":0,\"service\":0}","uploaders":"{\"size\":15,\"mobile\":0,\"satellite\":0,\"tor\":0,\"tor_exit_nodes\":0,\"vpn\":0,\"relay\":0,\"proxy\":0,\"hosting\":0,\"service\":0}"},"geometry":{"type":"Point","coordinates":[-98.20723,19.04778]}},{"type":"Feature","properties":{"country_code":"BRA","city":"Campinas","geoname_id":"3467865","downloaders":"{\"size\":5276,\"mobile\":805,\"satellite\":0,\"tor\":0,\"tor_exit_nodes\":0,\"vpn\":13,\"relay\":0,\"proxy\":0,\"hosting\":10,\"service\":1}","uploaders":"{\"size\":103,\"mobile\":14,\"satellite\":0,\"tor\":0,\"tor_exit_nodes\":0,\"vpn\":2,\"relay\":0,\"proxy\":0,\"hosting\":1,\"service\":0}"},"geometry":{"type":"Point","coordinates":[-47.06083,-22.90556]}},{"type":"Feature","properties":{"country_code":"THA","city":"Bangkok","geoname_id":"1609350","downloaders":"{\"size\":5254,\"mobile\":1367,\"satellite\":0,\"tor\":0,\"tor_exit_nodes\":0,\"vpn\":101,\"relay\":0,\"proxy\":0,\"hosting\":718,\"service\":52}","uploaders":"{\"size\":378,\"mobile\":77,\"satellite\":0,\"tor\":0,\"tor_exit_nodes\":0,\"vpn\":7,\"relay\":0,\"proxy\":0,\"hosting\":27,\"service\":6}"},"geometry":{"type":"Point","coordinates":[100.50144,13.75398]}},{"type":"Feature","properties":{"country_code":"RUS","city":"Noginsk","geoname_id":"520068","downloaders":"{\"size\":5241,\"mobile\":1,\"satellite\":0,\"tor\":0,\"tor_exit_nodes\":0,\"vpn\":187,\"relay\":0,\"proxy\":0,\"hosting\":26,\"service\":85}","uploaders":"{\"size\":81,\"mobile\":0,\"satellite\":0,\"tor\":0,\"tor_exit_nodes\":0,\"vpn\":1,\"relay\":0,\"proxy\":0,\"hosting\":0,\"service\":1}"},"geometry":{"type":"Point","coordinates":[38.44853,55.86486]}},{"type":"Feature","properties":{"country_code":"LTU","city":"Kaunas","geoname_id":"598316","downloaders":"{\"size\":5239,\"mobile\":188,\"satellite\":0,\"tor\":0,\"tor_exit_nodes\":0,\"vpn\":16,\"relay\":0,\"proxy\":0,\"hosting\":94,\"service\":0}","uploaders":"{\"size\":77,\"mobile\":9,\"satellite\":0,\"tor\":0,\"tor_exit_nodes\":0,\"vpn\":1,\"relay\":0,\"proxy\":0,\"hosting\":3,\"service\":0}"},"geometry":{"type":"Point","coordinates":[23.90961,54.90272]}},{"type":"Feature","properties":{"country_code":"RUS","city":"Murmansk","geoname_id":"524305","downloaders":"{\"size\":5219,\"mobile\":270,\"satellite\":0,\"tor\":0,\"tor_exit_nodes\":0,\"vpn\":22,\"relay\":0,\"proxy\":0,\"hosting\":0,\"service\":2}","uploaders":"{\"size\":82,\"mobile\":2,\"satellite\":0,\"tor\":0,\"tor_exit_nodes\":0,\"vpn\":0,\"relay\":0,\"proxy\":0,\"hosting\":0,\"service\":0}"},"geometry":{"type":"Point","coordinates":[33.09747,68.97398]}},{"type":"Feature","properties":{"country_code":"CHN","city":"Tianjin","geoname_id":"1792947","downloaders":"{\"size\":5186,\"mobile\":0,\"satellite\":0,\"tor\":0,\"tor_exit_nodes\":0,\"vpn\":63,\"relay\":0,\"proxy\":0,\"hosting\":40,\"service\":0}","uploaders":"{\"size\":77,\"mobile\":0,\"satellite\":0,\"tor\":0,\"tor_exit_nodes\":0,\"vpn\":0,\"relay\":0,\"proxy\":0,\"hosting\":0,\"service\":0}"},"geometry":{"type":"Point","coordinates":[117.17667,39.14222]}},{"type":"Feature","properties":{"country_code":"FRA","city":"Villecresnes","geoname_id":"2968823","downloaders":"{\"size\":5163,\"mobile\":0,\"satellite\":0,\"tor\":0,\"tor_exit_nodes\":0,\"vpn\":3052,\"relay\":0,\"proxy\":0,\"hosting\":5144,\"service\":1860}","uploaders":"{\"size\":49,\"mobile\":0,\"satellite\":0,\"tor\":0,\"tor_exit_nodes\":0,\"vpn\":34,\"relay\":0,\"proxy\":0,\"hosting\":49,\"service\":34}"},"geometry":{"type":"Point","coordinates":[2.5394,48.72002]}},{"type":"Feature","properties":{"country_code":"RUS","city":"Mytishchi","geoname_id":"523812","downloaders":"{\"size\":5131,\"mobile\":8,\"satellite\":0,\"tor\":0,\"tor_exit_nodes\":0,\"vpn\":149,\"relay\":0,\"proxy\":0,\"hosting\":100,\"service\":2}","uploaders":"{\"size\":48,\"mobile\":0,\"satellite\":0,\"tor\":0,\"tor_exit_nodes\":0,\"vpn\":1,\"relay\":0,\"proxy\":0,\"hosting\":0,\"service\":0}"},"geometry":{"type":"Point","coordinates":[37.72964,55.91099]}},{"type":"Feature","properties":{"country_code":"UKR","city":"Odesa","geoname_id":"698740","downloaders":"{\"size\":5060,\"mobile\":6,\"satellite\":0,\"tor\":0,\"tor_exit_nodes\":0,\"vpn\":73,\"relay\":0,\"proxy\":0,\"hosting\":29,\"service\":0}","uploaders":"{\"size\":259,\"mobile\":0,\"satellite\":0,\"tor\":0,\"tor_exit_nodes\":0,\"vpn\":2,\"relay\":0,\"proxy\":0,\"hosting\":2,\"service\":0}"},"geometry":{"type":"Point","coordinates":[30.74383,46.48572]}},{"type":"Feature","properties":{"country_code":"RUS","city":"Naberezhnyye Chelny","geoname_id":"523750","downloaders":"{\"size\":5037,\"mobile\":237,\"satellite\":0,\"tor\":0,\"tor_exit_nodes\":0,\"vpn\":55,\"relay\":0,\"proxy\":0,\"hosting\":0,\"service\":1}","uploaders":"{\"size\":94,\"mobile\":29,\"satellite\":0,\"tor\":0,\"tor_exit_nodes\":0,\"vpn\":2,\"relay\":0,\"proxy\":0,\"hosting\":0,\"service\":0}"},"geometry":{"type":"Point","coordinates":[52.41122,55.72545]}},{"type":"Feature","properties":{"country_code":"DEU","city":"Nürnberg","geoname_id":"2861650","downloaders":"{\"size\":5020,\"mobile\":342,\"satellite\":0,\"tor\":26,\"tor_exit_nodes\":29,\"vpn\":109,\"relay\":0,\"proxy\":0,\"hosting\":4370,\"service\":47}","uploaders":"{\"size\":477,\"mobile\":0,\"satellite\":0,\"tor\":0,\"tor_exit_nodes\":0,\"vpn\":0,\"relay\":0,\"proxy\":0,\"hosting\":477,\"service\":0}"},"geometry":{"type":"Point","coordinates":[11.07752,49.45421]}},{"type":"Feature","properties":{"country_code":"COL","city":"Medellín","geoname_id":"3674962","downloaders":"{\"size\":4955,\"mobile\":1405,\"satellite\":0,\"tor\":0,\"tor_exit_nodes\":0,\"vpn\":7,\"relay\":0,\"proxy\":0,\"hosting\":11,\"service\":0}","uploaders":"{\"size\":34,\"mobile\":16,\"satellite\":0,\"tor\":0,\"tor_exit_nodes\":0,\"vpn\":1,\"relay\":0,\"proxy\":0,\"hosting\":1,\"service\":0}"},"geometry":{"type":"Point","coordinates":[-75.57151,6.245]}},{"type":"Feature","properties":{"country_code":"NZL","city":"Auckland","geoname_id":"2193733","downloaders":"{\"size\":4945,\"mobile\":1784,\"satellite\":38,\"tor\":0,\"tor_exit_nodes\":0,\"vpn\":1221,\"relay\":0,\"proxy\":0,\"hosting\":1202,\"service\":1159}","uploaders":"{\"size\":557,\"mobile\":185,\"satellite\":5,\"tor\":0,\"tor_exit_nodes\":0,\"vpn\":225,\"relay\":0,\"proxy\":0,\"hosting\":225,\"service\":220}"},"geometry":{"type":"Point","coordinates":[174.76349,-36.84853]}},{"type":"Feature","properties":{"country_code":"SVK","city":"Bratislava","geoname_id":"3060972","downloaders":"{\"size\":4923,\"mobile\":24,\"satellite\":0,\"tor\":0,\"tor_exit_nodes\":0,\"vpn\":286,\"relay\":0,\"proxy\":0,\"hosting\":402,\"service\":209}","uploaders":"{\"size\":70,\"mobile\":0,\"satellite\":0,\"tor\":0,\"tor_exit_nodes\":0,\"vpn\":19,\"relay\":0,\"proxy\":0,\"hosting\":21,\"service\":18}"},"geometry":{"type":"Point","coordinates":[17.10674,48.14816]}},{"type":"Feature","properties":{"country_code":"KOR","city":"Hwado","geoname_id":"1897118","downloaders":"{\"size\":4910,\"mobile\":1,\"satellite\":0,\"tor\":0,\"tor_exit_nodes\":0,\"vpn\":64,\"relay\":0,\"proxy\":0,\"hosting\":0,\"service\":5}","uploaders":"{\"size\":5,\"mobile\":0,\"satellite\":0,\"tor\":0,\"tor_exit_nodes\":0,\"vpn\":0,\"relay\":0,\"proxy\":0,\"hosting\":0,\"service\":0}"},"geometry":{"type":"Point","coordinates":[127.3075,37.6525]}},{"type":"Feature","properties":{"country_code":"SWE","city":"Göteborg","geoname_id":"2711537","downloaders":"{\"size\":4827,\"mobile\":437,\"satellite\":0,\"tor\":0,\"tor_exit_nodes\":0,\"vpn\":619,\"relay\":0,\"proxy\":0,\"hosting\":511,\"service\":591}","uploaders":"{\"size\":270,\"mobile\":34,\"satellite\":0,\"tor\":0,\"tor_exit_nodes\":0,\"vpn\":100,\"relay\":0,\"proxy\":0,\"hosting\":92,\"service\":100}"},"geometry":{"type":"Point","coordinates":[11.96679,57.70716]}},{"type":"Feature","properties":{"country_code":"CHN","city":"Chengdu","geoname_id":"1815286","downloaders":"{\"size\":4814,\"mobile\":0,\"satellite\":0,\"tor\":0,\"tor_exit_nodes\":0,\"vpn\":124,\"relay\":0,\"proxy\":0,\"hosting\":188,\"service\":0}","uploaders":"{\"size\":254,\"mobile\":0,\"satellite\":0,\"tor\":0,\"tor_exit_nodes\":0,\"vpn\":0,\"relay\":0,\"proxy\":0,\"hosting\":14,\"service\":0}"},"geometry":{"type":"Point","coordinates":[104.06667,30.66667]}},{"type":"Feature","properties":{"country_code":"RUS","city":"Smolensk","geoname_id":"491687","downloaders":"{\"size\":4803,\"mobile\":2,\"satellite\":0,\"tor\":0,\"tor_exit_nodes\":0,\"vpn\":77,\"relay\":0,\"proxy\":0,\"hosting\":0,\"service\":3}","uploaders":"{\"size\":95,\"mobile\":0,\"satellite\":0,\"tor\":0,\"tor_exit_nodes\":0,\"vpn\":2,\"relay\":0,\"proxy\":0,\"hosting\":0,\"service\":0}"},"geometry":{"type":"Point","coordinates":[32.04371,54.77944]}},{"type":"Feature","properties":{"country_code":"PRY","city":"Asunción","geoname_id":"3439389","downloaders":"{\"size\":4799,\"mobile\":2250,\"satellite\":0,\"tor\":0,\"tor_exit_nodes\":0,\"vpn\":4,\"relay\":0,\"proxy\":0,\"hosting\":12,\"service\":4}","uploaders":"{\"size\":50,\"mobile\":18,\"satellite\":0,\"tor\":0,\"tor_exit_nodes\":0,\"vpn\":0,\"relay\":0,\"proxy\":0,\"hosting\":1,\"service\":0}"},"geometry":{"type":"Point","coordinates":[-57.647,-25.28646]}},{"type":"Feature","properties":{"country_code":"RUS","city":"Podolsk","geoname_id":"508101","downloaders":"{\"size\":4766,\"mobile\":54,\"satellite\":0,\"tor\":0,\"tor_exit_nodes\":0,\"vpn\":150,\"relay\":0,\"proxy\":0,\"hosting\":43,\"service\":2}","uploaders":"{\"size\":41,\"mobile\":1,\"satellite\":0,\"tor\":0,\"tor_exit_nodes\":0,\"vpn\":1,\"relay\":0,\"proxy\":0,\"hosting\":0,\"service\":0}"},"geometry":{"type":"Point","coordinates":[37.55472,55.42419]}},{"type":"Feature","properties":{"country_code":"RUS","city":"Saransk","geoname_id":"498698","downloaders":"{\"size\":4681,\"mobile\":318,\"satellite\":0,\"tor\":0,\"tor_exit_nodes\":0,\"vpn\":12,\"relay\":0,\"proxy\":0,\"hosting\":0,\"service\":0}","uploaders":"{\"size\":26,\"mobile\":1,\"satellite\":0,\"tor\":0,\"tor_exit_nodes\":0,\"vpn\":0,\"relay\":0,\"proxy\":0,\"hosting\":0,\"service\":0}"},"geometry":{"type":"Point","coordinates":[45.1749,54.1838]}},{"type":"Feature","properties":{"country_code":"RUS","city":"Kursk","geoname_id":"538560","downloaders":"{\"size\":4677,\"mobile\":15,\"satellite\":0,\"tor\":0,\"tor_exit_nodes\":0,\"vpn\":32,\"relay\":0,\"proxy\":0,\"hosting\":169,\"service\":1}","uploaders":"{\"size\":91,\"mobile\":0,\"satellite\":0,\"tor\":0,\"tor_exit_nodes\":0,\"vpn\":1,\"relay\":0,\"proxy\":0,\"hosting\":0,\"service\":0}"},"geometry":{"type":"Point","coordinates":[36.18712,51.73758]}},{"type":"Feature","properties":{"country_code":"DEU","city":"Hamburg","geoname_id":"2911298","downloaders":"{\"size\":4670,\"mobile\":2199,\"satellite\":0,\"tor\":0,\"tor_exit_nodes\":2,\"vpn\":15,\"relay\":0,\"proxy\":0,\"hosting\":3,\"service\":0}","uploaders":"{\"size\":4,\"mobile\":2,\"satellite\":0,\"tor\":0,\"tor_exit_nodes\":0,\"vpn\":0,\"relay\":0,\"proxy\":0,\"hosting\":1,\"service\":0}"},"geometry":{"type":"Point","coordinates":[9.99302,53.55073]}},{"type":"Feature","properties":{"country_code":"USA","city":"Fort Lauderdale","geoname_id":"4155966","downloaders":"{\"size\":4661,\"mobile\":0,\"satellite\":0,\"tor\":0,\"tor_exit_nodes\":0,\"vpn\":9,\"relay\":0,\"proxy\":0,\"hosting\":17,\"service\":8}","uploaders":"{\"size\":33,\"mobile\":0,\"satellite\":0,\"tor\":0,\"tor_exit_nodes\":0,\"vpn\":0,\"relay\":0,\"proxy\":0,\"hosting\":0,\"service\":0}"},"geometry":{"type":"Point","coordinates":[-80.14338,26.12231]}},{"type":"Feature","properties":{"country_code":"BRA","city":"Curitiba","geoname_id":"3464975","downloaders":"{\"size\":4646,\"mobile\":218,\"satellite\":0,\"tor\":0,\"tor_exit_nodes\":0,\"vpn\":5,\"relay\":0,\"proxy\":0,\"hosting\":517,\"service\":0}","uploaders":"{\"size\":150,\"mobile\":27,\"satellite\":0,\"tor\":0,\"tor_exit_nodes\":0,\"vpn\":0,\"relay\":0,\"proxy\":0,\"hosting\":59,\"service\":0}"},"geometry":{"type":"Point","coordinates":[-49.27306,-25.42778]}},{"type":"Feature","properties":{"country_code":"RUS","city":"Orël","geoname_id":"515012","downloaders":"{\"size\":4600,\"mobile\":82,\"satellite\":0,\"tor\":0,\"tor_exit_nodes\":0,\"vpn\":24,\"relay\":0,\"proxy\":0,\"hosting\":0,\"service\":0}","uploaders":"{\"size\":68,\"mobile\":0,\"satellite\":0,\"tor\":0,\"tor_exit_nodes\":0,\"vpn\":0,\"relay\":0,\"proxy\":0,\"hosting\":0,\"service\":0}"},"geometry":{"type":"Point","coordinates":[36.07805,52.95932]}},{"type":"Feature","properties":{"country_code":"URY","city":"Montevideo","geoname_id":"3441575","downloaders":"{\"size\":4556,\"mobile\":66,\"satellite\":0,\"tor\":0,\"tor_exit_nodes\":0,\"vpn\":28,\"relay\":0,\"proxy\":0,\"hosting\":44,\"service\":0}","uploaders":"{\"size\":438,\"mobile\":13,\"satellite\":0,\"tor\":0,\"tor_exit_nodes\":0,\"vpn\":3,\"relay\":0,\"proxy\":0,\"hosting\":2,\"service\":0}"},"geometry":{"type":"Point","coordinates":[-56.18816,-34.90328]}},{"type":"Feature","properties":{"country_code":"JAM","city":"Kingston","geoname_id":"3489854","downloaders":"{\"size\":4533,\"mobile\":1823,\"satellite\":1,\"tor\":0,\"tor_exit_nodes\":0,\"vpn\":0,\"relay\":0,\"proxy\":0,\"hosting\":337,\"service\":0}","uploaders":"{\"size\":112,\"mobile\":85,\"satellite\":0,\"tor\":0,\"tor_exit_nodes\":0,\"vpn\":0,\"relay\":0,\"proxy\":0,\"hosting\":2,\"service\":0}"},"geometry":{"type":"Point","coordinates":[-76.79358,17.99702]}},{"type":"Feature","properties":{"country_code":"RUS","city":"Belgorod","geoname_id":"578072","downloaders":"{\"size\":4529,\"mobile\":61,\"satellite\":0,\"tor\":0,\"tor_exit_nodes\":0,\"vpn\":26,\"relay\":0,\"proxy\":0,\"hosting\":0,\"service\":1}","uploaders":"{\"size\":67,\"mobile\":2,\"satellite\":0,\"tor\":0,\"tor_exit_nodes\":0,\"vpn\":0,\"relay\":0,\"proxy\":0,\"hosting\":0,\"service\":0}"},"geometry":{"type":"Point","coordinates":[36.58015,50.61074]}},{"type":"Feature","properties":{"country_code":"TWN","city":"Banqiao","geoname_id":"1670029","downloaders":"{\"size\":4511,\"mobile\":42,\"satellite\":0,\"tor\":0,\"tor_exit_nodes\":0,\"vpn\":181,\"relay\":0,\"proxy\":0,\"hosting\":70,\"service\":0}","uploaders":"{\"size\":91,\"mobile\":3,\"satellite\":0,\"tor\":0,\"tor_exit_nodes\":0,\"vpn\":2,\"relay\":0,\"proxy\":0,\"hosting\":1,\"service\":0}"},"geometry":{"type":"Point","coordinates":[121.46719,25.01427]}},{"type":"Feature","properties":{"country_code":"TUR","city":"İzmit","geoname_id":"745028","downloaders":"{\"size\":4504,\"mobile\":536,\"satellite\":0,\"tor\":0,\"tor_exit_nodes\":0,\"vpn\":0,\"relay\":0,\"proxy\":0,\"hosting\":0,\"service\":0}","uploaders":"{\"size\":5,\"mobile\":0,\"satellite\":0,\"tor\":0,\"tor_exit_nodes\":0,\"vpn\":0,\"relay\":0,\"proxy\":0,\"hosting\":0,\"service\":0}"},"geometry":{"type":"Point","coordinates":[29.92928,40.76499]}},{"type":"Feature","properties":{"country_code":"GBR","city":"Manchester","geoname_id":"2643123","downloaders":"{\"size\":4500,\"mobile\":143,\"satellite\":0,\"tor\":0,\"tor_exit_nodes\":0,\"vpn\":2128,\"relay\":0,\"proxy\":2,\"hosting\":1784,\"service\":2058}","uploaders":"{\"size\":470,\"mobile\":23,\"satellite\":0,\"tor\":0,\"tor_exit_nodes\":0,\"vpn\":363,\"relay\":0,\"proxy\":2,\"hosting\":307,\"service\":355}"},"geometry":{"type":"Point","coordinates":[-2.23743,53.48095]}},{"type":"Feature","properties":{"country_code":"ESP","city":"Valencia","geoname_id":"2509954","downloaders":"{\"size\":4498,\"mobile\":2320,\"satellite\":0,\"tor\":0,\"tor_exit_nodes\":0,\"vpn\":115,\"relay\":0,\"proxy\":0,\"hosting\":118,\"service\":112}","uploaders":"{\"size\":74,\"mobile\":21,\"satellite\":0,\"tor\":0,\"tor_exit_nodes\":0,\"vpn\":16,\"relay\":0,\"proxy\":0,\"hosting\":16,\"service\":16}"},"geometry":{"type":"Point","coordinates":[-0.37966,39.47391]}},{"type":"Feature","properties":{"country_code":"RUS","city":"Magnitogorsk","geoname_id":"532288","downloaders":"{\"size\":4477,\"mobile\":230,\"satellite\":0,\"tor\":0,\"tor_exit_nodes\":0,\"vpn\":1866,\"relay\":0,\"proxy\":0,\"hosting\":0,\"service\":0}","uploaders":"{\"size\":97,\"mobile\":9,\"satellite\":0,\"tor\":0,\"tor_exit_nodes\":0,\"vpn\":65,\"relay\":0,\"proxy\":0,\"hosting\":0,\"service\":0}"},"geometry":{"type":"Point","coordinates":[59.0066,53.39808]}},{"type":"Feature","properties":{"country_code":"BRA","city":"Brasília","geoname_id":"3469058","downloaders":"{\"size\":4464,\"mobile\":200,\"satellite\":0,\"tor\":0,\"tor_exit_nodes\":0,\"vpn\":13,\"relay\":0,\"proxy\":0,\"hosting\":55,\"service\":0}","uploaders":"{\"size\":125,\"mobile\":11,\"satellite\":0,\"tor\":0,\"tor_exit_nodes\":0,\"vpn\":0,\"relay\":0,\"proxy\":0,\"hosting\":2,\"service\":0}"},"geometry":{"type":"Point","coordinates":[-47.92972,-15.77972]}},{"type":"Feature","properties":{"country_code":"FRA","city":"Strasbourg","geoname_id":"2973783","downloaders":"{\"size\":4450,\"mobile\":676,\"satellite\":0,\"tor\":0,\"tor_exit_nodes\":5,\"vpn\":142,\"relay\":0,\"proxy\":0,\"hosting\":2211,\"service\":136}","uploaders":"{\"size\":51,\"mobile\":9,\"satellite\":0,\"tor\":0,\"tor_exit_nodes\":0,\"vpn\":3,\"relay\":0,\"proxy\":0,\"hosting\":31,\"service\":3}"},"geometry":{"type":"Point","coordinates":[7.74553,48.58392]}},{"type":"Feature","properties":{"country_code":"KOR","city":"Cheonan","geoname_id":"1845759","downloaders":"{\"size\":4419,\"mobile\":1,\"satellite\":0,\"tor\":0,\"tor_exit_nodes\":0,\"vpn\":25,\"relay\":0,\"proxy\":0,\"hosting\":0,\"service\":2}","uploaders":"{\"size\":8,\"mobile\":0,\"satellite\":0,\"tor\":0,\"tor_exit_nodes\":0,\"vpn\":0,\"relay\":0,\"proxy\":0,\"hosting\":0,\"service\":0}"},"geometry":{"type":"Point","coordinates":[127.1522,36.8065]}},{"type":"Feature","properties":{"country_code":"KOR","city":"Pyeongtaek","geoname_id":"1838343","downloaders":"{\"size\":4418,\"mobile\":0,\"satellite\":0,\"tor\":0,\"tor_exit_nodes\":0,\"vpn\":23,\"relay\":0,\"proxy\":0,\"hosting\":0,\"service\":0}","uploaders":"{\"size\":5,\"mobile\":0,\"satellite\":0,\"tor\":0,\"tor_exit_nodes\":0,\"vpn\":1,\"relay\":0,\"proxy\":0,\"hosting\":0,\"service\":0}"},"geometry":{"type":"Point","coordinates":[127.08889,36.99472]}},