{"type":"FeatureCollection","id":"Sean Combs: The Reckoning","swarm_features":112,"features":[{"type":"Feature","properties":{"country_code":"KOR","city":"Seoul","geoname_id":"1835848","downloaders":"{\"size\":814034,\"mobile\":24229,\"satellite\":2,\"tor\":64,\"tor_exit_nodes\":0,\"vpn\":17907,\"relay\":2,\"proxy\":63,\"hosting\":25936,\"service\":4925}","uploaders":"{\"size\":1993,\"mobile\":73,\"satellite\":0,\"tor\":0,\"tor_exit_nodes\":0,\"vpn\":101,\"relay\":0,\"proxy\":0,\"hosting\":134,\"service\":66}"},"geometry":{"type":"Point","coordinates":[126.9784,37.566]}},{"type":"Feature","properties":{"country_code":"RUS","city":"Moscow","geoname_id":"524901","downloaders":"{\"size\":518135,\"mobile\":4314,\"satellite\":2,\"tor\":0,\"tor_exit_nodes\":0,\"vpn\":28437,\"relay\":315,\"proxy\":650,\"hosting\":74840,\"service\":5568}","uploaders":"{\"size\":1928,\"mobile\":14,\"satellite\":0,\"tor\":0,\"tor_exit_nodes\":0,\"vpn\":124,\"relay\":26,\"proxy\":1,\"hosting\":606,\"service\":55}"},"geometry":{"type":"Point","coordinates":[37.61781,55.75204]}},{"type":"Feature","properties":{"country_code":"TUR","city":"Istanbul","geoname_id":"745044","downloaders":"{\"size\":370156,\"mobile\":6203,\"satellite\":0,\"tor\":1,\"tor_exit_nodes\":0,\"vpn\":872,\"relay\":16,\"proxy\":29,\"hosting\":1369,\"service\":688}","uploaders":"{\"size\":1116,\"mobile\":51,\"satellite\":0,\"tor\":0,\"tor_exit_nodes\":0,\"vpn\":193,\"relay\":4,\"proxy\":1,\"hosting\":201,\"service\":195}"},"geometry":{"type":"Point","coordinates":[28.94966,41.01384]}},{"type":"Feature","properties":{"country_code":"RUS","city":"Saint Petersburg","geoname_id":"498817","downloaders":"{\"size\":310088,\"mobile\":1825,\"satellite\":0,\"tor\":0,\"tor_exit_nodes\":0,\"vpn\":8516,\"relay\":186,\"proxy\":97,\"hosting\":18176,\"service\":735}","uploaders":"{\"size\":926,\"mobile\":6,\"satellite\":0,\"tor\":0,\"tor_exit_nodes\":0,\"vpn\":33,\"relay\":9,\"proxy\":3,\"hosting\":80,\"service\":17}"},"geometry":{"type":"Point","coordinates":[30.31413,59.93863]}},{"type":"Feature","properties":{"country_code":"CHN","city":"Nanjing","geoname_id":"1799962","downloaders":"{\"size\":303590,\"mobile\":1855,\"satellite\":0,\"tor\":0,\"tor_exit_nodes\":0,\"vpn\":7648,\"relay\":0,\"proxy\":65,\"hosting\":491,\"service\":0}","uploaders":"{\"size\":2922,\"mobile\":6,\"satellite\":0,\"tor\":0,\"tor_exit_nodes\":0,\"vpn\":33,\"relay\":0,\"proxy\":0,\"hosting\":11,\"service\":0}"},"geometry":{"type":"Point","coordinates":[118.77778,32.06167]}},{"type":"Feature","properties":{"country_code":"CHN","city":"Shanghai","geoname_id":"1796236","downloaders":"{\"size\":272129,\"mobile\":9744,\"satellite\":0,\"tor\":0,\"tor_exit_nodes\":0,\"vpn\":11096,\"relay\":8,\"proxy\":351,\"hosting\":49534,\"service\":8}","uploaders":"{\"size\":1459,\"mobile\":49,\"satellite\":0,\"tor\":0,\"tor_exit_nodes\":0,\"vpn\":26,\"relay\":1,\"proxy\":2,\"hosting\":218,\"service\":1}"},"geometry":{"type":"Point","coordinates":[121.45806,31.22222]}},{"type":"Feature","properties":{"country_code":"GBR","city":"London","geoname_id":"2643743","downloaders":"{\"size\":269201,\"mobile\":23076,\"satellite\":413,\"tor\":64,\"tor_exit_nodes\":0,\"vpn\":36537,\"relay\":151,\"proxy\":269,\"hosting\":37939,\"service\":33479}","uploaders":"{\"size\":28729,\"mobile\":5759,\"satellite\":120,\"tor\":0,\"tor_exit_nodes\":0,\"vpn\":7735,\"relay\":34,\"proxy\":67,\"hosting\":6462,\"service\":7310}"},"geometry":{"type":"Point","coordinates":[-0.12574,51.50853]}},{"type":"Feature","properties":{"country_code":"NLD","city":"Amsterdam","geoname_id":"2759794","downloaders":"{\"size\":212596,\"mobile\":2051,\"satellite\":35,\"tor\":109,\"tor_exit_nodes\":16,\"vpn\":107555,\"relay\":330,\"proxy\":262,\"hosting\":173865,\"service\":60296}","uploaders":"{\"size\":12157,\"mobile\":278,\"satellite\":4,\"tor\":7,\"tor_exit_nodes\":0,\"vpn\":8418,\"relay\":69,\"proxy\":16,\"hosting\":8484,\"service\":7879}"},"geometry":{"type":"Point","coordinates":[4.88969,52.37403]}},{"type":"Feature","properties":{"country_code":"CHN","city":"Hangzhou","geoname_id":"1808926","downloaders":"{\"size\":209497,\"mobile\":537,\"satellite\":0,\"tor\":0,\"tor_exit_nodes\":0,\"vpn\":5558,\"relay\":0,\"proxy\":15,\"hosting\":4152,\"service\":10}","uploaders":"{\"size\":372,\"mobile\":3,\"satellite\":0,\"tor\":0,\"tor_exit_nodes\":0,\"vpn\":16,\"relay\":0,\"proxy\":0,\"hosting\":86,\"service\":0}"},"geometry":{"type":"Point","coordinates":[120.16142,30.29365]}},{"type":"Feature","properties":{"country_code":"KOR","city":"Incheon","geoname_id":"1843564","downloaders":"{\"size\":205236,\"mobile\":2846,\"satellite\":0,\"tor\":1,\"tor_exit_nodes\":0,\"vpn\":2914,\"relay\":0,\"proxy\":40,\"hosting\":3934,\"service\":352}","uploaders":"{\"size\":475,\"mobile\":11,\"satellite\":0,\"tor\":0,\"tor_exit_nodes\":0,\"vpn\":13,\"relay\":0,\"proxy\":0,\"hosting\":11,\"service\":5}"},"geometry":{"type":"Point","coordinates":[126.70515,37.45646]}},{"type":"Feature","properties":{"country_code":"USA","city":"Ashburn","geoname_id":"4744870","downloaders":"{\"size\":199243,\"mobile\":64,\"satellite\":48,\"tor\":22,\"tor_exit_nodes\":0,\"vpn\":10369,\"relay\":0,\"proxy\":72,\"hosting\":198568,\"service\":10194}","uploaders":"{\"size\":86434,\"mobile\":31,\"satellite\":6,\"tor\":1,\"tor_exit_nodes\":0,\"vpn\":1980,\"relay\":0,\"proxy\":19,\"hosting\":86374,\"service\":1958}"},"geometry":{"type":"Point","coordinates":[-77.48749,39.04372]}},{"type":"Feature","properties":{"country_code":"HUN","city":"Budapest","geoname_id":"3054643","downloaders":"{\"size\":197007,\"mobile\":7044,\"satellite\":43,\"tor\":2,\"tor_exit_nodes\":0,\"vpn\":6865,\"relay\":0,\"proxy\":18,\"hosting\":7050,\"service\":1740}","uploaders":"{\"size\":1382,\"mobile\":243,\"satellite\":0,\"tor\":0,\"tor_exit_nodes\":0,\"vpn\":144,\"relay\":0,\"proxy\":0,\"hosting\":142,\"service\":122}"},"geometry":{"type":"Point","coordinates":[19.04045,47.49835]}},{"type":"Feature","properties":{"country_code":"CHN","city":"Shenzhen","geoname_id":"1795565","downloaders":"{\"size\":151230,\"mobile\":765,\"satellite\":0,\"tor\":0,\"tor_exit_nodes\":0,\"vpn\":7589,\"relay\":0,\"proxy\":27,\"hosting\":1505,\"service\":0}","uploaders":"{\"size\":864,\"mobile\":11,\"satellite\":0,\"tor\":0,\"tor_exit_nodes\":0,\"vpn\":16,\"relay\":0,\"proxy\":0,\"hosting\":17,\"service\":0}"},"geometry":{"type":"Point","coordinates":[114.0683,22.54554]}},{"type":"Feature","properties":{"country_code":"NLD","city":"Lelystad","geoname_id":"2751738","downloaders":"{\"size\":139619,\"mobile\":137,\"satellite\":0,\"tor\":214,\"tor_exit_nodes\":134,\"vpn\":18177,\"relay\":0,\"proxy\":1494,\"hosting\":138247,\"service\":15136}","uploaders":"{\"size\":3533,\"mobile\":38,\"satellite\":0,\"tor\":26,\"tor_exit_nodes\":8,\"vpn\":1782,\"relay\":0,\"proxy\":308,\"hosting\":3385,\"service\":1719}"},"geometry":{"type":"Point","coordinates":[5.475,52.50833]}},{"type":"Feature","properties":{"country_code":"TUR","city":"Ankara","geoname_id":"323786","downloaders":"{\"size\":134615,\"mobile\":2311,\"satellite\":4,\"tor\":0,\"tor_exit_nodes\":0,\"vpn\":68,\"relay\":2,\"proxy\":5,\"hosting\":10,\"service\":4}","uploaders":"{\"size\":305,\"mobile\":6,\"satellite\":0,\"tor\":0,\"tor_exit_nodes\":0,\"vpn\":0,\"relay\":0,\"proxy\":0,\"hosting\":0,\"service\":0}"},"geometry":{"type":"Point","coordinates":[32.85427,39.91987]}},{"type":"Feature","properties":{"country_code":"FRA","city":"Paris","geoname_id":"2988507","downloaders":"{\"size\":133161,\"mobile\":22198,\"satellite\":340,\"tor\":26,\"tor_exit_nodes\":19,\"vpn\":29764,\"relay\":60,\"proxy\":183,\"hosting\":51568,\"service\":24794}","uploaders":"{\"size\":5407,\"mobile\":1507,\"satellite\":24,\"tor\":0,\"tor_exit_nodes\":1,\"vpn\":2003,\"relay\":9,\"proxy\":21,\"hosting\":1753,\"service\":1818}"},"geometry":{"type":"Point","coordinates":[2.3488,48.85341]}},{"type":"Feature","properties":{"country_code":"POL","city":"Warsaw","geoname_id":"756135","downloaders":"{\"size\":119374,\"mobile\":2060,\"satellite\":148,\"tor\":12,\"tor_exit_nodes\":5,\"vpn\":6588,\"relay\":2,\"proxy\":68,\"hosting\":9581,\"service\":5378}","uploaders":"{\"size\":2297,\"mobile\":225,\"satellite\":11,\"tor\":0,\"tor_exit_nodes\":0,\"vpn\":635,\"relay\":2,\"proxy\":0,\"hosting\":669,\"service\":630}"},"geometry":{"type":"Point","coordinates":[21.0071,52.2286]}},{"type":"Feature","properties":{"country_code":"RUS","city":"Yekaterinburg","geoname_id":"1486209","downloaders":"{\"size\":114746,\"mobile\":3638,\"satellite\":0,\"tor\":0,\"tor_exit_nodes\":0,\"vpn\":2601,\"relay\":95,\"proxy\":27,\"hosting\":445,\"service\":362}","uploaders":"{\"size\":287,\"mobile\":8,\"satellite\":0,\"tor\":0,\"tor_exit_nodes\":0,\"vpn\":8,\"relay\":0,\"proxy\":0,\"hosting\":2,\"service\":0}"},"geometry":{"type":"Point","coordinates":[60.61529,56.85733]}},{"type":"Feature","properties":{"country_code":"RUS","city":"Novosibirsk","geoname_id":"1496747","downloaders":"{\"size\":112902,\"mobile\":736,\"satellite\":0,\"tor\":0,\"tor_exit_nodes\":0,\"vpn\":1969,\"relay\":72,\"proxy\":54,\"hosting\":3924,\"service\":279}","uploaders":"{\"size\":303,\"mobile\":3,\"satellite\":0,\"tor\":0,\"tor_exit_nodes\":0,\"vpn\":7,\"relay\":0,\"proxy\":0,\"hosting\":18,\"service\":1}"},"geometry":{"type":"Point","coordinates":[82.93175,55.02259]}},{"type":"Feature","properties":{"country_code":"KOR","city":"Busan","geoname_id":"1838524","downloaders":"{\"size\":99544,\"mobile\":1348,\"satellite\":0,\"tor\":0,\"tor_exit_nodes\":0,\"vpn\":800,\"relay\":0,\"proxy\":3,\"hosting\":85,\"service\":163}","uploaders":"{\"size\":209,\"mobile\":3,\"satellite\":0,\"tor\":0,\"tor_exit_nodes\":0,\"vpn\":1,\"relay\":0,\"proxy\":0,\"hosting\":0,\"service\":0}"},"geometry":{"type":"Point","coordinates":[129.03004,35.10168]}},{"type":"Feature","properties":{"country_code":"CAN","city":"Montréal","geoname_id":"6077243","downloaders":"{\"size\":93445,\"mobile\":4910,\"satellite\":18,\"tor\":41,\"tor_exit_nodes\":50,\"vpn\":34152,\"relay\":28,\"proxy\":1030,\"hosting\":31055,\"service\":33229}","uploaders":"{\"size\":9603,\"mobile\":489,\"satellite\":0,\"tor\":0,\"tor_exit_nodes\":18,\"vpn\":6480,\"relay\":5,\"proxy\":200,\"hosting\":5641,\"service\":6412}"},"geometry":{"type":"Point","coordinates":[-73.5646,45.4992]}},{"type":"Feature","properties":{"country_code":"ESP","city":"Madrid","geoname_id":"3117735","downloaders":"{\"size\":91981,\"mobile\":1678,\"satellite\":419,\"tor\":9,\"tor_exit_nodes\":0,\"vpn\":10236,\"relay\":61,\"proxy\":3,\"hosting\":10667,\"service\":9047}","uploaders":"{\"size\":3516,\"mobile\":200,\"satellite\":159,\"tor\":0,\"tor_exit_nodes\":0,\"vpn\":1335,\"relay\":10,\"proxy\":0,\"hosting\":1398,\"service\":1318}"},"geometry":{"type":"Point","coordinates":[-3.70256,40.4165]}},{"type":"Feature","properties":{"country_code":"CAN","city":"Toronto","geoname_id":"6167865","downloaders":"{\"size\":90763,\"mobile\":4404,\"satellite\":370,\"tor\":8,\"tor_exit_nodes\":303,\"vpn\":49342,\"relay\":68,\"proxy\":111,\"hosting\":50744,\"service\":46995}","uploaders":"{\"size\":12526,\"mobile\":563,\"satellite\":90,\"tor\":0,\"tor_exit_nodes\":51,\"vpn\":8817,\"relay\":16,\"proxy\":19,\"hosting\":8673,\"service\":8552}"},"geometry":{"type":"Point","coordinates":[-79.39864,43.70643]}},{"type":"Feature","properties":{"country_code":"RUS","city":"Nizhniy Novgorod","geoname_id":"520555","downloaders":"{\"size\":88962,\"mobile\":567,\"satellite\":0,\"tor\":0,\"tor_exit_nodes\":0,\"vpn\":1235,\"relay\":56,\"proxy\":5,\"hosting\":56,\"service\":60}","uploaders":"{\"size\":202,\"mobile\":2,\"satellite\":0,\"tor\":0,\"tor_exit_nodes\":0,\"vpn\":7,\"relay\":0,\"proxy\":0,\"hosting\":0,\"service\":0}"},"geometry":{"type":"Point","coordinates":[44.00205,56.32867]}},{"type":"Feature","properties":{"country_code":"KOR","city":"Daegu","geoname_id":"1835329","downloaders":"{\"size\":84390,\"mobile\":356,\"satellite\":0,\"tor\":0,\"tor_exit_nodes\":0,\"vpn\":1001,\"relay\":0,\"proxy\":2,\"hosting\":1387,\"service\":308}","uploaders":"{\"size\":183,\"mobile\":1,\"satellite\":0,\"tor\":0,\"tor_exit_nodes\":0,\"vpn\":4,\"relay\":0,\"proxy\":0,\"hosting\":3,\"service\":1}"},"geometry":{"type":"Point","coordinates":[128.59111,35.87028]}},{"type":"Feature","properties":{"country_code":"MEX","city":"Mexico City","geoname_id":"3530597","downloaders":"{\"size\":82078,\"mobile\":355,\"satellite\":411,\"tor\":0,\"tor_exit_nodes\":0,\"vpn\":278,\"relay\":0,\"proxy\":0,\"hosting\":206,\"service\":204}","uploaders":"{\"size\":712,\"mobile\":8,\"satellite\":34,\"tor\":0,\"tor_exit_nodes\":0,\"vpn\":9,\"relay\":0,\"proxy\":0,\"hosting\":7,\"service\":8}"},"geometry":{"type":"Point","coordinates":[-99.12766,19.42847]}},{"type":"Feature","properties":{"country_code":"USA","city":"New York City","geoname_id":"5128581","downloaders":"{\"size\":79230,\"mobile\":1713,\"satellite\":66,\"tor\":55,\"tor_exit_nodes\":5,\"vpn\":46375,\"relay\":203,\"proxy\":52,\"hosting\":47247,\"service\":44754}","uploaders":"{\"size\":11670,\"mobile\":355,\"satellite\":17,\"tor\":0,\"tor_exit_nodes\":0,\"vpn\":9720,\"relay\":99,\"proxy\":7,\"hosting\":9565,\"service\":9559}"},"geometry":{"type":"Point","coordinates":[-74.00597,40.71427]}},{"type":"Feature","properties":{"country_code":"RUS","city":"Krasnodar","geoname_id":"542420","downloaders":"{\"size\":79077,\"mobile\":403,\"satellite\":0,\"tor\":0,\"tor_exit_nodes\":0,\"vpn\":879,\"relay\":0,\"proxy\":6,\"hosting\":2594,\"service\":0}","uploaders":"{\"size\":176,\"mobile\":6,\"satellite\":0,\"tor\":0,\"tor_exit_nodes\":0,\"vpn\":1,\"relay\":0,\"proxy\":0,\"hosting\":4,\"service\":0}"},"geometry":{"type":"Point","coordinates":[38.98178,45.04534]}},{"type":"Feature","properties":{"country_code":"BGR","city":"Sofia","geoname_id":"727011","downloaders":"{\"size\":78473,\"mobile\":1882,\"satellite\":161,\"tor\":9,\"tor_exit_nodes\":0,\"vpn\":6310,\"relay\":39,\"proxy\":12,\"hosting\":10295,\"service\":4275}","uploaders":"{\"size\":3264,\"mobile\":373,\"satellite\":29,\"tor\":0,\"tor_exit_nodes\":0,\"vpn\":719,\"relay\":3,\"proxy\":0,\"hosting\":747,\"service\":699}"},"geometry":{"type":"Point","coordinates":[23.32415,42.69751]}},{"type":"Feature","properties":{"country_code":"RUS","city":"Samara","geoname_id":"499099","downloaders":"{\"size\":72574,\"mobile\":129,\"satellite\":0,\"tor\":0,\"tor_exit_nodes\":0,\"vpn\":3284,\"relay\":108,\"proxy\":39,\"hosting\":343,\"service\":2358}","uploaders":"{\"size\":172,\"mobile\":1,\"satellite\":0,\"tor\":0,\"tor_exit_nodes\":0,\"vpn\":6,\"relay\":0,\"proxy\":0,\"hosting\":1,\"service\":3}"},"geometry":{"type":"Point","coordinates":[50.13553,53.20767]}},{"type":"Feature","properties":{"country_code":"HKG","city":"Hong Kong","geoname_id":"1819729","downloaders":"{\"size\":70669,\"mobile\":758,\"satellite\":0,\"tor\":0,\"tor_exit_nodes\":0,\"vpn\":6723,\"relay\":147,\"proxy\":21,\"hosting\":8989,\"service\":2986}","uploaders":"{\"size\":1143,\"mobile\":84,\"satellite\":0,\"tor\":0,\"tor_exit_nodes\":0,\"vpn\":368,\"relay\":18,\"proxy\":0,\"hosting\":573,\"service\":367}"},"geometry":{"type":"Point","coordinates":[114.17469,22.27832]}},{"type":"Feature","properties":{"country_code":"JPN","city":"Tokyo","geoname_id":"1850147","downloaders":"{\"size\":70265,\"mobile\":19447,\"satellite\":38,\"tor\":4,\"tor_exit_nodes\":0,\"vpn\":10091,\"relay\":111,\"proxy\":45,\"hosting\":13734,\"service\":8979}","uploaders":"{\"size\":1046,\"mobile\":137,\"satellite\":8,\"tor\":0,\"tor_exit_nodes\":0,\"vpn\":559,\"relay\":2,\"proxy\":4,\"hosting\":606,\"service\":551}"},"geometry":{"type":"Point","coordinates":[139.69171,35.6895]}},{"type":"Feature","properties":{"country_code":"RUS","city":"Voronezh","geoname_id":"472045","downloaders":"{\"size\":67335,\"mobile\":129,\"satellite\":0,\"tor\":0,\"tor_exit_nodes\":0,\"vpn\":1147,\"relay\":0,\"proxy\":2,\"hosting\":12,\"service\":28}","uploaders":"{\"size\":161,\"mobile\":0,\"satellite\":0,\"tor\":0,\"tor_exit_nodes\":0,\"vpn\":24,\"relay\":0,\"proxy\":0,\"hosting\":0,\"service\":0}"},"geometry":{"type":"Point","coordinates":[39.19204,51.66833]}},{"type":"Feature","properties":{"country_code":"BRA","city":"São Paulo","geoname_id":"3448439","downloaders":"{\"size\":66817,\"mobile\":1005,\"satellite\":543,\"tor\":0,\"tor_exit_nodes\":0,\"vpn\":2780,\"relay\":190,\"proxy\":12,\"hosting\":6660,\"service\":2645}","uploaders":"{\"size\":2582,\"mobile\":41,\"satellite\":44,\"tor\":0,\"tor_exit_nodes\":0,\"vpn\":591,\"relay\":18,\"proxy\":0,\"hosting\":681,\"service\":591}"},"geometry":{"type":"Point","coordinates":[-46.63611,-23.5475]}},{"type":"Feature","properties":{"country_code":"RUS","city":"Rostov-on-Don","geoname_id":"501175","downloaders":"{\"size\":65735,\"mobile\":1891,\"satellite\":0,\"tor\":0,\"tor_exit_nodes\":0,\"vpn\":1488,\"relay\":0,\"proxy\":3,\"hosting\":289,\"service\":200}","uploaders":"{\"size\":140,\"mobile\":5,\"satellite\":0,\"tor\":0,\"tor_exit_nodes\":0,\"vpn\":2,\"relay\":0,\"proxy\":0,\"hosting\":1,\"service\":0}"},"geometry":{"type":"Point","coordinates":[39.70769,47.219970000000004]}},{"type":"Feature","properties":{"country_code":"TUR","city":"İzmir","geoname_id":"311046","downloaders":"{\"size\":65711,\"mobile\":2474,\"satellite\":0,\"tor\":0,\"tor_exit_nodes\":0,\"vpn\":24,\"relay\":1,\"proxy\":0,\"hosting\":684,\"service\":1}","uploaders":"{\"size\":130,\"mobile\":8,\"satellite\":0,\"tor\":0,\"tor_exit_nodes\":0,\"vpn\":0,\"relay\":0,\"proxy\":0,\"hosting\":2,\"service\":0}"},"geometry":{"type":"Point","coordinates":[27.13838,38.41273]}},{"type":"Feature","properties":{"country_code":"KOR","city":"Suwon","geoname_id":"1835553","downloaders":"{\"size\":62955,\"mobile\":754,\"satellite\":0,\"tor\":0,\"tor_exit_nodes\":0,\"vpn\":902,\"relay\":0,\"proxy\":28,\"hosting\":127,\"service\":97}","uploaders":"{\"size\":147,\"mobile\":6,\"satellite\":0,\"tor\":0,\"tor_exit_nodes\":0,\"vpn\":1,\"relay\":0,\"proxy\":0,\"hosting\":2,\"service\":1}"},"geometry":{"type":"Point","coordinates":[127.00889,37.29111]}},{"type":"Feature","properties":{"country_code":"CHE","city":"Zürich","geoname_id":"2657896","downloaders":"{\"size\":62679,\"mobile\":8665,\"satellite\":14,\"tor\":108,\"tor_exit_nodes\":59,\"vpn\":40236,\"relay\":28,\"proxy\":92,\"hosting\":40870,\"service\":39030}","uploaders":"{\"size\":7366,\"mobile\":1044,\"satellite\":7,\"tor\":0,\"tor_exit_nodes\":0,\"vpn\":4924,\"relay\":1,\"proxy\":0,\"hosting\":4505,\"service\":4802}"},"geometry":{"type":"Point","coordinates":[8.55,47.36667]}},{"type":"Feature","properties":{"country_code":"PRT","city":"Lisbon","geoname_id":"2267057","downloaders":"{\"size\":61835,\"mobile\":15303,\"satellite\":216,\"tor\":0,\"tor_exit_nodes\":0,\"vpn\":3397,\"relay\":14,\"proxy\":1,\"hosting\":3404,\"service\":3140}","uploaders":"{\"size\":15901,\"mobile\":4797,\"satellite\":91,\"tor\":0,\"tor_exit_nodes\":0,\"vpn\":1122,\"relay\":8,\"proxy\":0,\"hosting\":1159,\"service\":1083}"},"geometry":{"type":"Point","coordinates":[-9.1498,38.72509]}},{"type":"Feature","properties":{"country_code":"AUS","city":"Sydney","geoname_id":"2147714","downloaders":"{\"size\":58982,\"mobile\":2593,\"satellite\":565,\"tor\":5,\"tor_exit_nodes\":0,\"vpn\":12153,\"relay\":63,\"proxy\":390,\"hosting\":13932,\"service\":10869}","uploaders":"{\"size\":8537,\"mobile\":507,\"satellite\":122,\"tor\":0,\"tor_exit_nodes\":0,\"vpn\":2314,\"relay\":21,\"proxy\":12,\"hosting\":2320,\"service\":2287}"},"geometry":{"type":"Point","coordinates":[151.20732,-33.86785]}},{"type":"Feature","properties":{"country_code":"AUS","city":"Melbourne","geoname_id":"2158177","downloaders":"{\"size\":57551,\"mobile\":2443,\"satellite\":370,\"tor\":6,\"tor_exit_nodes\":0,\"vpn\":10154,\"relay\":13,\"proxy\":9,\"hosting\":8294,\"service\":8938}","uploaders":"{\"size\":9870,\"mobile\":637,\"satellite\":99,\"tor\":0,\"tor_exit_nodes\":0,\"vpn\":1935,\"relay\":5,\"proxy\":0,\"hosting\":1686,\"service\":1869}"},"geometry":{"type":"Point","coordinates":[144.96332,-37.814]}},{"type":"Feature","properties":{"country_code":"DEU","city":"Frankfurt am Main","geoname_id":"2925533","downloaders":"{\"size\":56112,\"mobile\":613,\"satellite\":5,\"tor\":124,\"tor_exit_nodes\":95,\"vpn\":22615,\"relay\":57,\"proxy\":190,\"hosting\":48125,\"service\":21319}","uploaders":"{\"size\":3017,\"mobile\":133,\"satellite\":2,\"tor\":9,\"tor_exit_nodes\":1,\"vpn\":2315,\"relay\":0,\"proxy\":5,\"hosting\":2702,\"service\":2248}"},"geometry":{"type":"Point","coordinates":[8.6299,50.1025]}},{"type":"Feature","properties":{"country_code":"TUR","city":"Bursa","geoname_id":"750269","downloaders":"{\"size\":55937,\"mobile\":967,\"satellite\":0,\"tor\":0,\"tor_exit_nodes\":0,\"vpn\":22,\"relay\":0,\"proxy\":0,\"hosting\":179,\"service\":1}","uploaders":"{\"size\":91,\"mobile\":4,\"satellite\":0,\"tor\":0,\"tor_exit_nodes\":0,\"vpn\":0,\"relay\":0,\"proxy\":0,\"hosting\":1,\"service\":0}"},"geometry":{"type":"Point","coordinates":[29.06013,40.19559]}},{"type":"Feature","properties":{"country_code":"RUS","city":"Ufa","geoname_id":"479561","downloaders":"{\"size\":55203,\"mobile\":582,\"satellite\":0,\"tor\":0,\"tor_exit_nodes\":0,\"vpn\":575,\"relay\":0,\"proxy\":0,\"hosting\":50,\"service\":41}","uploaders":"{\"size\":163,\"mobile\":0,\"satellite\":0,\"tor\":0,\"tor_exit_nodes\":0,\"vpn\":0,\"relay\":0,\"proxy\":0,\"hosting\":0,\"service\":0}"},"geometry":{"type":"Point","coordinates":[55.96779,54.74306]}},{"type":"Feature","properties":{"country_code":"RUS","city":"Perm","geoname_id":"511196","downloaders":"{\"size\":54966,\"mobile\":57,\"satellite\":0,\"tor\":0,\"tor_exit_nodes\":0,\"vpn\":660,\"relay\":0,\"proxy\":12,\"hosting\":0,\"service\":1}","uploaders":"{\"size\":136,\"mobile\":0,\"satellite\":0,\"tor\":0,\"tor_exit_nodes\":0,\"vpn\":1,\"relay\":0,\"proxy\":0,\"hosting\":0,\"service\":0}"},"geometry":{"type":"Point","coordinates":[56.25017,58.01046]}},{"type":"Feature","properties":{"country_code":"KOR","city":"Daejeon","geoname_id":"1835235","downloaders":"{\"size\":52848,\"mobile\":127,\"satellite\":0,\"tor\":0,\"tor_exit_nodes\":0,\"vpn\":490,\"relay\":0,\"proxy\":15,\"hosting\":97,\"service\":108}","uploaders":"{\"size\":116,\"mobile\":0,\"satellite\":0,\"tor\":0,\"tor_exit_nodes\":0,\"vpn\":1,\"relay\":0,\"proxy\":0,\"hosting\":0,\"service\":0}"},"geometry":{"type":"Point","coordinates":[127.38493,36.34913]}},{"type":"Feature","properties":{"country_code":"USA","city":"Los Angeles","geoname_id":"5368361","downloaders":"{\"size\":52535,\"mobile\":1407,\"satellite\":16,\"tor\":2,\"tor_exit_nodes\":0,\"vpn\":32081,\"relay\":56,\"proxy\":68,\"hosting\":39162,\"service\":30817}","uploaders":"{\"size\":7284,\"mobile\":335,\"satellite\":1,\"tor\":0,\"tor_exit_nodes\":0,\"vpn\":5815,\"relay\":48,\"proxy\":3,\"hosting\":5913,\"service\":5632}"},"geometry":{"type":"Point","coordinates":[-118.24368,34.05223]}},{"type":"Feature","properties":{"country_code":"RUS","city":"Krasnoyarsk","geoname_id":"1502026","downloaders":"{\"size\":51238,\"mobile\":347,\"satellite\":0,\"tor\":0,\"tor_exit_nodes\":0,\"vpn\":1934,\"relay\":1,\"proxy\":3,\"hosting\":2363,\"service\":1161}","uploaders":"{\"size\":135,\"mobile\":3,\"satellite\":0,\"tor\":0,\"tor_exit_nodes\":0,\"vpn\":12,\"relay\":0,\"proxy\":0,\"hosting\":7,\"service\":3}"},"geometry":{"type":"Point","coordinates":[92.93136,56.03742]}},{"type":"Feature","properties":{"country_code":"CHN","city":"Beijing","geoname_id":"1816670","downloaders":"{\"size\":50683,\"mobile\":118,\"satellite\":0,\"tor\":0,\"tor_exit_nodes\":0,\"vpn\":1557,\"relay\":0,\"proxy\":28,\"hosting\":4781,\"service\":5}","uploaders":"{\"size\":417,\"mobile\":5,\"satellite\":0,\"tor\":0,\"tor_exit_nodes\":0,\"vpn\":10,\"relay\":0,\"proxy\":0,\"hosting\":71,\"service\":4}"},"geometry":{"type":"Point","coordinates":[116.39723,39.9075]}},{"type":"Feature","properties":{"country_code":"CAN","city":"Vancouver","geoname_id":"6173331","downloaders":"{\"size\":50483,\"mobile\":17182,\"satellite\":132,\"tor\":60,\"tor_exit_nodes\":0,\"vpn\":22129,\"relay\":19,\"proxy\":0,\"hosting\":14323,\"service\":20786}","uploaders":"{\"size\":5805,\"mobile\":1260,\"satellite\":54,\"tor\":7,\"tor_exit_nodes\":0,\"vpn\":3538,\"relay\":3,\"proxy\":0,\"hosting\":2828,\"service\":3434}"},"geometry":{"type":"Point","coordinates":[-123.11934,49.24966]}},{"type":"Feature","properties":{"country_code":"ITA","city":"Milan","geoname_id":"3173435","downloaders":"{\"size\":50433,\"mobile\":2299,\"satellite\":388,\"tor\":49,\"tor_exit_nodes\":0,\"vpn\":6038,\"relay\":4,\"proxy\":23,\"hosting\":13515,\"service\":5384}","uploaders":"{\"size\":2333,\"mobile\":550,\"satellite\":29,\"tor\":2,\"tor_exit_nodes\":0,\"vpn\":558,\"relay\":3,\"proxy\":0,\"hosting\":1033,\"service\":545}"},"geometry":{"type":"Point","coordinates":[9.18951,45.46427]}},{"type":"Feature","properties":{"country_code":"RUS","city":"Tyumen","geoname_id":"1488754","downloaders":"{\"size\":50061,\"mobile\":192,\"satellite\":0,\"tor\":0,\"tor_exit_nodes\":0,\"vpn\":608,\"relay\":0,\"proxy\":6,\"hosting\":117,\"service\":14}","uploaders":"{\"size\":132,\"mobile\":0,\"satellite\":0,\"tor\":0,\"tor_exit_nodes\":0,\"vpn\":0,\"relay\":0,\"proxy\":0,\"hosting\":0,\"service\":0}"},"geometry":{"type":"Point","coordinates":[65.52722,57.15222]}},{"type":"Feature","properties":{"country_code":"KOR","city":"Seongnam-si","geoname_id":"1897000","downloaders":"{\"size\":49930,\"mobile\":564,\"satellite\":0,\"tor\":0,\"tor_exit_nodes\":0,\"vpn\":906,\"relay\":0,\"proxy\":28,\"hosting\":59,\"service\":139}","uploaders":"{\"size\":135,\"mobile\":4,\"satellite\":0,\"tor\":0,\"tor_exit_nodes\":0,\"vpn\":3,\"relay\":0,\"proxy\":0,\"hosting\":1,\"service\":3}"},"geometry":{"type":"Point","coordinates":[127.13778,37.43861]}},{"type":"Feature","properties":{"country_code":"SWE","city":"Stockholm","geoname_id":"2673730","downloaders":"{\"size\":49851,\"mobile\":2323,\"satellite\":52,\"tor\":177,\"tor_exit_nodes\":51,\"vpn\":25811,\"relay\":26,\"proxy\":52,\"hosting\":27896,\"service\":25087}","uploaders":"{\"size\":5298,\"mobile\":1156,\"satellite\":8,\"tor\":14,\"tor_exit_nodes\":1,\"vpn\":3324,\"relay\":7,\"proxy\":1,\"hosting\":3397,\"service\":3312}"},"geometry":{"type":"Point","coordinates":[18.06871,59.32938]}},{"type":"Feature","properties":{"country_code":"UKR","city":"Kyiv","geoname_id":"703448","downloaders":"{\"size\":49493,\"mobile\":440,\"satellite\":584,\"tor\":17,\"tor_exit_nodes\":0,\"vpn\":2990,\"relay\":1,\"proxy\":6,\"hosting\":6948,\"service\":1660}","uploaders":"{\"size\":362,\"mobile\":1,\"satellite\":35,\"tor\":0,\"tor_exit_nodes\":0,\"vpn\":101,\"relay\":0,\"proxy\":0,\"hosting\":177,\"service\":97}"},"geometry":{"type":"Point","coordinates":[30.5238,50.45466]}},{"type":"Feature","properties":{"country_code":"BLR","city":"Minsk","geoname_id":"625144","downloaders":"{\"size\":47520,\"mobile\":10119,\"satellite\":0,\"tor\":0,\"tor_exit_nodes\":0,\"vpn\":1222,\"relay\":1,\"proxy\":30,\"hosting\":4729,\"service\":28}","uploaders":"{\"size\":145,\"mobile\":26,\"satellite\":0,\"tor\":0,\"tor_exit_nodes\":0,\"vpn\":2,\"relay\":0,\"proxy\":0,\"hosting\":8,\"service\":0}"},"geometry":{"type":"Point","coordinates":[27.56653,53.90019]}},{"type":"Feature","properties":{"country_code":"RUS","city":"Omsk","geoname_id":"1496153","downloaders":"{\"size\":47519,\"mobile\":83,\"satellite\":0,\"tor\":0,\"tor_exit_nodes\":0,\"vpn\":435,\"relay\":10,\"proxy\":0,\"hosting\":11,\"service\":52}","uploaders":"{\"size\":82,\"mobile\":0,\"satellite\":0,\"tor\":0,\"tor_exit_nodes\":0,\"vpn\":1,\"relay\":0,\"proxy\":0,\"hosting\":0,\"service\":0}"},"geometry":{"type":"Point","coordinates":[73.36859,54.99244]}},{"type":"Feature","properties":{"country_code":"KOR","city":"Hwaseong-si","geoname_id":"1843847","downloaders":"{\"size\":47132,\"mobile\":268,\"satellite\":0,\"tor\":0,\"tor_exit_nodes\":0,\"vpn\":410,\"relay\":0,\"proxy\":1,\"hosting\":92,\"service\":30}","uploaders":"{\"size\":87,\"mobile\":2,\"satellite\":0,\"tor\":0,\"tor_exit_nodes\":0,\"vpn\":1,\"relay\":0,\"proxy\":0,\"hosting\":0,\"service\":0}"},"geometry":{"type":"Point","coordinates":[126.8169,37.20682]}},{"type":"Feature","properties":{"country_code":"KOR","city":"Goyang-si","geoname_id":"1842485","downloaders":"{\"size\":46796,\"mobile\":1084,\"satellite\":0,\"tor\":0,\"tor_exit_nodes\":0,\"vpn\":618,\"relay\":0,\"proxy\":29,\"hosting\":48,\"service\":84}","uploaders":"{\"size\":90,\"mobile\":4,\"satellite\":0,\"tor\":0,\"tor_exit_nodes\":0,\"vpn\":2,\"relay\":0,\"proxy\":0,\"hosting\":0,\"service\":0}"},"geometry":{"type":"Point","coordinates":[126.835,37.65639]}},{"type":"Feature","properties":{"country_code":"KOR","city":"Gwangju","geoname_id":"1841811","downloaders":"{\"size\":46702,\"mobile\":628,\"satellite\":0,\"tor\":0,\"tor_exit_nodes\":0,\"vpn\":284,\"relay\":0,\"proxy\":7,\"hosting\":23,\"service\":51}","uploaders":"{\"size\":102,\"mobile\":0,\"satellite\":0,\"tor\":0,\"tor_exit_nodes\":0,\"vpn\":0,\"relay\":0,\"proxy\":0,\"hosting\":0,\"service\":0}"},"geometry":{"type":"Point","coordinates":[126.91556,35.15472]}},{"type":"Feature","properties":{"country_code":"RUS","city":"Tomsk","geoname_id":"1489425","downloaders":"{\"size\":46238,\"mobile\":47,\"satellite\":0,\"tor\":0,\"tor_exit_nodes\":0,\"vpn\":294,\"relay\":0,\"proxy\":0,\"hosting\":159,\"service\":19}","uploaders":"{\"size\":114,\"mobile\":0,\"satellite\":0,\"tor\":0,\"tor_exit_nodes\":0,\"vpn\":0,\"relay\":0,\"proxy\":0,\"hosting\":0,\"service\":0}"},"geometry":{"type":"Point","coordinates":[84.98216,56.50049]}},{"type":"Feature","properties":{"country_code":"FIN","city":"Helsinki","geoname_id":"658225","downloaders":"{\"size\":43756,\"mobile\":1170,\"satellite\":4,\"tor\":25,\"tor_exit_nodes\":0,\"vpn\":7803,\"relay\":4,\"proxy\":33,\"hosting\":35385,\"service\":5066}","uploaders":"{\"size\":1115,\"mobile\":264,\"satellite\":0,\"tor\":0,\"tor_exit_nodes\":0,\"vpn\":517,\"relay\":0,\"proxy\":0,\"hosting\":626,\"service\":498}"},"geometry":{"type":"Point","coordinates":[24.93545,60.16952]}},{"type":"Feature","properties":{"country_code":"RUS","city":"Balashikha","geoname_id":"579464","downloaders":"{\"size\":43136,\"mobile\":3,\"satellite\":0,\"tor\":0,\"tor_exit_nodes\":0,\"vpn\":1513,\"relay\":0,\"proxy\":1,\"hosting\":2049,\"service\":18}","uploaders":"{\"size\":117,\"mobile\":0,\"satellite\":0,\"tor\":0,\"tor_exit_nodes\":0,\"vpn\":4,\"relay\":0,\"proxy\":0,\"hosting\":2,\"service\":0}"},"geometry":{"type":"Point","coordinates":[37.94794,55.79479]}},{"type":"Feature","properties":{"country_code":"RUS","city":"Khimki","geoname_id":"550280","downloaders":"{\"size\":42784,\"mobile\":33,\"satellite\":5,\"tor\":0,\"tor_exit_nodes\":0,\"vpn\":1998,\"relay\":0,\"proxy\":13,\"hosting\":728,\"service\":42}","uploaders":"{\"size\":101,\"mobile\":0,\"satellite\":0,\"tor\":0,\"tor_exit_nodes\":0,\"vpn\":13,\"relay\":0,\"proxy\":0,\"hosting\":7,\"service\":0}"},"geometry":{"type":"Point","coordinates":[37.42848,55.9001]}},{"type":"Feature","properties":{"country_code":"SVN","city":"Ljubljana","geoname_id":"3196359","downloaders":"{\"size\":42279,\"mobile\":3346,\"satellite\":22,\"tor\":0,\"tor_exit_nodes\":0,\"vpn\":1490,\"relay\":6,\"proxy\":18,\"hosting\":779,\"service\":747}","uploaders":"{\"size\":2806,\"mobile\":1246,\"satellite\":8,\"tor\":0,\"tor_exit_nodes\":0,\"vpn\":115,\"relay\":0,\"proxy\":0,\"hosting\":101,\"service\":104}"},"geometry":{"type":"Point","coordinates":[14.50513,46.05108]}},{"type":"Feature","properties":{"country_code":"USA","city":"Chicago","geoname_id":"4887398","downloaders":"{\"size\":41838,\"mobile\":1203,\"satellite\":88,\"tor\":60,\"tor_exit_nodes\":0,\"vpn\":28831,\"relay\":3,\"proxy\":72,\"hosting\":28372,\"service\":25702}","uploaders":"{\"size\":5525,\"mobile\":253,\"satellite\":17,\"tor\":14,\"tor_exit_nodes\":0,\"vpn\":4403,\"relay\":1,\"proxy\":17,\"hosting\":4484,\"service\":4169}"},"geometry":{"type":"Point","coordinates":[-87.65005,41.85003]}},{"type":"Feature","properties":{"country_code":"KEN","city":"Nairobi","geoname_id":"184745","downloaders":"{\"size\":41380,\"mobile\":15032,\"satellite\":1446,\"tor\":0,\"tor_exit_nodes\":0,\"vpn\":526,\"relay\":34,\"proxy\":17,\"hosting\":1634,\"service\":185}","uploaders":"{\"size\":17364,\"mobile\":5111,\"satellite\":692,\"tor\":0,\"tor_exit_nodes\":0,\"vpn\":249,\"relay\":17,\"proxy\":4,\"hosting\":525,\"service\":141}"},"geometry":{"type":"Point","coordinates":[36.81667,-1.28333]}},{"type":"Feature","properties":{"country_code":"ROU","city":"Bucharest","geoname_id":"683506","downloaders":"{\"size\":40927,\"mobile\":1218,\"satellite\":4,\"tor\":8,\"tor_exit_nodes\":7,\"vpn\":7234,\"relay\":14,\"proxy\":12,\"hosting\":7427,\"service\":6472}","uploaders":"{\"size\":3523,\"mobile\":384,\"satellite\":0,\"tor\":0,\"tor_exit_nodes\":0,\"vpn\":785,\"relay\":6,\"proxy\":0,\"hosting\":781,\"service\":777}"},"geometry":{"type":"Point","coordinates":[26.10626,44.43225]}},{"type":"Feature","properties":{"country_code":"LVA","city":"Riga","geoname_id":"456172","downloaders":"{\"size\":40608,\"mobile\":1328,\"satellite\":79,\"tor\":25,\"tor_exit_nodes\":0,\"vpn\":2099,\"relay\":23,\"proxy\":37,\"hosting\":3889,\"service\":1472}","uploaders":"{\"size\":2181,\"mobile\":424,\"satellite\":2,\"tor\":3,\"tor_exit_nodes\":0,\"vpn\":118,\"relay\":2,\"proxy\":0,\"hosting\":133,\"service\":90}"},"geometry":{"type":"Point","coordinates":[24.10589,56.946]}},{"type":"Feature","properties":{"country_code":"ZAF","city":"Johannesburg","geoname_id":"993800","downloaders":"{\"size\":40092,\"mobile\":6424,\"satellite\":2,\"tor\":0,\"tor_exit_nodes\":0,\"vpn\":1730,\"relay\":9,\"proxy\":59,\"hosting\":7988,\"service\":1378}","uploaders":"{\"size\":12794,\"mobile\":2180,\"satellite\":0,\"tor\":0,\"tor_exit_nodes\":0,\"vpn\":503,\"relay\":5,\"proxy\":9,\"hosting\":1953,\"service\":433}"},"geometry":{"type":"Point","coordinates":[28.04363,-26.20227]}},{"type":"Feature","properties":{"country_code":"RUS","city":"Volgograd","geoname_id":"472757","downloaders":"{\"size\":40045,\"mobile\":2154,\"satellite\":0,\"tor\":0,\"tor_exit_nodes\":0,\"vpn\":432,\"relay\":0,\"proxy\":12,\"hosting\":39,\"service\":6}","uploaders":"{\"size\":91,\"mobile\":14,\"satellite\":0,\"tor\":0,\"tor_exit_nodes\":0,\"vpn\":0,\"relay\":0,\"proxy\":0,\"hosting\":0,\"service\":0}"},"geometry":{"type":"Point","coordinates":[44.4976,48.71378]}},{"type":"Feature","properties":{"country_code":"CHN","city":"Zhengzhou","geoname_id":"1784658","downloaders":"{\"size\":39945,\"mobile\":63,\"satellite\":0,\"tor\":0,\"tor_exit_nodes\":0,\"vpn\":491,\"relay\":0,\"proxy\":12,\"hosting\":32,\"service\":0}","uploaders":"{\"size\":107,\"mobile\":0,\"satellite\":0,\"tor\":0,\"tor_exit_nodes\":0,\"vpn\":1,\"relay\":0,\"proxy\":0,\"hosting\":0,\"service\":0}"},"geometry":{"type":"Point","coordinates":[113.64861,34.75778]}},{"type":"Feature","properties":{"country_code":"RUS","city":"Barnaul","geoname_id":"1510853","downloaders":"{\"size\":39578,\"mobile\":172,\"satellite\":0,\"tor\":0,\"tor_exit_nodes\":0,\"vpn\":438,\"relay\":0,\"proxy\":1,\"hosting\":84,\"service\":207}","uploaders":"{\"size\":84,\"mobile\":0,\"satellite\":0,\"tor\":0,\"tor_exit_nodes\":0,\"vpn\":1,\"relay\":0,\"proxy\":0,\"hosting\":0,\"service\":0}"},"geometry":{"type":"Point","coordinates":[83.72786,53.36199]}},{"type":"Feature","properties":{"country_code":"NLD","city":"Rotterdam","geoname_id":"2747891","downloaders":"{\"size\":37769,\"mobile\":3209,\"satellite\":0,\"tor\":29,\"tor_exit_nodes\":0,\"vpn\":12477,\"relay\":45,\"proxy\":4,\"hosting\":16772,\"service\":2641}","uploaders":"{\"size\":2453,\"mobile\":722,\"satellite\":0,\"tor\":0,\"tor_exit_nodes\":0,\"vpn\":314,\"relay\":13,\"proxy\":0,\"hosting\":562,\"service\":306}"},"geometry":{"type":"Point","coordinates":[3.9439,51.8573]}},{"type":"Feature","properties":{"country_code":"RUS","city":"Tula","geoname_id":"480562","downloaders":"{\"size\":37630,\"mobile\":12,\"satellite\":0,\"tor\":0,\"tor_exit_nodes\":0,\"vpn\":298,\"relay\":0,\"proxy\":14,\"hosting\":152,\"service\":0}","uploaders":"{\"size\":75,\"mobile\":0,\"satellite\":0,\"tor\":0,\"tor_exit_nodes\":0,\"vpn\":0,\"relay\":0,\"proxy\":0,\"hosting\":0,\"service\":0}"},"geometry":{"type":"Point","coordinates":[37.61822,54.19609]}},{"type":"Feature","properties":{"country_code":"RUS","city":"Chelyabinsk","geoname_id":"1508291","downloaders":"{\"size\":37505,\"mobile\":278,\"satellite\":0,\"tor\":0,\"tor_exit_nodes\":0,\"vpn\":533,\"relay\":21,\"proxy\":8,\"hosting\":388,\"service\":29}","uploaders":"{\"size\":93,\"mobile\":3,\"satellite\":0,\"tor\":0,\"tor_exit_nodes\":0,\"vpn\":1,\"relay\":0,\"proxy\":0,\"hosting\":2,\"service\":0}"},"geometry":{"type":"Point","coordinates":[61.42877,55.1611]}},{"type":"Feature","properties":{"country_code":"TUR","city":"Adana","geoname_id":"325363","downloaders":"{\"size\":36821,\"mobile\":319,\"satellite\":0,\"tor\":0,\"tor_exit_nodes\":0,\"vpn\":11,\"relay\":0,\"proxy\":0,\"hosting\":0,\"service\":0}","uploaders":"{\"size\":36,\"mobile\":0,\"satellite\":0,\"tor\":0,\"tor_exit_nodes\":0,\"vpn\":2,\"relay\":0,\"proxy\":0,\"hosting\":0,\"service\":0}"},"geometry":{"type":"Point","coordinates":[35.32531,36.98615]}},{"type":"Feature","properties":{"country_code":"RUS","city":"Irkutsk","geoname_id":"2023469","downloaders":"{\"size\":36534,\"mobile\":431,\"satellite\":0,\"tor\":0,\"tor_exit_nodes\":0,\"vpn\":368,\"relay\":20,\"proxy\":1,\"hosting\":29,\"service\":23}","uploaders":"{\"size\":103,\"mobile\":1,\"satellite\":0,\"tor\":0,\"tor_exit_nodes\":0,\"vpn\":0,\"relay\":2,\"proxy\":0,\"hosting\":2,\"service\":2}"},"geometry":{"type":"Point","coordinates":[104.29076,52.29566]}},{"type":"Feature","properties":{"country_code":"ITA","city":"Rome","geoname_id":"3169070","downloaders":"{\"size\":36420,\"mobile\":1754,\"satellite\":1,\"tor\":0,\"tor_exit_nodes\":0,\"vpn\":910,\"relay\":7,\"proxy\":0,\"hosting\":1778,\"service\":652}","uploaders":"{\"size\":847,\"mobile\":326,\"satellite\":0,\"tor\":0,\"tor_exit_nodes\":0,\"vpn\":143,\"relay\":0,\"proxy\":0,\"hosting\":152,\"service\":142}"},"geometry":{"type":"Point","coordinates":[12.51133,41.89193]}},{"type":"Feature","properties":{"country_code":"CHN","city":"Jiaxing","geoname_id":"1805953","downloaders":"{\"size\":36303,\"mobile\":332,\"satellite\":0,\"tor\":0,\"tor_exit_nodes\":0,\"vpn\":433,\"relay\":0,\"proxy\":1,\"hosting\":143,\"service\":0}","uploaders":"{\"size\":234,\"mobile\":2,\"satellite\":0,\"tor\":0,\"tor_exit_nodes\":0,\"vpn\":1,\"relay\":0,\"proxy\":0,\"hosting\":0,\"service\":0}"},"geometry":{"type":"Point","coordinates":[120.75,30.7522]}},{"type":"Feature","properties":{"country_code":"RUS","city":"Kazan","geoname_id":"551487","downloaders":"{\"size\":36002,\"mobile\":600,\"satellite\":0,\"tor\":0,\"tor_exit_nodes\":0,\"vpn\":1888,\"relay\":0,\"proxy\":7,\"hosting\":69,\"service\":1212}","uploaders":"{\"size\":82,\"mobile\":1,\"satellite\":0,\"tor\":0,\"tor_exit_nodes\":0,\"vpn\":5,\"relay\":0,\"proxy\":0,\"hosting\":0,\"service\":5}"},"geometry":{"type":"Point","coordinates":[49.12214,55.78874]}},{"type":"Feature","properties":{"country_code":"KOR","city":"Ulsan","geoname_id":"1833747","downloaders":"{\"size\":35672,\"mobile\":94,\"satellite\":0,\"tor\":0,\"tor_exit_nodes\":0,\"vpn\":440,\"relay\":0,\"proxy\":16,\"hosting\":5631,\"service\":175}","uploaders":"{\"size\":73,\"mobile\":1,\"satellite\":0,\"tor\":0,\"tor_exit_nodes\":0,\"vpn\":3,\"relay\":0,\"proxy\":0,\"hosting\":20,\"service\":0}"},"geometry":{"type":"Point","coordinates":[129.31667,35.53722]}},{"type":"Feature","properties":{"country_code":"TZA","city":"Dar es Salaam","geoname_id":"160263","downloaders":"{\"size\":35633,\"mobile\":25095,\"satellite\":0,\"tor\":0,\"tor_exit_nodes\":0,\"vpn\":165,\"relay\":126,\"proxy\":0,\"hosting\":133,\"service\":126}","uploaders":"{\"size\":12792,\"mobile\":8417,\"satellite\":0,\"tor\":0,\"tor_exit_nodes\":0,\"vpn\":50,\"relay\":44,\"proxy\":0,\"hosting\":46,\"service\":44}"},"geometry":{"type":"Point","coordinates":[39.26951,-6.82349]}},{"type":"Feature","properties":{"country_code":"RUS","city":"Kemerovo","geoname_id":"1503901","downloaders":"{\"size\":35547,\"mobile\":66,\"satellite\":0,\"tor\":0,\"tor_exit_nodes\":0,\"vpn\":189,\"relay\":0,\"proxy\":1,\"hosting\":20,\"service\":2}","uploaders":"{\"size\":67,\"mobile\":0,\"satellite\":0,\"tor\":0,\"tor_exit_nodes\":0,\"vpn\":0,\"relay\":0,\"proxy\":0,\"hosting\":0,\"service\":0}"},"geometry":{"type":"Point","coordinates":[86.10435,55.35417]}},{"type":"Feature","properties":{"country_code":"RUS","city":"Vladivostok","geoname_id":"2013348","downloaders":"{\"size\":35181,\"mobile\":521,\"satellite\":3,\"tor\":0,\"tor_exit_nodes\":0,\"vpn\":7870,\"relay\":0,\"proxy\":0,\"hosting\":85,\"service\":5188}","uploaders":"{\"size\":89,\"mobile\":0,\"satellite\":0,\"tor\":0,\"tor_exit_nodes\":0,\"vpn\":18,\"relay\":0,\"proxy\":0,\"hosting\":0,\"service\":12}"},"geometry":{"type":"Point","coordinates":[131.87353,43.10562]}},{"type":"Feature","properties":{"country_code":"RUS","city":"Lipetsk","geoname_id":"535121","downloaders":"{\"size\":34264,\"mobile\":7,\"satellite\":0,\"tor\":0,\"tor_exit_nodes\":0,\"vpn\":277,\"relay\":0,\"proxy\":1,\"hosting\":0,\"service\":2}","uploaders":"{\"size\":65,\"mobile\":0,\"satellite\":0,\"tor\":0,\"tor_exit_nodes\":0,\"vpn\":1,\"relay\":0,\"proxy\":0,\"hosting\":0,\"service\":0}"},"geometry":{"type":"Point","coordinates":[39.55151,52.5876]}},{"type":"Feature","properties":{"country_code":"ESP","city":"Barcelona","geoname_id":"3128760","downloaders":"{\"size\":34094,\"mobile\":802,\"satellite\":0,\"tor\":3,\"tor_exit_nodes\":0,\"vpn\":3358,\"relay\":21,\"proxy\":0,\"hosting\":3056,\"service\":2997}","uploaders":"{\"size\":1980,\"mobile\":65,\"satellite\":0,\"tor\":0,\"tor_exit_nodes\":0,\"vpn\":739,\"relay\":0,\"proxy\":0,\"hosting\":722,\"service\":720}"},"geometry":{"type":"Point","coordinates":[2.15899,41.38879]}},{"type":"Feature","properties":{"country_code":"CHN","city":"Qingdao","geoname_id":"1797929","downloaders":"{\"size\":33849,\"mobile\":19,\"satellite\":0,\"tor\":0,\"tor_exit_nodes\":0,\"vpn\":898,\"relay\":0,\"proxy\":3,\"hosting\":360,\"service\":0}","uploaders":"{\"size\":175,\"mobile\":0,\"satellite\":0,\"tor\":0,\"tor_exit_nodes\":0,\"vpn\":2,\"relay\":0,\"proxy\":0,\"hosting\":2,\"service\":0}"},"geometry":{"type":"Point","coordinates":[120.38042,36.06488]}},{"type":"Feature","properties":{"country_code":"KOR","city":"Changwon","geoname_id":"1846326","downloaders":"{\"size\":33829,\"mobile\":614,\"satellite\":0,\"tor\":0,\"tor_exit_nodes\":0,\"vpn\":331,\"relay\":0,\"proxy\":0,\"hosting\":19,\"service\":142}","uploaders":"{\"size\":64,\"mobile\":2,\"satellite\":0,\"tor\":0,\"tor_exit_nodes\":0,\"vpn\":0,\"relay\":0,\"proxy\":0,\"hosting\":0,\"service\":0}"},"geometry":{"type":"Point","coordinates":[128.68111,35.22806]}},{"type":"Feature","properties":{"country_code":"SGP","city":"Singapore","geoname_id":"1880252","downloaders":"{\"size\":33647,\"mobile\":1685,\"satellite\":2,\"tor\":0,\"tor_exit_nodes\":0,\"vpn\":13275,\"relay\":805,\"proxy\":46,\"hosting\":20617,\"service\":13509}","uploaders":"{\"size\":3085,\"mobile\":485,\"satellite\":0,\"tor\":0,\"tor_exit_nodes\":0,\"vpn\":1764,\"relay\":183,\"proxy\":1,\"hosting\":2129,\"service\":1919}"},"geometry":{"type":"Point","coordinates":[103.85007,1.28967]}},{"type":"Feature","properties":{"country_code":"FRA","city":"Lille","geoname_id":"2998324","downloaders":"{\"size\":33485,\"mobile\":3423,\"satellite\":0,\"tor\":37,\"tor_exit_nodes\":0,\"vpn\":970,\"relay\":0,\"proxy\":69,\"hosting\":23889,\"service\":455}","uploaders":"{\"size\":598,\"mobile\":17,\"satellite\":0,\"tor\":0,\"tor_exit_nodes\":0,\"vpn\":41,\"relay\":0,\"proxy\":0,\"hosting\":506,\"service\":40}"},"geometry":{"type":"Point","coordinates":[3.05512,50.63391]}},{"type":"Feature","properties":{"country_code":"KOR","city":"Cheongju-si","geoname_id":"1845604","downloaders":"{\"size\":33479,\"mobile\":678,\"satellite\":0,\"tor\":0,\"tor_exit_nodes\":0,\"vpn\":216,\"relay\":0,\"proxy\":2,\"hosting\":1492,\"service\":37}","uploaders":"{\"size\":73,\"mobile\":2,\"satellite\":0,\"tor\":0,\"tor_exit_nodes\":0,\"vpn\":0,\"relay\":0,\"proxy\":0,\"hosting\":2,\"service\":0}"},"geometry":{"type":"Point","coordinates":[127.48972,36.63722]}},{"type":"Feature","properties":{"country_code":"RUS","city":"Saratov","geoname_id":"498677","downloaders":"{\"size\":33175,\"mobile\":253,\"satellite\":0,\"tor\":0,\"tor_exit_nodes\":0,\"vpn\":335,\"relay\":0,\"proxy\":0,\"hosting\":50,\"service\":8}","uploaders":"{\"size\":64,\"mobile\":0,\"satellite\":0,\"tor\":0,\"tor_exit_nodes\":0,\"vpn\":0,\"relay\":0,\"proxy\":0,\"hosting\":0,\"service\":0}"},"geometry":{"type":"Point","coordinates":[45.9901,51.54048]}},{"type":"Feature","properties":{"country_code":"KOR","city":"Ansan-si","geoname_id":"1846918","downloaders":"{\"size\":32757,\"mobile\":321,\"satellite\":0,\"tor\":0,\"tor_exit_nodes\":0,\"vpn\":228,\"relay\":0,\"proxy\":9,\"hosting\":51,\"service\":13}","uploaders":"{\"size\":71,\"mobile\":0,\"satellite\":0,\"tor\":0,\"tor_exit_nodes\":0,\"vpn\":0,\"relay\":0,\"proxy\":0,\"hosting\":0,\"service\":0}"},"geometry":{"type":"Point","coordinates":[126.82194,37.32361]}},{"type":"Feature","properties":{"country_code":"KOR","city":"Haegok","geoname_id":"6398843","downloaders":"{\"size\":31755,\"mobile\":89,\"satellite\":0,\"tor\":0,\"tor_exit_nodes\":0,\"vpn\":389,\"relay\":0,\"proxy\":1,\"hosting\":61,\"service\":17}","uploaders":"{\"size\":68,\"mobile\":0,\"satellite\":0,\"tor\":0,\"tor_exit_nodes\":0,\"vpn\":0,\"relay\":0,\"proxy\":0,\"hosting\":1,\"service\":0}"},"geometry":{"type":"Point","coordinates":[127.27880999999999,37.19251]}},{"type":"Feature","properties":{"country_code":"RUS","city":"Yaroslavl","geoname_id":"468902","downloaders":"{\"size\":31600,\"mobile\":47,\"satellite\":0,\"tor\":0,\"tor_exit_nodes\":0,\"vpn\":472,\"relay\":0,\"proxy\":9,\"hosting\":0,\"service\":4}","uploaders":"{\"size\":85,\"mobile\":0,\"satellite\":0,\"tor\":0,\"tor_exit_nodes\":0,\"vpn\":3,\"relay\":0,\"proxy\":0,\"hosting\":0,\"service\":0}"},"geometry":{"type":"Point","coordinates":[39.87368,57.62987]}},{"type":"Feature","properties":{"country_code":"TUR","city":"Gaziantep","geoname_id":"314830","downloaders":"{\"size\":30725,\"mobile\":751,\"satellite\":0,\"tor\":0,\"tor_exit_nodes\":0,\"vpn\":3,\"relay\":0,\"proxy\":0,\"hosting\":0,\"service\":0}","uploaders":"{\"size\":23,\"mobile\":1,\"satellite\":0,\"tor\":0,\"tor_exit_nodes\":0,\"vpn\":0,\"relay\":0,\"proxy\":0,\"hosting\":0,\"service\":0}"},"geometry":{"type":"Point","coordinates":[37.3825,37.05944]}},{"type":"Feature","properties":{"country_code":"IRL","city":"Dublin","geoname_id":"2964574","downloaders":"{\"size\":30616,\"mobile\":7170,\"satellite\":108,\"tor\":0,\"tor_exit_nodes\":0,\"vpn\":6142,\"relay\":13,\"proxy\":7,\"hosting\":8211,\"service\":5956}","uploaders":"{\"size\":5225,\"mobile\":2173,\"satellite\":48,\"tor\":0,\"tor_exit_nodes\":0,\"vpn\":1169,\"relay\":10,\"proxy\":0,\"hosting\":1287,\"service\":1174}"},"geometry":{"type":"Point","coordinates":[-6.24889,53.33306]}},{"type":"Feature","properties":{"country_code":"USA","city":"Atlanta","geoname_id":"4180439","downloaders":"{\"size\":30435,\"mobile\":1036,\"satellite\":75,\"tor\":19,\"tor_exit_nodes\":0,\"vpn\":18745,\"relay\":5,\"proxy\":2,\"hosting\":20625,\"service\":18517}","uploaders":"{\"size\":4310,\"mobile\":227,\"satellite\":17,\"tor\":0,\"tor_exit_nodes\":0,\"vpn\":3512,\"relay\":0,\"proxy\":0,\"hosting\":3410,\"service\":3487}"},"geometry":{"type":"Point","coordinates":[-84.38798,33.749]}},{"type":"Feature","properties":{"country_code":"TUR","city":"Antalya","geoname_id":"323777","downloaders":"{\"size\":30312,\"mobile\":4708,\"satellite\":0,\"tor\":0,\"tor_exit_nodes\":0,\"vpn\":3,\"relay\":0,\"proxy\":0,\"hosting\":0,\"service\":0}","uploaders":"{\"size\":49,\"mobile\":3,\"satellite\":0,\"tor\":0,\"tor_exit_nodes\":0,\"vpn\":0,\"relay\":0,\"proxy\":0,\"hosting\":0,\"service\":0}"},"geometry":{"type":"Point","coordinates":[30.69556,36.90812]}},{"type":"Feature","properties":{"country_code":"DEU","city":"Berlin","geoname_id":"2950159","downloaders":"{\"size\":30080,\"mobile\":1482,\"satellite\":282,\"tor\":352,\"tor_exit_nodes\":352,\"vpn\":4168,\"relay\":3,\"proxy\":3,\"hosting\":4893,\"service\":3299}","uploaders":"{\"size\":981,\"mobile\":29,\"satellite\":12,\"tor\":4,\"tor_exit_nodes\":4,\"vpn\":633,\"relay\":0,\"proxy\":0,\"hosting\":648,\"service\":559}"},"geometry":{"type":"Point","coordinates":[13.3643,52.5073]}},{"type":"Feature","properties":{"country_code":"BEL","city":"Brussels","geoname_id":"2800866","downloaders":"{\"size\":30039,\"mobile\":2515,\"satellite\":106,\"tor\":1,\"tor_exit_nodes\":15,\"vpn\":6324,\"relay\":4,\"proxy\":5,\"hosting\":5532,\"service\":6136}","uploaders":"{\"size\":3446,\"mobile\":951,\"satellite\":34,\"tor\":0,\"tor_exit_nodes\":1,\"vpn\":851,\"relay\":3,\"proxy\":0,\"hosting\":822,\"service\":839}"},"geometry":{"type":"Point","coordinates":[4.34878,50.85045]}},{"type":"Feature","properties":{"country_code":"AUS","city":"Brisbane","geoname_id":"2174003","downloaders":"{\"size\":29989,\"mobile\":1739,\"satellite\":314,\"tor\":24,\"tor_exit_nodes\":0,\"vpn\":5489,\"relay\":9,\"proxy\":1,\"hosting\":4973,\"service\":4790}","uploaders":"{\"size\":4646,\"mobile\":420,\"satellite\":77,\"tor\":0,\"tor_exit_nodes\":0,\"vpn\":1204,\"relay\":0,\"proxy\":0,\"hosting\":1183,\"service\":1171}"},"geometry":{"type":"Point","coordinates":[153.02809,-27.46794]}},{"type":"Feature","properties":{"country_code":"IRQ","city":"Baghdad","geoname_id":"98182","downloaders":"{\"size\":29747,\"mobile\":401,\"satellite\":96,\"tor\":0,\"tor_exit_nodes\":0,\"vpn\":13,\"relay\":1,\"proxy\":0,\"hosting\":654,\"service\":1}","uploaders":"{\"size\":101,\"mobile\":6,\"satellite\":4,\"tor\":0,\"tor_exit_nodes\":0,\"vpn\":0,\"relay\":0,\"proxy\":0,\"hosting\":1,\"service\":0}"},"geometry":{"type":"Point","coordinates":[44.40088,33.34058]}},{"type":"Feature","properties":{"country_code":"CZE","city":"Prague","geoname_id":"3067696","downloaders":"{\"size\":29276,\"mobile\":815,\"satellite\":37,\"tor\":5,\"tor_exit_nodes\":1,\"vpn\":5435,\"relay\":5,\"proxy\":14,\"hosting\":7261,\"service\":4325}","uploaders":"{\"size\":962,\"mobile\":116,\"satellite\":0,\"tor\":0,\"tor_exit_nodes\":0,\"vpn\":431,\"relay\":4,\"proxy\":0,\"hosting\":465,\"service\":420}"},"geometry":{"type":"Point","coordinates":[14.42076,50.08804]}},{"type":"Feature","properties":{"country_code":"LTU","city":"Vilnius","geoname_id":"593116","downloaders":"{\"size\":29276,\"mobile\":914,\"satellite\":40,\"tor\":9,\"tor_exit_nodes\":0,\"vpn\":1763,\"relay\":37,\"proxy\":11,\"hosting\":2539,\"service\":1373}","uploaders":"{\"size\":1895,\"mobile\":207,\"satellite\":25,\"tor\":0,\"tor_exit_nodes\":0,\"vpn\":320,\"relay\":19,\"proxy\":0,\"hosting\":335,\"service\":330}"},"geometry":{"type":"Point","coordinates":[25.2798,54.68916]}},{"type":"Feature","properties":{"country_code":"ISR","city":"Tel Aviv","geoname_id":"293397","downloaders":"{\"size\":29137,\"mobile\":2751,\"satellite\":0,\"tor\":1,\"tor_exit_nodes\":0,\"vpn\":1642,\"relay\":0,\"proxy\":5,\"hosting\":1490,\"service\":1459}","uploaders":"{\"size\":5050,\"mobile\":764,\"satellite\":0,\"tor\":0,\"tor_exit_nodes\":0,\"vpn\":233,\"relay\":0,\"proxy\":0,\"hosting\":213,\"service\":213}"},"geometry":{"type":"Point","coordinates":[34.78057,32.08088]}},{"type":"Feature","properties":{"country_code":"GRC","city":"Athens","geoname_id":"264371","downloaders":"{\"size\":29057,\"mobile\":8212,\"satellite\":215,\"tor\":3,\"tor_exit_nodes\":0,\"vpn\":1906,\"relay\":14,\"proxy\":0,\"hosting\":1880,\"service\":1867}","uploaders":"{\"size\":5165,\"mobile\":1902,\"satellite\":60,\"tor\":0,\"tor_exit_nodes\":0,\"vpn\":498,\"relay\":4,\"proxy\":0,\"hosting\":501,\"service\":500}"},"geometry":{"type":"Point","coordinates":[23.72784,37.98376]}},{"type":"Feature","properties":{"country_code":"USA","city":"Dallas","geoname_id":"4684888","downloaders":"{\"size\":28634,\"mobile\":945,\"satellite\":189,\"tor\":0,\"tor_exit_nodes\":3,\"vpn\":23230,\"relay\":3,\"proxy\":0,\"hosting\":23473,\"service\":22733}","uploaders":"{\"size\":4773,\"mobile\":220,\"satellite\":60,\"tor\":0,\"tor_exit_nodes\":0,\"vpn\":4280,\"relay\":0,\"proxy\":0,\"hosting\":3924,\"service\":4172}"},"geometry":{"type":"Point","coordinates":[-96.80667,32.78306]}},{"type":"Feature","properties":{"country_code":"NZL","city":"Auckland","geoname_id":"2193733","downloaders":"{\"size\":28611,\"mobile\":8187,\"satellite\":362,\"tor\":9,\"tor_exit_nodes\":0,\"vpn\":5865,\"relay\":6,\"proxy\":1,\"hosting\":6439,\"service\":5421}","uploaders":"{\"size\":4089,\"mobile\":1206,\"satellite\":96,\"tor\":0,\"tor_exit_nodes\":0,\"vpn\":1285,\"relay\":0,\"proxy\":0,\"hosting\":1321,\"service\":1254}"},"geometry":{"type":"Point","coordinates":[174.76349,-36.84853]}},{"type":"Feature","properties":{"country_code":"TUR","city":"Konya","geoname_id":"306571","downloaders":"{\"size\":28588,\"mobile\":1422,\"satellite\":0,\"tor\":0,\"tor_exit_nodes\":0,\"vpn\":0,\"relay\":0,\"proxy\":0,\"hosting\":0,\"service\":0}","uploaders":"{\"size\":18,\"mobile\":0,\"satellite\":0,\"tor\":0,\"tor_exit_nodes\":0,\"vpn\":0,\"relay\":0,\"proxy\":0,\"hosting\":0,\"service\":0}"},"geometry":{"type":"Point","coordinates":[32.48464,37.87135]}},{"type":"Feature","properties":{"country_code":"HRV","city":"Zagreb","geoname_id":"3186886","downloaders":"{\"size\":27982,\"mobile\":3370,\"satellite\":125,\"tor\":11,\"tor_exit_nodes\":0,\"vpn\":2099,\"relay\":16,\"proxy\":0,\"hosting\":2100,\"service\":1978}","uploaders":"{\"size\":6270,\"mobile\":1541,\"satellite\":20,\"tor\":0,\"tor_exit_nodes\":0,\"vpn\":579,\"relay\":8,\"proxy\":0,\"hosting\":571,\"service\":562}"},"geometry":{"type":"Point","coordinates":[15.97798,45.81444]}},{"type":"Feature","properties":{"country_code":"USA","city":"Seattle","geoname_id":"5809844","downloaders":"{\"size\":27711,\"mobile\":700,\"satellite\":206,\"tor\":0,\"tor_exit_nodes\":0,\"vpn\":19195,\"relay\":15,\"proxy\":0,\"hosting\":20785,\"service\":18757}","uploaders":"{\"size\":3986,\"mobile\":198,\"satellite\":36,\"tor\":0,\"tor_exit_nodes\":0,\"vpn\":3431,\"relay\":3,\"proxy\":0,\"hosting\":3499,\"service\":3389}"},"geometry":{"type":"Point","coordinates":[-122.33207,47.60621]}},{"type":"Feature","properties":{"country_code":"CHN","city":"Shenyang","geoname_id":"2034937","downloaders":"{\"size\":27499,\"mobile\":87,\"satellite\":0,\"tor\":0,\"tor_exit_nodes\":0,\"vpn\":301,\"relay\":2,\"proxy\":2,\"hosting\":5,\"service\":2}","uploaders":"{\"size\":97,\"mobile\":0,\"satellite\":0,\"tor\":0,\"tor_exit_nodes\":0,\"vpn\":0,\"relay\":2,\"proxy\":0,\"hosting\":2,\"service\":2}"},"geometry":{"type":"Point","coordinates":[123.43278,41.79222]}},{"type":"Feature","properties":{"country_code":"KOR","city":"Anyang-si","geoname_id":"1846898","downloaders":"{\"size\":27012,\"mobile\":437,\"satellite\":0,\"tor\":0,\"tor_exit_nodes\":0,\"vpn\":391,\"relay\":0,\"proxy\":1,\"hosting\":33,\"service\":8}","uploaders":"{\"size\":64,\"mobile\":0,\"satellite\":0,\"tor\":0,\"tor_exit_nodes\":0,\"vpn\":0,\"relay\":0,\"proxy\":0,\"hosting\":0,\"service\":0}"},"geometry":{"type":"Point","coordinates":[126.92694,37.3925]}},{"type":"Feature","properties":{"country_code":"JPN","city":"Osaka","geoname_id":"1853909","downloaders":"{\"size\":26499,\"mobile\":4823,\"satellite\":0,\"tor\":1,\"tor_exit_nodes\":0,\"vpn\":2680,\"relay\":1,\"proxy\":2,\"hosting\":3806,\"service\":2296}","uploaders":"{\"size\":248,\"mobile\":23,\"satellite\":0,\"tor\":0,\"tor_exit_nodes\":0,\"vpn\":127,\"relay\":0,\"proxy\":0,\"hosting\":140,\"service\":125}"},"geometry":{"type":"Point","coordinates":[135.50107,34.69379]}},{"type":"Feature","properties":{"country_code":"RUS","city":"Kirov","geoname_id":"548408","downloaders":"{\"size\":26193,\"mobile\":1510,\"satellite\":0,\"tor\":0,\"tor_exit_nodes\":0,\"vpn\":211,\"relay\":0,\"proxy\":0,\"hosting\":0,\"service\":1}","uploaders":"{\"size\":72,\"mobile\":2,\"satellite\":0,\"tor\":0,\"tor_exit_nodes\":0,\"vpn\":1,\"relay\":0,\"proxy\":0,\"hosting\":0,\"service\":0}"},"geometry":{"type":"Point","coordinates":[49.65783,58.59809]}},{"type":"Feature","properties":{"country_code":"KOR","city":"Cheonan","geoname_id":"1845759","downloaders":"{\"size\":25640,\"mobile\":385,\"satellite\":0,\"tor\":0,\"tor_exit_nodes\":0,\"vpn\":139,\"relay\":0,\"proxy\":46,\"hosting\":121,\"service\":9}","uploaders":"{\"size\":50,\"mobile\":0,\"satellite\":0,\"tor\":0,\"tor_exit_nodes\":0,\"vpn\":1,\"relay\":0,\"proxy\":0,\"hosting\":0,\"service\":0}"},"geometry":{"type":"Point","coordinates":[127.1522,36.8065]}},{"type":"Feature","properties":{"country_code":"","city":"","geoname_id":"","downloaders":"{\"size\":25228,\"mobile\":0,\"satellite\":0,\"tor\":0,\"tor_exit_nodes\":0,\"vpn\":0,\"relay\":0,\"proxy\":0,\"hosting\":0,\"service\":0}","uploaders":"{\"size\":43,\"mobile\":0,\"satellite\":0,\"tor\":0,\"tor_exit_nodes\":0,\"vpn\":0,\"relay\":0,\"proxy\":0,\"hosting\":0,\"service\":0}"},"geometry":{"type":"Point","coordinates":[0.0,0.0]}},{"type":"Feature","properties":{"country_code":"RUS","city":"Stavropol","geoname_id":"487846","downloaders":"{\"size\":24993,\"mobile\":24,\"satellite\":0,\"tor\":0,\"tor_exit_nodes\":0,\"vpn\":261,\"relay\":0,\"proxy\":0,\"hosting\":0,\"service\":19}","uploaders":"{\"size\":50,\"mobile\":0,\"satellite\":0,\"tor\":0,\"tor_exit_nodes\":0,\"vpn\":0,\"relay\":0,\"proxy\":0,\"hosting\":0,\"service\":0}"},"geometry":{"type":"Point","coordinates":[41.9642,45.03442]}},{"type":"Feature","properties":{"country_code":"RUS","city":"Cheboksary","geoname_id":"569696","downloaders":"{\"size\":24867,\"mobile\":39,\"satellite\":0,\"tor\":0,\"tor_exit_nodes\":0,\"vpn\":110,\"relay\":0,\"proxy\":0,\"hosting\":0,\"service\":3}","uploaders":"{\"size\":40,\"mobile\":0,\"satellite\":0,\"tor\":0,\"tor_exit_nodes\":0,\"vpn\":0,\"relay\":0,\"proxy\":0,\"hosting\":0,\"service\":0}"},"geometry":{"type":"Point","coordinates":[47.246,56.13218]}},{"type":"Feature","properties":{"country_code":"TWN","city":"Taipei","geoname_id":"1668341","downloaders":"{\"size\":24410,\"mobile\":678,\"satellite\":0,\"tor\":36,\"tor_exit_nodes\":33,\"vpn\":2076,\"relay\":13,\"proxy\":2,\"hosting\":1249,\"service\":868}","uploaders":"{\"size\":322,\"mobile\":6,\"satellite\":0,\"tor\":0,\"tor_exit_nodes\":0,\"vpn\":84,\"relay\":0,\"proxy\":0,\"hosting\":104,\"service\":77}"},"geometry":{"type":"Point","coordinates":[121.52639,25.05306]}},{"type":"Feature","properties":{"country_code":"RUS","city":"Odintsovo","geoname_id":"516215","downloaders":"{\"size\":23976,\"mobile\":0,\"satellite\":0,\"tor\":0,\"tor_exit_nodes\":0,\"vpn\":1093,\"relay\":0,\"proxy\":0,\"hosting\":1,\"service\":0}","uploaders":"{\"size\":45,\"mobile\":0,\"satellite\":0,\"tor\":0,\"tor_exit_nodes\":0,\"vpn\":2,\"relay\":0,\"proxy\":0,\"hosting\":0,\"service\":0}"},"geometry":{"type":"Point","coordinates":[37.27716,55.66977]}},{"type":"Feature","properties":{"country_code":"POL","city":"Ursynów","geoname_id":"6545326","downloaders":"{\"size\":23971,\"mobile\":0,\"satellite\":0,\"tor\":0,\"tor_exit_nodes\":0,\"vpn\":1007,\"relay\":0,\"proxy\":1,\"hosting\":722,\"service\":991}","uploaders":"{\"size\":326,\"mobile\":0,\"satellite\":0,\"tor\":0,\"tor_exit_nodes\":0,\"vpn\":33,\"relay\":0,\"proxy\":0,\"hosting\":33,\"service\":33}"},"geometry":{"type":"Point","coordinates":[21.0068,52.1552]}},{"type":"Feature","properties":{"country_code":"KOR","city":"Hwado","geoname_id":"1897118","downloaders":"{\"size\":23926,\"mobile\":4,\"satellite\":0,\"tor\":0,\"tor_exit_nodes\":0,\"vpn\":229,\"relay\":0,\"proxy\":5,\"hosting\":4,\"service\":41}","uploaders":"{\"size\":39,\"mobile\":0,\"satellite\":0,\"tor\":0,\"tor_exit_nodes\":0,\"vpn\":0,\"relay\":0,\"proxy\":0,\"hosting\":0,\"service\":0}"},"geometry":{"type":"Point","coordinates":[127.3075,37.6525]}},{"type":"Feature","properties":{"country_code":"ARG","city":"Buenos Aires","geoname_id":"3435910","downloaders":"{\"size\":23918,\"mobile\":820,\"satellite\":438,\"tor\":0,\"tor_exit_nodes\":0,\"vpn\":503,\"relay\":4,\"proxy\":0,\"hosting\":547,\"service\":383}","uploaders":"{\"size\":1002,\"mobile\":45,\"satellite\":18,\"tor\":0,\"tor_exit_nodes\":0,\"vpn\":25,\"relay\":2,\"proxy\":0,\"hosting\":36,\"service\":26}"},"geometry":{"type":"Point","coordinates":[-58.37723,-34.61315]}},{"type":"Feature","properties":{"country_code":"USA","city":"Miami","geoname_id":"4164138","downloaders":"{\"size\":23910,\"mobile\":1091,\"satellite\":328,\"tor\":13,\"tor_exit_nodes\":1,\"vpn\":18425,\"relay\":41,\"proxy\":40,\"hosting\":19521,\"service\":18205}","uploaders":"{\"size\":3740,\"mobile\":270,\"satellite\":73,\"tor\":0,\"tor_exit_nodes\":0,\"vpn\":3204,\"relay\":14,\"proxy\":6,\"hosting\":3075,\"service\":3151}"},"geometry":{"type":"Point","coordinates":[-80.19366,25.77427]}},{"type":"Feature","properties":{"country_code":"KOR","city":"Bucheon-si","geoname_id":"1838716","downloaders":"{\"size\":23910,\"mobile\":63,\"satellite\":0,\"tor\":0,\"tor_exit_nodes\":0,\"vpn\":474,\"relay\":0,\"proxy\":0,\"hosting\":13,\"service\":62}","uploaders":"{\"size\":37,\"mobile\":0,\"satellite\":0,\"tor\":0,\"tor_exit_nodes\":0,\"vpn\":2,\"relay\":0,\"proxy\":0,\"hosting\":0,\"service\":0}"},"geometry":{"type":"Point","coordinates":[126.78306,37.49889]}},{"type":"Feature","properties":{"country_code":"RUS","city":"Khabarovsk","geoname_id":"2022890","downloaders":"{\"size\":23862,\"mobile\":129,\"satellite\":20,\"tor\":0,\"tor_exit_nodes\":0,\"vpn\":701,\"relay\":0,\"proxy\":0,\"hosting\":57,\"service\":274}","uploaders":"{\"size\":71,\"mobile\":0,\"satellite\":0,\"tor\":0,\"tor_exit_nodes\":0,\"vpn\":1,\"relay\":0,\"proxy\":0,\"hosting\":0,\"service\":0}"},"geometry":{"type":"Point","coordinates":[135.0971,48.46204]}},{"type":"Feature","properties":{"country_code":"RUS","city":"Tver","geoname_id":"480060","downloaders":"{\"size\":23811,\"mobile\":30,\"satellite\":0,\"tor\":0,\"tor_exit_nodes\":0,\"vpn\":385,\"relay\":0,\"proxy\":7,\"hosting\":37,\"service\":43}","uploaders":"{\"size\":56,\"mobile\":0,\"satellite\":0,\"tor\":0,\"tor_exit_nodes\":0,\"vpn\":1,\"relay\":0,\"proxy\":0,\"hosting\":0,\"service\":0}"},"geometry":{"type":"Point","coordinates":[35.90057,56.85836]}},{"type":"Feature","properties":{"country_code":"NOR","city":"Oslo","geoname_id":"3143244","downloaders":"{\"size\":23745,\"mobile\":1780,\"satellite\":129,\"tor\":19,\"tor_exit_nodes\":14,\"vpn\":7496,\"relay\":5,\"proxy\":0,\"hosting\":7199,\"service\":6901}","uploaders":"{\"size\":2266,\"mobile\":230,\"satellite\":10,\"tor\":0,\"tor_exit_nodes\":0,\"vpn\":1018,\"relay\":2,\"proxy\":0,\"hosting\":1034,\"service\":1007}"},"geometry":{"type":"Point","coordinates":[10.74609,59.91273]}},{"type":"Feature","properties":{"country_code":"KOR","city":"Pyeongtaek","geoname_id":"1838343","downloaders":"{\"size\":23727,\"mobile\":149,\"satellite\":0,\"tor\":0,\"tor_exit_nodes\":0,\"vpn\":114,\"relay\":0,\"proxy\":11,\"hosting\":17,\"service\":6}","uploaders":"{\"size\":55,\"mobile\":1,\"satellite\":0,\"tor\":0,\"tor_exit_nodes\":0,\"vpn\":2,\"relay\":0,\"proxy\":0,\"hosting\":1,\"service\":0}"},"geometry":{"type":"Point","coordinates":[127.08889,36.99472]}},{"type":"Feature","properties":{"country_code":"CHN","city":"Shaoxing","geoname_id":"1795855","downloaders":"{\"size\":23440,\"mobile\":4,\"satellite\":0,\"tor\":0,\"tor_exit_nodes\":0,\"vpn\":260,\"relay\":0,\"proxy\":23,\"hosting\":9794,\"service\":0}","uploaders":"{\"size\":97,\"mobile\":0,\"satellite\":0,\"tor\":0,\"tor_exit_nodes\":0,\"vpn\":0,\"relay\":0,\"proxy\":0,\"hosting\":7,\"service\":0}"},"geometry":{"type":"Point","coordinates":[120.57864,30.00237]}},{"type":"Feature","properties":{"country_code":"FRA","city":"Marseille","geoname_id":"2995469","downloaders":"{\"size\":23280,\"mobile\":3478,\"satellite\":0,\"tor\":0,\"tor_exit_nodes\":0,\"vpn\":7291,\"relay\":3,\"proxy\":14,\"hosting\":9038,\"service\":7250}","uploaders":"{\"size\":1185,\"mobile\":139,\"satellite\":0,\"tor\":0,\"tor_exit_nodes\":0,\"vpn\":858,\"relay\":0,\"proxy\":0,\"hosting\":876,\"service\":853}"},"geometry":{"type":"Point","coordinates":[5.38107,43.29695]}},{"type":"Feature","properties":{"country_code":"FRA","city":"Dunkerque","geoname_id":"3020686","downloaders":"{\"size\":23187,\"mobile\":438,\"satellite\":0,\"tor\":33,\"tor_exit_nodes\":20,\"vpn\":609,\"relay\":0,\"proxy\":33,\"hosting\":21972,\"service\":67}","uploaders":"{\"size\":164,\"mobile\":2,\"satellite\":0,\"tor\":1,\"tor_exit_nodes\":1,\"vpn\":0,\"relay\":0,\"proxy\":0,\"hosting\":159,\"service\":0}"},"geometry":{"type":"Point","coordinates":[2.37681,51.0344]}},{"type":"Feature","properties":{"country_code":"KOR","city":"Jeonju","geoname_id":"1845457","downloaders":"{\"size\":23076,\"mobile\":125,\"satellite\":0,\"tor\":0,\"tor_exit_nodes\":0,\"vpn\":233,\"relay\":0,\"proxy\":0,\"hosting\":2,\"service\":23}","uploaders":"{\"size\":41,\"mobile\":0,\"satellite\":0,\"tor\":0,\"tor_exit_nodes\":0,\"vpn\":0,\"relay\":0,\"proxy\":0,\"hosting\":0,\"service\":0}"},"geometry":{"type":"Point","coordinates":[127.14889,35.82194]}},{"type":"Feature","properties":{"country_code":"ZAF","city":"Pretoria","geoname_id":"964137","downloaders":"{\"size\":23063,\"mobile\":9304,\"satellite\":0,\"tor\":0,\"tor_exit_nodes\":0,\"vpn\":32,\"relay\":10,\"proxy\":0,\"hosting\":24,\"service\":10}","uploaders":"{\"size\":7217,\"mobile\":2823,\"satellite\":0,\"tor\":0,\"tor_exit_nodes\":0,\"vpn\":0,\"relay\":10,\"proxy\":0,\"hosting\":20,\"service\":10}"},"geometry":{"type":"Point","coordinates":[28.18783,-25.74486]}},{"type":"Feature","properties":{"country_code":"RUS","city":"Ulyanovsk","geoname_id":"479123","downloaders":"{\"size\":23003,\"mobile\":164,\"satellite\":0,\"tor\":0,\"tor_exit_nodes\":0,\"vpn\":688,\"relay\":0,\"proxy\":0,\"hosting\":4267,\"service\":501}","uploaders":"{\"size\":46,\"mobile\":1,\"satellite\":0,\"tor\":0,\"tor_exit_nodes\":0,\"vpn\":0,\"relay\":0,\"proxy\":0,\"hosting\":12,\"service\":0}"},"geometry":{"type":"Point","coordinates":[48.38657,54.32824]}},{"type":"Feature","properties":{"country_code":"RUS","city":"Izhevsk","geoname_id":"554840","downloaders":"{\"size\":22797,\"mobile\":20,\"satellite\":1,\"tor\":0,\"tor_exit_nodes\":0,\"vpn\":275,\"relay\":0,\"proxy\":0,\"hosting\":1,\"service\":3}","uploaders":"{\"size\":45,\"mobile\":0,\"satellite\":0,\"tor\":0,\"tor_exit_nodes\":0,\"vpn\":1,\"relay\":0,\"proxy\":0,\"hosting\":0,\"service\":0}"},"geometry":{"type":"Point","coordinates":[53.19862,56.85225]}},{"type":"Feature","properties":{"country_code":"DEU","city":"Falkenstein","geoname_id":"2927913","downloaders":"{\"size\":22750,\"mobile\":0,\"satellite\":0,\"tor\":7,\"tor_exit_nodes\":0,\"vpn\":14,\"relay\":0,\"proxy\":0,\"hosting\":22742,\"service\":14}","uploaders":"{\"size\":256,\"mobile\":0,\"satellite\":0,\"tor\":0,\"tor_exit_nodes\":0,\"vpn\":0,\"relay\":0,\"proxy\":0,\"hosting\":256,\"service\":0}"},"geometry":{"type":"Point","coordinates":[12.37129,50.47788]}},{"type":"Feature","properties":{"country_code":"POL","city":"Poznań","geoname_id":"3088171","downloaders":"{\"size\":22480,\"mobile\":329,\"satellite\":0,\"tor\":10,\"tor_exit_nodes\":4,\"vpn\":136,\"relay\":1,\"proxy\":0,\"hosting\":163,\"service\":3}","uploaders":"{\"size\":159,\"mobile\":17,\"satellite\":0,\"tor\":0,\"tor_exit_nodes\":0,\"vpn\":0,\"relay\":0,\"proxy\":0,\"hosting\":2,\"service\":0}"},"geometry":{"type":"Point","coordinates":[16.92993,52.40692]}},{"type":"Feature","properties":{"country_code":"CHN","city":"Hefei","geoname_id":"1808722","downloaders":"{\"size\":22204,\"mobile\":3,\"satellite\":0,\"tor\":0,\"tor_exit_nodes\":0,\"vpn\":1016,\"relay\":0,\"proxy\":0,\"hosting\":0,\"service\":0}","uploaders":"{\"size\":84,\"mobile\":0,\"satellite\":0,\"tor\":0,\"tor_exit_nodes\":0,\"vpn\":2,\"relay\":0,\"proxy\":0,\"hosting\":0,\"service\":0}"},"geometry":{"type":"Point","coordinates":[117.28083,31.86389]}},{"type":"Feature","properties":{"country_code":"RUS","city":"Tolyatti","geoname_id":"482283","downloaders":"{\"size\":22060,\"mobile\":26,\"satellite\":0,\"tor\":0,\"tor_exit_nodes\":0,\"vpn\":168,\"relay\":0,\"proxy\":1,\"hosting\":0,\"service\":34}","uploaders":"{\"size\":57,\"mobile\":1,\"satellite\":0,\"tor\":0,\"tor_exit_nodes\":0,\"vpn\":0,\"relay\":0,\"proxy\":0,\"hosting\":0,\"service\":0}"},"geometry":{"type":"Point","coordinates":[49.3461,53.5303]}},{"type":"Feature","properties":{"country_code":"EST","city":"Tallinn","geoname_id":"588409","downloaders":"{\"size\":22042,\"mobile\":2429,\"satellite\":1,\"tor\":19,\"tor_exit_nodes\":0,\"vpn\":2394,\"relay\":7,\"proxy\":2,\"hosting\":6597,\"service\":2030}","uploaders":"{\"size\":2208,\"mobile\":871,\"satellite\":0,\"tor\":0,\"tor_exit_nodes\":0,\"vpn\":316,\"relay\":0,\"proxy\":0,\"hosting\":378,\"service\":313}"},"geometry":{"type":"Point","coordinates":[24.75353,59.43696]}},{"type":"Feature","properties":{"country_code":"TUR","city":"Kayseri","geoname_id":"308464","downloaders":"{\"size\":22030,\"mobile\":608,\"satellite\":0,\"tor\":0,\"tor_exit_nodes\":0,\"vpn\":2,\"relay\":0,\"proxy\":0,\"hosting\":0,\"service\":0}","uploaders":"{\"size\":16,\"mobile\":0,\"satellite\":0,\"tor\":0,\"tor_exit_nodes\":0,\"vpn\":0,\"relay\":0,\"proxy\":0,\"hosting\":0,\"service\":0}"},"geometry":{"type":"Point","coordinates":[35.48528,38.73222]}},{"type":"Feature","properties":{"country_code":"KOR","city":"Wŏnju","geoname_id":"1833105","downloaders":"{\"size\":21756,\"mobile\":83,\"satellite\":0,\"tor\":0,\"tor_exit_nodes\":0,\"vpn\":233,\"relay\":0,\"proxy\":0,\"hosting\":4,\"service\":30}","uploaders":"{\"size\":43,\"mobile\":0,\"satellite\":0,\"tor\":0,\"tor_exit_nodes\":0,\"vpn\":0,\"relay\":0,\"proxy\":0,\"hosting\":0,\"service\":0}"},"geometry":{"type":"Point","coordinates":[127.94528,37.35139]}},{"type":"Feature","properties":{"country_code":"RUS","city":"Orenburg","geoname_id":"515003","downloaders":"{\"size\":21707,\"mobile\":34,\"satellite\":0,\"tor\":0,\"tor_exit_nodes\":0,\"vpn\":137,\"relay\":0,\"proxy\":0,\"hosting\":9,\"service\":3}","uploaders":"{\"size\":41,\"mobile\":0,\"satellite\":0,\"tor\":0,\"tor_exit_nodes\":0,\"vpn\":0,\"relay\":0,\"proxy\":0,\"hosting\":0,\"service\":0}"},"geometry":{"type":"Point","coordinates":[55.09883,51.76712]}},{"type":"Feature","properties":{"country_code":"ZAF","city":"Cape Town","geoname_id":"3369157","downloaders":"{\"size\":21663,\"mobile\":2901,\"satellite\":0,\"tor\":0,\"tor_exit_nodes\":0,\"vpn\":291,\"relay\":3,\"proxy\":7,\"hosting\":4000,\"service\":9}","uploaders":"{\"size\":6131,\"mobile\":1163,\"satellite\":0,\"tor\":0,\"tor_exit_nodes\":0,\"vpn\":37,\"relay\":1,\"proxy\":0,\"hosting\":1024,\"service\":1}"},"geometry":{"type":"Point","coordinates":[18.42322,-33.92584]}},{"type":"Feature","properties":{"country_code":"RUS","city":"Penza","geoname_id":"511565","downloaders":"{\"size\":21468,\"mobile\":15,\"satellite\":0,\"tor\":0,\"tor_exit_nodes\":0,\"vpn\":230,\"relay\":0,\"proxy\":0,\"hosting\":15,\"service\":0}","uploaders":"{\"size\":42,\"mobile\":0,\"satellite\":0,\"tor\":0,\"tor_exit_nodes\":0,\"vpn\":1,\"relay\":0,\"proxy\":0,\"hosting\":0,\"service\":0}"},"geometry":{"type":"Point","coordinates":[45.01075,53.19568]}},{"type":"Feature","properties":{"country_code":"RUS","city":"Mytishchi","geoname_id":"523812","downloaders":"{\"size\":21247,\"mobile\":0,\"satellite\":0,\"tor\":0,\"tor_exit_nodes\":0,\"vpn\":1343,\"relay\":0,\"proxy\":8,\"hosting\":5,\"service\":49}","uploaders":"{\"size\":35,\"mobile\":0,\"satellite\":0,\"tor\":0,\"tor_exit_nodes\":0,\"vpn\":2,\"relay\":0,\"proxy\":0,\"hosting\":0,\"service\":0}"},"geometry":{"type":"Point","coordinates":[37.72964,55.91099]}},{"type":"Feature","properties":{"country_code":"PAK","city":"Lahore","geoname_id":"1172451","downloaders":"{\"size\":21174,\"mobile\":251,\"satellite\":0,\"tor\":0,\"tor_exit_nodes\":0,\"vpn\":35,\"relay\":5,\"proxy\":1,\"hosting\":34,\"service\":5}","uploaders":"{\"size\":373,\"mobile\":57,\"satellite\":0,\"tor\":0,\"tor_exit_nodes\":0,\"vpn\":0,\"relay\":1,\"proxy\":0,\"hosting\":3,\"service\":1}"},"geometry":{"type":"Point","coordinates":[74.35071,31.558]}},{"type":"Feature","properties":{"country_code":"BRA","city":"Rio de Janeiro","geoname_id":"3451190","downloaders":"{\"size\":21033,\"mobile\":364,\"satellite\":0,\"tor\":0,\"tor_exit_nodes\":0,\"vpn\":83,\"relay\":46,\"proxy\":3,\"hosting\":132,\"service\":46}","uploaders":"{\"size\":822,\"mobile\":24,\"satellite\":0,\"tor\":0,\"tor_exit_nodes\":0,\"vpn\":3,\"relay\":5,\"proxy\":1,\"hosting\":5,\"service\":5}"},"geometry":{"type":"Point","coordinates":[-43.18223,-22.90642]}},{"type":"Feature","properties":{"country_code":"CHN","city":"Wuhan","geoname_id":"1791247","downloaders":"{\"size\":21023,\"mobile\":201,\"satellite\":0,\"tor\":0,\"tor_exit_nodes\":0,\"vpn\":883,\"relay\":0,\"proxy\":15,\"hosting\":159,\"service\":0}","uploaders":"{\"size\":94,\"mobile\":1,\"satellite\":0,\"tor\":0,\"tor_exit_nodes\":0,\"vpn\":0,\"relay\":0,\"proxy\":0,\"hosting\":0,\"service\":0}"},"geometry":{"type":"Point","coordinates":[114.26667,30.58333]}},{"type":"Feature","properties":{"country_code":"RUS","city":"Kaliningrad","geoname_id":"554234","downloaders":"{\"size\":21015,\"mobile\":213,\"satellite\":0,\"tor\":0,\"tor_exit_nodes\":0,\"vpn\":242,\"relay\":0,\"proxy\":6,\"hosting\":6,\"service\":0}","uploaders":"{\"size\":51,\"mobile\":0,\"satellite\":0,\"tor\":0,\"tor_exit_nodes\":0,\"vpn\":4,\"relay\":0,\"proxy\":0,\"hosting\":0,\"service\":0}"},"geometry":{"type":"Point","coordinates":[20.51102,54.70639]}},{"type":"Feature","properties":{"country_code":"TUR","city":"Mersin","geoname_id":"304531","downloaders":"{\"size\":20882,\"mobile\":2449,\"satellite\":0,\"tor\":0,\"tor_exit_nodes\":0,\"vpn\":2,\"relay\":0,\"proxy\":0,\"hosting\":0,\"service\":0}","uploaders":"{\"size\":98,\"mobile\":5,\"satellite\":0,\"tor\":0,\"tor_exit_nodes\":0,\"vpn\":1,\"relay\":0,\"proxy\":0,\"hosting\":0,\"service\":0}"},"geometry":{"type":"Point","coordinates":[34.63886,36.81196]}},{"type":"Feature","properties":{"country_code":"CHN","city":"Chengdu","geoname_id":"1815286","downloaders":"{\"size\":20669,\"mobile\":809,\"satellite\":0,\"tor\":0,\"tor_exit_nodes\":0,\"vpn\":1186,\"relay\":0,\"proxy\":6,\"hosting\":633,\"service\":0}","uploaders":"{\"size\":287,\"mobile\":24,\"satellite\":0,\"tor\":0,\"tor_exit_nodes\":0,\"vpn\":7,\"relay\":0,\"proxy\":0,\"hosting\":2,\"service\":0}"},"geometry":{"type":"Point","coordinates":[104.06667,30.66667]}},{"type":"Feature","properties":{"country_code":"RUS","city":"Ryazan’","geoname_id":"500096","downloaders":"{\"size\":20639,\"mobile\":23,\"satellite\":0,\"tor\":0,\"tor_exit_nodes\":0,\"vpn\":477,\"relay\":0,\"proxy\":0,\"hosting\":2,\"service\":22}","uploaders":"{\"size\":45,\"mobile\":0,\"satellite\":0,\"tor\":0,\"tor_exit_nodes\":0,\"vpn\":0,\"relay\":0,\"proxy\":0,\"hosting\":0,\"service\":0}"},"geometry":{"type":"Point","coordinates":[39.70415,54.62696]}},{"type":"Feature","properties":{"country_code":"ESP","city":"Sevilla","geoname_id":"2510911","downloaders":"{\"size\":20628,\"mobile\":901,\"satellite\":0,\"tor\":0,\"tor_exit_nodes\":0,\"vpn\":74,\"relay\":10,\"proxy\":1,\"hosting\":29,\"service\":17}","uploaders":"{\"size\":380,\"mobile\":60,\"satellite\":0,\"tor\":0,\"tor_exit_nodes\":0,\"vpn\":0,\"relay\":4,\"proxy\":0,\"hosting\":4,\"service\":4}"},"geometry":{"type":"Point","coordinates":[-5.97317,37.38283]}},{"type":"Feature","properties":{"country_code":"JPN","city":"Yokohama","geoname_id":"1848354","downloaders":"{\"size\":20483,\"mobile\":7935,\"satellite\":0,\"tor\":0,\"tor_exit_nodes\":0,\"vpn\":779,\"relay\":3,\"proxy\":0,\"hosting\":97,\"service\":423}","uploaders":"{\"size\":98,\"mobile\":42,\"satellite\":0,\"tor\":0,\"tor_exit_nodes\":0,\"vpn\":16,\"relay\":0,\"proxy\":0,\"hosting\":8,\"service\":15}"},"geometry":{"type":"Point","coordinates":[139.65,35.43333]}},{"type":"Feature","properties":{"country_code":"THA","city":"Bangkok","geoname_id":"1609350","downloaders":"{\"size\":20365,\"mobile\":2313,\"satellite\":0,\"tor\":0,\"tor_exit_nodes\":0,\"vpn\":902,\"relay\":1,\"proxy\":10,\"hosting\":1519,\"service\":555}","uploaders":"{\"size\":989,\"mobile\":297,\"satellite\":0,\"tor\":0,\"tor_exit_nodes\":0,\"vpn\":103,\"relay\":0,\"proxy\":0,\"hosting\":123,\"service\":103}"},"geometry":{"type":"Point","coordinates":[100.50144,13.75398]}},{"type":"Feature","properties":{"country_code":"AUT","city":"Vienna","geoname_id":"2761369","downloaders":"{\"size\":20067,\"mobile\":1691,\"satellite\":125,\"tor\":47,\"tor_exit_nodes\":4,\"vpn\":4605,\"relay\":2,\"proxy\":49,\"hosting\":5486,\"service\":4360}","uploaders":"{\"size\":1649,\"mobile\":350,\"satellite\":5,\"tor\":0,\"tor_exit_nodes\":0,\"vpn\":548,\"relay\":0,\"proxy\":0,\"hosting\":553,\"service\":531}"},"geometry":{"type":"Point","coordinates":[16.37208,48.20849]}},{"type":"Feature","properties":{"country_code":"RUS","city":"Bryansk","geoname_id":"571476","downloaders":"{\"size\":20034,\"mobile\":3,\"satellite\":0,\"tor\":0,\"tor_exit_nodes\":0,\"vpn\":154,\"relay\":0,\"proxy\":0,\"hosting\":3,\"service\":9}","uploaders":"{\"size\":49,\"mobile\":0,\"satellite\":0,\"tor\":0,\"tor_exit_nodes\":0,\"vpn\":1,\"relay\":0,\"proxy\":0,\"hosting\":0,\"service\":0}"},"geometry":{"type":"Point","coordinates":[34.32143,53.27096]}},{"type":"Feature","properties":{"country_code":"RUS","city":"Novokuznetsk","geoname_id":"1496990","downloaders":"{\"size\":19923,\"mobile\":2,\"satellite\":0,\"tor\":0,\"tor_exit_nodes\":0,\"vpn\":323,\"relay\":0,\"proxy\":2,\"hosting\":0,\"service\":0}","uploaders":"{\"size\":50,\"mobile\":0,\"satellite\":0,\"tor\":0,\"tor_exit_nodes\":0,\"vpn\":3,\"relay\":0,\"proxy\":0,\"hosting\":0,\"service\":0}"},"geometry":{"type":"Point","coordinates":[87.13599,53.75752]}},{"type":"Feature","properties":{"country_code":"AUS","city":"Perth","geoname_id":"2063523","downloaders":"{\"size\":19596,\"mobile\":826,\"satellite\":198,\"tor\":3,\"tor_exit_nodes\":0,\"vpn\":3849,\"relay\":11,\"proxy\":5,\"hosting\":3559,\"service\":3491}","uploaders":"{\"size\":3130,\"mobile\":226,\"satellite\":47,\"tor\":0,\"tor_exit_nodes\":0,\"vpn\":742,\"relay\":3,\"proxy\":0,\"hosting\":738,\"service\":736}"},"geometry":{"type":"Point","coordinates":[115.8614,-31.95224]}},{"type":"Feature","properties":{"country_code":"MAR","city":"Casablanca","geoname_id":"2553604","downloaders":"{\"size\":19407,\"mobile\":7612,\"satellite\":0,\"tor\":0,\"tor_exit_nodes\":0,\"vpn\":37,\"relay\":1,\"proxy\":4,\"hosting\":6,\"service\":1}","uploaders":"{\"size\":3432,\"mobile\":1194,\"satellite\":0,\"tor\":0,\"tor_exit_nodes\":0,\"vpn\":6,\"relay\":0,\"proxy\":1,\"hosting\":1,\"service\":0}"},"geometry":{"type":"Point","coordinates":[-7.61138,33.58831]}},{"type":"Feature","properties":{"country_code":"USA","city":"San Jose","geoname_id":"5392171","downloaders":"{\"size\":19401,\"mobile\":197,\"satellite\":179,\"tor\":176,\"tor_exit_nodes\":99,\"vpn\":10507,\"relay\":116,\"proxy\":39,\"hosting\":13725,\"service\":10370}","uploaders":"{\"size\":2331,\"mobile\":15,\"satellite\":25,\"tor\":0,\"tor_exit_nodes\":0,\"vpn\":1948,\"relay\":21,\"proxy\":0,\"hosting\":2109,\"service\":1950}"},"geometry":{"type":"Point","coordinates":[-121.89496,37.33939]}},{"type":"Feature","properties":{"country_code":"TWN","city":"Banqiao","geoname_id":"1670029","downloaders":"{\"size\":19347,\"mobile\":113,\"satellite\":0,\"tor\":1,\"tor_exit_nodes\":0,\"vpn\":1258,\"relay\":0,\"proxy\":0,\"hosting\":87,\"service\":81}","uploaders":"{\"size\":106,\"mobile\":1,\"satellite\":0,\"tor\":0,\"tor_exit_nodes\":0,\"vpn\":14,\"relay\":0,\"proxy\":0,\"hosting\":8,\"service\":8}"},"geometry":{"type":"Point","coordinates":[121.46719,25.01427]}},{"type":"Feature","properties":{"country_code":"DNK","city":"Copenhagen","geoname_id":"2618425","downloaders":"{\"size\":19284,\"mobile\":1262,\"satellite\":0,\"tor\":34,\"tor_exit_nodes\":8,\"vpn\":5290,\"relay\":12,\"proxy\":0,\"hosting\":5351,\"service\":4798}","uploaders":"{\"size\":2268,\"mobile\":339,\"satellite\":0,\"tor\":1,\"tor_exit_nodes\":0,\"vpn\":734,\"relay\":0,\"proxy\":0,\"hosting\":743,\"service\":729}"},"geometry":{"type":"Point","coordinates":[12.56553,55.67594]}},{"type":"Feature","properties":{"country_code":"BEL","city":"Antwerpen","geoname_id":"2803138","downloaders":"{\"size\":19191,\"mobile\":477,\"satellite\":0,\"tor\":0,\"tor_exit_nodes\":0,\"vpn\":269,\"relay\":0,\"proxy\":0,\"hosting\":137,\"service\":134}","uploaders":"{\"size\":1975,\"mobile\":62,\"satellite\":0,\"tor\":0,\"tor_exit_nodes\":0,\"vpn\":49,\"relay\":0,\"proxy\":0,\"hosting\":41,\"service\":39}"},"geometry":{"type":"Point","coordinates":[4.40026,51.22047]}},{"type":"Feature","properties":{"country_code":"PRT","city":"Porto","geoname_id":"2735943","downloaders":"{\"size\":19107,\"mobile\":1167,\"satellite\":0,\"tor\":0,\"tor_exit_nodes\":0,\"vpn\":180,\"relay\":0,\"proxy\":4,\"hosting\":136,\"service\":91}","uploaders":"{\"size\":3970,\"mobile\":202,\"satellite\":0,\"tor\":0,\"tor_exit_nodes\":0,\"vpn\":35,\"relay\":0,\"proxy\":0,\"hosting\":43,\"service\":30}"},"geometry":{"type":"Point","coordinates":[-8.61097,41.1485]}},{"type":"Feature","properties":{"country_code":"GHA","city":"Accra","geoname_id":"2306104","downloaders":"{\"size\":19030,\"mobile\":14117,\"satellite\":1529,\"tor\":0,\"tor_exit_nodes\":0,\"vpn\":51,\"relay\":0,\"proxy\":0,\"hosting\":56,\"service\":3}","uploaders":"{\"size\":7187,\"mobile\":5056,\"satellite\":677,\"tor\":0,\"tor_exit_nodes\":0,\"vpn\":14,\"relay\":0,\"proxy\":0,\"hosting\":19,\"service\":0}"},"geometry":{"type":"Point","coordinates":[-0.1969,5.55602]}},{"type":"Feature","properties":{"country_code":"RUS","city":"Vladimir","geoname_id":"473247","downloaders":"{\"size\":18715,\"mobile\":0,\"satellite\":0,\"tor\":0,\"tor_exit_nodes\":0,\"vpn\":233,\"relay\":0,\"proxy\":0,\"hosting\":4,\"service\":19}","uploaders":"{\"size\":37,\"mobile\":0,\"satellite\":0,\"tor\":0,\"tor_exit_nodes\":0,\"vpn\":2,\"relay\":0,\"proxy\":0,\"hosting\":0,\"service\":0}"},"geometry":{"type":"Point","coordinates":[40.39976,56.13854]}},{"type":"Feature","properties":{"country_code":"SAU","city":"Riyadh","geoname_id":"108410","downloaders":"{\"size\":18680,\"mobile\":3503,\"satellite\":0,\"tor\":0,\"tor_exit_nodes\":0,\"vpn\":55,\"relay\":53,\"proxy\":0,\"hosting\":137,\"service\":59}","uploaders":"{\"size\":2536,\"mobile\":671,\"satellite\":0,\"tor\":0,\"tor_exit_nodes\":0,\"vpn\":8,\"relay\":30,\"proxy\":0,\"hosting\":31,\"service\":30}"},"geometry":{"type":"Point","coordinates":[46.72185,24.68773]}},{"type":"Feature","properties":{"country_code":"POL","city":"Wrocław","geoname_id":"3081368","downloaders":"{\"size\":18465,\"mobile\":393,\"satellite\":0,\"tor\":0,\"tor_exit_nodes\":0,\"vpn\":237,\"relay\":9,\"proxy\":3,\"hosting\":1171,\"service\":9}","uploaders":"{\"size\":159,\"mobile\":25,\"satellite\":0,\"tor\":0,\"tor_exit_nodes\":0,\"vpn\":1,\"relay\":0,\"proxy\":0,\"hosting\":6,\"service\":0}"},"geometry":{"type":"Point","coordinates":[17.03006,51.10286]}},{"type":"Feature","properties":{"country_code":"UKR","city":"Odesa","geoname_id":"698740","downloaders":"{\"size\":18146,\"mobile\":49,\"satellite\":0,\"tor\":0,\"tor_exit_nodes\":0,\"vpn\":222,\"relay\":0,\"proxy\":12,\"hosting\":3,\"service\":0}","uploaders":"{\"size\":27,\"mobile\":0,\"satellite\":0,\"tor\":0,\"tor_exit_nodes\":0,\"vpn\":6,\"relay\":0,\"proxy\":0,\"hosting\":0,\"service\":0}"},"geometry":{"type":"Point","coordinates":[30.74383,46.48572]}},{"type":"Feature","properties":{"country_code":"KOR","city":"Munsan","geoname_id":"1840862","downloaders":"{\"size\":17935,\"mobile\":43,\"satellite\":0,\"tor\":0,\"tor_exit_nodes\":0,\"vpn\":64,\"relay\":0,\"proxy\":1,\"hosting\":18,\"service\":8}","uploaders":"{\"size\":42,\"mobile\":0,\"satellite\":0,\"tor\":0,\"tor_exit_nodes\":0,\"vpn\":1,\"relay\":0,\"proxy\":0,\"hosting\":0,\"service\":1}"},"geometry":{"type":"Point","coordinates":[126.785,37.85944]}},{"type":"Feature","properties":{"country_code":"TUR","city":"İzmit","geoname_id":"745028","downloaders":"{\"size\":17934,\"mobile\":23,\"satellite\":0,\"tor\":0,\"tor_exit_nodes\":0,\"vpn\":0,\"relay\":0,\"proxy\":0,\"hosting\":7,\"service\":0}","uploaders":"{\"size\":9,\"mobile\":0,\"satellite\":0,\"tor\":0,\"tor_exit_nodes\":0,\"vpn\":0,\"relay\":0,\"proxy\":0,\"hosting\":0,\"service\":0}"},"geometry":{"type":"Point","coordinates":[29.92928,40.76499]}},{"type":"Feature","properties":{"country_code":"RUS","city":"Korolev","geoname_id":"554233","downloaders":"{\"size\":17735,\"mobile\":0,\"satellite\":0,\"tor\":0,\"tor_exit_nodes\":0,\"vpn\":619,\"relay\":0,\"proxy\":0,\"hosting\":466,\"service\":12}","uploaders":"{\"size\":39,\"mobile\":0,\"satellite\":0,\"tor\":0,\"tor_exit_nodes\":0,\"vpn\":1,\"relay\":0,\"proxy\":0,\"hosting\":2,\"service\":0}"},"geometry":{"type":"Point","coordinates":[37.82556,55.91417]}},{"type":"Feature","properties":{"country_code":"MEX","city":"Guadalajara","geoname_id":"4005539","downloaders":"{\"size\":17665,\"mobile\":3,\"satellite\":0,\"tor\":0,\"tor_exit_nodes\":0,\"vpn\":18,\"relay\":0,\"proxy\":0,\"hosting\":3,\"service\":3}","uploaders":"{\"size\":112,\"mobile\":0,\"satellite\":0,\"tor\":0,\"tor_exit_nodes\":0,\"vpn\":0,\"relay\":0,\"proxy\":0,\"hosting\":0,\"service\":0}"},"geometry":{"type":"Point","coordinates":[-103.34749,20.67738]}},{"type":"Feature","properties":{"country_code":"CHL","city":"Santiago","geoname_id":"3871336","downloaders":"{\"size\":17575,\"mobile\":1271,\"satellite\":121,\"tor\":0,\"tor_exit_nodes\":0,\"vpn\":423,\"relay\":0,\"proxy\":0,\"hosting\":1361,\"service\":388}","uploaders":"{\"size\":1182,\"mobile\":126,\"satellite\":5,\"tor\":0,\"tor_exit_nodes\":0,\"vpn\":76,\"relay\":0,\"proxy\":0,\"hosting\":159,\"service\":71}"},"geometry":{"type":"Point","coordinates":[-70.64827,-33.45694]}},{"type":"Feature","properties":{"country_code":"USA","city":"Denver","geoname_id":"5419384","downloaders":"{\"size\":17349,\"mobile\":346,\"satellite\":96,\"tor\":0,\"tor_exit_nodes\":0,\"vpn\":11913,\"relay\":16,\"proxy\":0,\"hosting\":11413,\"service\":11760}","uploaders":"{\"size\":2643,\"mobile\":46,\"satellite\":11,\"tor\":0,\"tor_exit_nodes\":0,\"vpn\":2307,\"relay\":4,\"proxy\":0,\"hosting\":2012,\"service\":2287}"},"geometry":{"type":"Point","coordinates":[-104.9847,39.73915]}},{"type":"Feature","properties":{"country_code":"BEL","city":"Charleroi","geoname_id":"2800481","downloaders":"{\"size\":17337,\"mobile\":23,\"satellite\":0,\"tor\":0,\"tor_exit_nodes\":0,\"vpn\":166,\"relay\":0,\"proxy\":0,\"hosting\":0,\"service\":0}","uploaders":"{\"size\":228,\"mobile\":5,\"satellite\":0,\"tor\":0,\"tor_exit_nodes\":0,\"vpn\":0,\"relay\":0,\"proxy\":0,\"hosting\":0,\"service\":0}"},"geometry":{"type":"Point","coordinates":[4.44448,50.41136]}},{"type":"Feature","properties":{"country_code":"POL","city":"Katowice","geoname_id":"3096472","downloaders":"{\"size\":17214,\"mobile\":69,\"satellite\":0,\"tor\":1,\"tor_exit_nodes\":0,\"vpn\":57,\"relay\":1,\"proxy\":0,\"hosting\":276,\"service\":1}","uploaders":"{\"size\":55,\"mobile\":0,\"satellite\":0,\"tor\":0,\"tor_exit_nodes\":0,\"vpn\":1,\"relay\":0,\"proxy\":0,\"hosting\":3,\"service\":0}"},"geometry":{"type":"Point","coordinates":[19.02173,50.2597]}},{"type":"Feature","properties":{"country_code":"BGR","city":"Plovdiv","geoname_id":"728193","downloaders":"{\"size\":17139,\"mobile\":4,\"satellite\":0,\"tor\":0,\"tor_exit_nodes\":0,\"vpn\":487,\"relay\":0,\"proxy\":0,\"hosting\":1363,\"service\":0}","uploaders":"{\"size\":328,\"mobile\":1,\"satellite\":0,\"tor\":0,\"tor_exit_nodes\":0,\"vpn\":9,\"relay\":0,\"proxy\":0,\"hosting\":18,\"service\":0}"},"geometry":{"type":"Point","coordinates":[24.75001,42.15387]}},{"type":"Feature","properties":{"country_code":"ITA","city":"Naples","geoname_id":"3172394","downloaders":"{\"size\":16940,\"mobile\":703,\"satellite\":0,\"tor\":0,\"tor_exit_nodes\":0,\"vpn\":38,\"relay\":1,\"proxy\":1,\"hosting\":154,\"service\":5}","uploaders":"{\"size\":194,\"mobile\":20,\"satellite\":0,\"tor\":0,\"tor_exit_nodes\":0,\"vpn\":0,\"relay\":0,\"proxy\":0,\"hosting\":2,\"service\":0}"},"geometry":{"type":"Point","coordinates":[14.26811,40.85216]}},{"type":"Feature","properties":{"country_code":"SWE","city":"Kista","geoname_id":"2700791","downloaders":"{\"size\":16828,\"mobile\":424,\"satellite\":0,\"tor\":0,\"tor_exit_nodes\":0,\"vpn\":2112,\"relay\":0,\"proxy\":0,\"hosting\":1977,\"service\":1933}","uploaders":"{\"size\":982,\"mobile\":202,\"satellite\":0,\"tor\":0,\"tor_exit_nodes\":0,\"vpn\":144,\"relay\":0,\"proxy\":0,\"hosting\":144,\"service\":144}"},"geometry":{"type":"Point","coordinates":[17.94479,59.40316]}},{"type":"Feature","properties":{"country_code":"USA","city":"Phoenix","geoname_id":"5308655","downloaders":"{\"size\":16818,\"mobile\":432,\"satellite\":64,\"tor\":76,\"tor_exit_nodes\":0,\"vpn\":4944,\"relay\":48,\"proxy\":14,\"hosting\":6949,\"service\":4777}","uploaders":"{\"size\":1378,\"mobile\":58,\"satellite\":12,\"tor\":10,\"tor_exit_nodes\":0,\"vpn\":904,\"relay\":2,\"proxy\":2,\"hosting\":904,\"service\":875}"},"geometry":{"type":"Point","coordinates":[-112.07404,33.44838]}},{"type":"Feature","properties":{"country_code":"EGY","city":"Cairo","geoname_id":"360630","downloaders":"{\"size\":16705,\"mobile\":1502,\"satellite\":0,\"tor\":0,\"tor_exit_nodes\":0,\"vpn\":4,\"relay\":5,\"proxy\":0,\"hosting\":24,\"service\":7}","uploaders":"{\"size\":466,\"mobile\":56,\"satellite\":0,\"tor\":0,\"tor_exit_nodes\":0,\"vpn\":0,\"relay\":4,\"proxy\":0,\"hosting\":4,\"service\":4}"},"geometry":{"type":"Point","coordinates":[31.24967,30.06263]}},{"type":"Feature","properties":{"country_code":"ETH","city":"Addis Ababa","geoname_id":"344979","downloaders":"{\"size\":16673,\"mobile\":10783,\"satellite\":4,\"tor\":0,\"tor_exit_nodes\":0,\"vpn\":17,\"relay\":69,\"proxy\":0,\"hosting\":69,\"service\":69}","uploaders":"{\"size\":5576,\"mobile\":3376,\"satellite\":4,\"tor\":0,\"tor_exit_nodes\":0,\"vpn\":7,\"relay\":29,\"proxy\":0,\"hosting\":29,\"service\":29}"},"geometry":{"type":"Point","coordinates":[38.74689,9.02497]}},{"type":"Feature","properties":{"country_code":"TUR","city":"Samsun","geoname_id":"740264","downloaders":"{\"size\":16664,\"mobile\":174,\"satellite\":0,\"tor\":0,\"tor_exit_nodes\":0,\"vpn\":1,\"relay\":0,\"proxy\":0,\"hosting\":493,\"service\":0}","uploaders":"{\"size\":22,\"mobile\":0,\"satellite\":0,\"tor\":0,\"tor_exit_nodes\":0,\"vpn\":0,\"relay\":0,\"proxy\":0,\"hosting\":1,\"service\":0}"},"geometry":{"type":"Point","coordinates":[36.3361,41.27976]}},{"type":"Feature","properties":{"country_code":"RUS","city":"Murmansk","geoname_id":"524305","downloaders":"{\"size\":16583,\"mobile\":11,\"satellite\":0,\"tor\":0,\"tor_exit_nodes\":0,\"vpn\":179,\"relay\":0,\"proxy\":0,\"hosting\":0,\"service\":9}","uploaders":"{\"size\":32,\"mobile\":0,\"satellite\":0,\"tor\":0,\"tor_exit_nodes\":0,\"vpn\":1,\"relay\":0,\"proxy\":0,\"hosting\":0,\"service\":0}"},"geometry":{"type":"Point","coordinates":[33.09922,68.96778]}},{"type":"Feature","properties":{"country_code":"KOR","city":"Uijeongbu-si","geoname_id":"1833788","downloaders":"{\"size\":16499,\"mobile\":37,\"satellite\":0,\"tor\":0,\"tor_exit_nodes\":0,\"vpn\":128,\"relay\":0,\"proxy\":36,\"hosting\":19,\"service\":40}","uploaders":"{\"size\":42,\"mobile\":0,\"satellite\":0,\"tor\":0,\"tor_exit_nodes\":0,\"vpn\":3,\"relay\":0,\"proxy\":4,\"hosting\":0,\"service\":1}"},"geometry":{"type":"Point","coordinates":[127.0474,37.7415]}},{"type":"Feature","properties":{"country_code":"RUS","city":"Kursk","geoname_id":"538560","downloaders":"{\"size\":16426,\"mobile\":14,\"satellite\":0,\"tor\":0,\"tor_exit_nodes\":0,\"vpn\":141,\"relay\":0,\"proxy\":0,\"hosting\":0,\"service\":2}","uploaders":"{\"size\":32,\"mobile\":0,\"satellite\":0,\"tor\":0,\"tor_exit_nodes\":0,\"vpn\":0,\"relay\":0,\"proxy\":0,\"hosting\":0,\"service\":0}"},"geometry":{"type":"Point","coordinates":[36.18457,51.72689]}},{"type":"Feature","properties":{"country_code":"KOR","city":"Kimhae","geoname_id":"1842943","downloaders":"{\"size\":16108,\"mobile\":53,\"satellite\":0,\"tor\":0,\"tor_exit_nodes\":0,\"vpn\":109,\"relay\":0,\"proxy\":1,\"hosting\":1,\"service\":62}","uploaders":"{\"size\":30,\"mobile\":0,\"satellite\":0,\"tor\":0,\"tor_exit_nodes\":0,\"vpn\":1,\"relay\":0,\"proxy\":0,\"hosting\":0,\"service\":1}"},"geometry":{"type":"Point","coordinates":[128.88111,35.23417]}},{"type":"Feature","properties":{"country_code":"RUS","city":"Smolensk","geoname_id":"491687","downloaders":"{\"size\":15742,\"mobile\":0,\"satellite\":0,\"tor\":0,\"tor_exit_nodes\":0,\"vpn\":159,\"relay\":0,\"proxy\":0,\"hosting\":0,\"service\":3}","uploaders":"{\"size\":63,\"mobile\":0,\"satellite\":0,\"tor\":0,\"tor_exit_nodes\":0,\"vpn\":1,\"relay\":0,\"proxy\":0,\"hosting\":0,\"service\":0}"},"geometry":{"type":"Point","coordinates":[32.05088,54.77826]}},{"type":"Feature","properties":{"country_code":"UZB","city":"Tashkent","geoname_id":"1512569","downloaders":"{\"size\":15720,\"mobile\":467,\"satellite\":0,\"tor\":0,\"tor_exit_nodes\":0,\"vpn\":1434,\"relay\":0,\"proxy\":7,\"hosting\":10697,\"service\":1243}","uploaders":"{\"size\":41,\"mobile\":3,\"satellite\":0,\"tor\":0,\"tor_exit_nodes\":0,\"vpn\":3,\"relay\":0,\"proxy\":0,\"hosting\":22,\"service\":1}"},"geometry":{"type":"Point","coordinates":[69.21627,41.26465]}},{"type":"Feature","properties":{"country_code":"CHN","city":"Guangzhou","geoname_id":"1809858","downloaders":"{\"size\":15500,\"mobile\":171,\"satellite\":0,\"tor\":0,\"tor_exit_nodes\":0,\"vpn\":570,\"relay\":0,\"proxy\":0,\"hosting\":3705,\"service\":0}","uploaders":"{\"size\":96,\"mobile\":0,\"satellite\":0,\"tor\":0,\"tor_exit_nodes\":0,\"vpn\":0,\"relay\":0,\"proxy\":0,\"hosting\":48,\"service\":0}"},"geometry":{"type":"Point","coordinates":[113.25,23.11667]}},{"type":"Feature","properties":{"country_code":"RUS","city":"Kaluga","geoname_id":"553915","downloaders":"{\"size\":15499,\"mobile\":31,\"satellite\":0,\"tor\":0,\"tor_exit_nodes\":0,\"vpn\":395,\"relay\":0,\"proxy\":0,\"hosting\":0,\"service\":1}","uploaders":"{\"size\":30,\"mobile\":0,\"satellite\":0,\"tor\":0,\"tor_exit_nodes\":0,\"vpn\":2,\"relay\":0,\"proxy\":0,\"hosting\":0,\"service\":0}"},"geometry":{"type":"Point","coordinates":[36.27,54.53063]}},{"type":"Feature","properties":{"country_code":"SWE","city":"Göteborg","geoname_id":"2711537","downloaders":"{\"size\":15486,\"mobile\":603,\"satellite\":0,\"tor\":28,\"tor_exit_nodes\":5,\"vpn\":4458,\"relay\":0,\"proxy\":0,\"hosting\":3789,\"service\":4276}","uploaders":"{\"size\":1086,\"mobile\":56,\"satellite\":0,\"tor\":0,\"tor_exit_nodes\":0,\"vpn\":593,\"relay\":0,\"proxy\":0,\"hosting\":517,\"service\":592}"},"geometry":{"type":"Point","coordinates":[11.9668,57.7072]}},{"type":"Feature","properties":{"country_code":"KOR","city":"Jeju City","geoname_id":"1846266","downloaders":"{\"size\":15465,\"mobile\":12,\"satellite\":0,\"tor\":0,\"tor_exit_nodes\":0,\"vpn\":106,\"relay\":0,\"proxy\":0,\"hosting\":0,\"service\":9}","uploaders":"{\"size\":30,\"mobile\":0,\"satellite\":0,\"tor\":0,\"tor_exit_nodes\":0,\"vpn\":0,\"relay\":0,\"proxy\":0,\"hosting\":0,\"service\":0}"},"geometry":{"type":"Point","coordinates":[126.52194,33.50972]}},{"type":"Feature","properties":{"country_code":"RUS","city":"Surgut","geoname_id":"1490624","downloaders":"{\"size\":15371,\"mobile\":15,\"satellite\":0,\"tor\":0,\"tor_exit_nodes\":0,\"vpn\":108,\"relay\":0,\"proxy\":0,\"hosting\":0,\"service\":0}","uploaders":"{\"size\":36,\"mobile\":1,\"satellite\":0,\"tor\":0,\"tor_exit_nodes\":0,\"vpn\":0,\"relay\":0,\"proxy\":0,\"hosting\":0,\"service\":0}"},"geometry":{"type":"Point","coordinates":[73.41775,61.25757]}},{"type":"Feature","properties":{"country_code":"CHN","city":"Quanzhou","geoname_id":"1797353","downloaders":"{\"size\":15274,\"mobile\":205,\"satellite\":0,\"tor\":0,\"tor_exit_nodes\":0,\"vpn\":279,\"relay\":0,\"proxy\":0,\"hosting\":0,\"service\":0}","uploaders":"{\"size\":30,\"mobile\":1,\"satellite\":0,\"tor\":0,\"tor_exit_nodes\":0,\"vpn\":0,\"relay\":0,\"proxy\":0,\"hosting\":0,\"service\":0}"},"geometry":{"type":"Point","coordinates":[118.58583,24.91389]}},{"type":"Feature","properties":{"country_code":"GBR","city":"Manchester","geoname_id":"2643123","downloaders":"{\"size\":15199,\"mobile\":2541,\"satellite\":0,\"tor\":15,\"tor_exit_nodes\":0,\"vpn\":7652,\"relay\":13,\"proxy\":9,\"hosting\":7634,\"service\":7501}","uploaders":"{\"size\":3359,\"mobile\":458,\"satellite\":0,\"tor\":0,\"tor_exit_nodes\":0,\"vpn\":2465,\"relay\":2,\"proxy\":0,\"hosting\":2457,\"service\":2403}"},"geometry":{"type":"Point","coordinates":[-2.23743,53.48095]}},{"type":"Feature","properties":{"country_code":"ISR","city":"Jerusalem","geoname_id":"281184","downloaders":"{\"size\":15122,\"mobile\":263,\"satellite\":0,\"tor\":11,\"tor_exit_nodes\":0,\"vpn\":161,\"relay\":0,\"proxy\":0,\"hosting\":433,\"service\":0}","uploaders":"{\"size\":2545,\"mobile\":78,\"satellite\":0,\"tor\":0,\"tor_exit_nodes\":0,\"vpn\":9,\"relay\":0,\"proxy\":0,\"hosting\":6,\"service\":0}"},"geometry":{"type":"Point","coordinates":[35.21633,31.76904]}},{"type":"Feature","properties":{"country_code":"DEU","city":"Nürnberg","geoname_id":"2861650","downloaders":"{\"size\":15043,\"mobile\":122,\"satellite\":0,\"tor\":103,\"tor_exit_nodes\":14,\"vpn\":317,\"relay\":4,\"proxy\":2,\"hosting\":12647,\"service\":198}","uploaders":"{\"size\":215,\"mobile\":3,\"satellite\":0,\"tor\":4,\"tor_exit_nodes\":1,\"vpn\":0,\"relay\":0,\"proxy\":0,\"hosting\":194,\"service\":0}"},"geometry":{"type":"Point","coordinates":[11.07752,49.45421]}},{"type":"Feature","properties":{"country_code":"TUN","city":"Tunis","geoname_id":"2464470","downloaders":"{\"size\":15010,\"mobile\":2009,\"satellite\":0,\"tor\":0,\"tor_exit_nodes\":0,\"vpn\":8,\"relay\":2,\"proxy\":0,\"hosting\":22,\"service\":2}","uploaders":"{\"size\":2390,\"mobile\":499,\"satellite\":0,\"tor\":0,\"tor_exit_nodes\":0,\"vpn\":3,\"relay\":0,\"proxy\":0,\"hosting\":0,\"service\":0}"},"geometry":{"type":"Point","coordinates":[10.16579,36.81897]}},{"type":"Feature","properties":{"country_code":"TUR","city":"Adapazarı","geoname_id":"752850","downloaders":"{\"size\":14878,\"mobile\":328,\"satellite\":0,\"tor\":0,\"tor_exit_nodes\":0,\"vpn\":1,\"relay\":0,\"proxy\":0,\"hosting\":0,\"service\":0}","uploaders":"{\"size\":16,\"mobile\":0,\"satellite\":0,\"tor\":0,\"tor_exit_nodes\":0,\"vpn\":0,\"relay\":0,\"proxy\":0,\"hosting\":0,\"service\":0}"},"geometry":{"type":"Point","coordinates":[30.40333,40.78056]}},{"type":"Feature","properties":{"country_code":"TWN","city":"Taichung","geoname_id":"1668399","downloaders":"{\"size\":14779,\"mobile\":251,\"satellite\":0,\"tor\":0,\"tor_exit_nodes\":0,\"vpn\":688,\"relay\":0,\"proxy\":2,\"hosting\":10,\"service\":25}","uploaders":"{\"size\":69,\"mobile\":1,\"satellite\":0,\"tor\":0,\"tor_exit_nodes\":0,\"vpn\":5,\"relay\":0,\"proxy\":0,\"hosting\":0,\"service\":3}"},"geometry":{"type":"Point","coordinates":[120.6839,24.1469]}},{"type":"Feature","properties":{"country_code":"UKR","city":"Lviv","geoname_id":"702550","downloaders":"{\"size\":14620,\"mobile\":154,\"satellite\":0,\"tor\":0,\"tor_exit_nodes\":0,\"vpn\":411,\"relay\":3,\"proxy\":0,\"hosting\":53,\"service\":152}","uploaders":"{\"size\":60,\"mobile\":10,\"satellite\":0,\"tor\":0,\"tor_exit_nodes\":0,\"vpn\":3,\"relay\":2,\"proxy\":0,\"hosting\":2,\"service\":2}"},"geometry":{"type":"Point","coordinates":[24.02324,49.83826]}},