{"type":"FeatureCollection","id":"Sean Combs: The Reckoning","swarm_features":112,"features":[{"type":"Feature","properties":{"country_code":"KOR","city":"Seoul","geoname_id":"1835848","downloaders":"{\"size\":343702,\"mobile\":1447,\"satellite\":0,\"tor\":0,\"tor_exit_nodes\":0,\"vpn\":7683,\"relay\":0,\"proxy\":29,\"hosting\":2481,\"service\":1245}","uploaders":"{\"size\":1827,\"mobile\":25,\"satellite\":0,\"tor\":0,\"tor_exit_nodes\":0,\"vpn\":96,\"relay\":0,\"proxy\":0,\"hosting\":55,\"service\":54}"},"geometry":{"type":"Point","coordinates":[126.9784,37.566]}},{"type":"Feature","properties":{"country_code":"RUS","city":"Moscow","geoname_id":"524901","downloaders":"{\"size\":243536,\"mobile\":11820,\"satellite\":0,\"tor\":0,\"tor_exit_nodes\":0,\"vpn\":10261,\"relay\":0,\"proxy\":206,\"hosting\":16070,\"service\":1555}","uploaders":"{\"size\":1610,\"mobile\":59,\"satellite\":0,\"tor\":0,\"tor_exit_nodes\":0,\"vpn\":76,\"relay\":0,\"proxy\":2,\"hosting\":351,\"service\":17}"},"geometry":{"type":"Point","coordinates":[37.61781,55.75204]}},{"type":"Feature","properties":{"country_code":"CHN","city":"Shanghai","geoname_id":"1796236","downloaders":"{\"size\":197379,\"mobile\":332,\"satellite\":0,\"tor\":0,\"tor_exit_nodes\":0,\"vpn\":5491,\"relay\":0,\"proxy\":3,\"hosting\":24044,\"service\":12}","uploaders":"{\"size\":1802,\"mobile\":11,\"satellite\":0,\"tor\":0,\"tor_exit_nodes\":0,\"vpn\":27,\"relay\":0,\"proxy\":0,\"hosting\":206,\"service\":0}"},"geometry":{"type":"Point","coordinates":[121.45806,31.22222]}},{"type":"Feature","properties":{"country_code":"NLD","city":"Amsterdam","geoname_id":"2759794","downloaders":"{\"size\":160677,\"mobile\":623,\"satellite\":14,\"tor\":19,\"tor_exit_nodes\":2,\"vpn\":55787,\"relay\":7,\"proxy\":603,\"hosting\":142711,\"service\":30406}","uploaders":"{\"size\":10805,\"mobile\":229,\"satellite\":3,\"tor\":1,\"tor_exit_nodes\":0,\"vpn\":6108,\"relay\":0,\"proxy\":141,\"hosting\":7613,\"service\":5516}"},"geometry":{"type":"Point","coordinates":[4.88969,52.37403]}},{"type":"Feature","properties":{"country_code":"TUR","city":"Istanbul","geoname_id":"745044","downloaders":"{\"size\":138468,\"mobile\":12354,\"satellite\":0,\"tor\":0,\"tor_exit_nodes\":0,\"vpn\":483,\"relay\":0,\"proxy\":1,\"hosting\":585,\"service\":414}","uploaders":"{\"size\":1147,\"mobile\":174,\"satellite\":0,\"tor\":0,\"tor_exit_nodes\":0,\"vpn\":181,\"relay\":0,\"proxy\":0,\"hosting\":184,\"service\":180}"},"geometry":{"type":"Point","coordinates":[28.94966,41.01384]}},{"type":"Feature","properties":{"country_code":"RUS","city":"Saint Petersburg","geoname_id":"498817","downloaders":"{\"size\":133762,\"mobile\":7717,\"satellite\":0,\"tor\":0,\"tor_exit_nodes\":0,\"vpn\":1287,\"relay\":0,\"proxy\":40,\"hosting\":3807,\"service\":392}","uploaders":"{\"size\":789,\"mobile\":41,\"satellite\":0,\"tor\":0,\"tor_exit_nodes\":0,\"vpn\":24,\"relay\":0,\"proxy\":3,\"hosting\":48,\"service\":21}"},"geometry":{"type":"Point","coordinates":[30.31413,59.93863]}},{"type":"Feature","properties":{"country_code":"CHN","city":"Nanjing","geoname_id":"1799962","downloaders":"{\"size\":115954,\"mobile\":2,\"satellite\":0,\"tor\":0,\"tor_exit_nodes\":0,\"vpn\":1411,\"relay\":0,\"proxy\":0,\"hosting\":304,\"service\":0}","uploaders":"{\"size\":1180,\"mobile\":0,\"satellite\":0,\"tor\":0,\"tor_exit_nodes\":0,\"vpn\":9,\"relay\":0,\"proxy\":0,\"hosting\":11,\"service\":0}"},"geometry":{"type":"Point","coordinates":[118.77778,32.06167]}},{"type":"Feature","properties":{"country_code":"GBR","city":"London","geoname_id":"2643743","downloaders":"{\"size\":85163,\"mobile\":12147,\"satellite\":155,\"tor\":0,\"tor_exit_nodes\":0,\"vpn\":22131,\"relay\":55,\"proxy\":202,\"hosting\":23028,\"service\":20039}","uploaders":"{\"size\":18972,\"mobile\":4797,\"satellite\":57,\"tor\":0,\"tor_exit_nodes\":0,\"vpn\":6426,\"relay\":1,\"proxy\":62,\"hosting\":5395,\"service\":5764}"},"geometry":{"type":"Point","coordinates":[-0.12574,51.50853]}},{"type":"Feature","properties":{"country_code":"USA","city":"Ashburn","geoname_id":"4744870","downloaders":"{\"size\":76367,\"mobile\":370,\"satellite\":36,\"tor\":0,\"tor_exit_nodes\":0,\"vpn\":5666,\"relay\":0,\"proxy\":42,\"hosting\":75352,\"service\":5503}","uploaders":"{\"size\":29252,\"mobile\":118,\"satellite\":4,\"tor\":0,\"tor_exit_nodes\":0,\"vpn\":1557,\"relay\":0,\"proxy\":2,\"hosting\":29077,\"service\":1536}"},"geometry":{"type":"Point","coordinates":[-77.48749,39.04372]}},{"type":"Feature","properties":{"country_code":"HUN","city":"Budapest","geoname_id":"3054643","downloaders":"{\"size\":75261,\"mobile\":3645,\"satellite\":4,\"tor\":0,\"tor_exit_nodes\":6,\"vpn\":2790,\"relay\":0,\"proxy\":0,\"hosting\":2438,\"service\":960}","uploaders":"{\"size\":1298,\"mobile\":203,\"satellite\":0,\"tor\":0,\"tor_exit_nodes\":0,\"vpn\":118,\"relay\":0,\"proxy\":0,\"hosting\":112,\"service\":100}"},"geometry":{"type":"Point","coordinates":[19.04045,47.49835]}},{"type":"Feature","properties":{"country_code":"KOR","city":"Incheon","geoname_id":"1843564","downloaders":"{\"size\":65721,\"mobile\":210,\"satellite\":0,\"tor\":0,\"tor_exit_nodes\":0,\"vpn\":857,\"relay\":0,\"proxy\":6,\"hosting\":112,\"service\":153}","uploaders":"{\"size\":313,\"mobile\":2,\"satellite\":0,\"tor\":0,\"tor_exit_nodes\":0,\"vpn\":6,\"relay\":0,\"proxy\":0,\"hosting\":1,\"service\":1}"},"geometry":{"type":"Point","coordinates":[126.70515,37.45646]}},{"type":"Feature","properties":{"country_code":"POL","city":"Warsaw","geoname_id":"756135","downloaders":"{\"size\":62103,\"mobile\":5225,\"satellite\":55,\"tor\":9,\"tor_exit_nodes\":5,\"vpn\":3231,\"relay\":0,\"proxy\":15,\"hosting\":4291,\"service\":2653}","uploaders":"{\"size\":2001,\"mobile\":292,\"satellite\":9,\"tor\":0,\"tor_exit_nodes\":0,\"vpn\":490,\"relay\":0,\"proxy\":0,\"hosting\":500,\"service\":467}"},"geometry":{"type":"Point","coordinates":[21.01178,52.22977]}},{"type":"Feature","properties":{"country_code":"RUS","city":"Yekaterinburg","geoname_id":"1486209","downloaders":"{\"size\":61677,\"mobile\":5283,\"satellite\":0,\"tor\":0,\"tor_exit_nodes\":0,\"vpn\":2110,\"relay\":0,\"proxy\":10,\"hosting\":105,\"service\":155}","uploaders":"{\"size\":306,\"mobile\":30,\"satellite\":0,\"tor\":0,\"tor_exit_nodes\":0,\"vpn\":14,\"relay\":0,\"proxy\":1,\"hosting\":1,\"service\":4}"},"geometry":{"type":"Point","coordinates":[60.61529,56.85733]}},{"type":"Feature","properties":{"country_code":"CHN","city":"Hangzhou","geoname_id":"1808926","downloaders":"{\"size\":61337,\"mobile\":0,\"satellite\":0,\"tor\":0,\"tor_exit_nodes\":0,\"vpn\":671,\"relay\":0,\"proxy\":0,\"hosting\":2692,\"service\":0}","uploaders":"{\"size\":213,\"mobile\":0,\"satellite\":0,\"tor\":0,\"tor_exit_nodes\":0,\"vpn\":9,\"relay\":0,\"proxy\":0,\"hosting\":72,\"service\":0}"},"geometry":{"type":"Point","coordinates":[120.16142,30.29365]}},{"type":"Feature","properties":{"country_code":"CHN","city":"Shenzhen","geoname_id":"1795565","downloaders":"{\"size\":58763,\"mobile\":19,\"satellite\":0,\"tor\":0,\"tor_exit_nodes\":0,\"vpn\":2539,\"relay\":0,\"proxy\":0,\"hosting\":818,\"service\":0}","uploaders":"{\"size\":589,\"mobile\":0,\"satellite\":0,\"tor\":0,\"tor_exit_nodes\":0,\"vpn\":6,\"relay\":0,\"proxy\":0,\"hosting\":12,\"service\":0}"},"geometry":{"type":"Point","coordinates":[114.0683,22.54554]}},{"type":"Feature","properties":{"country_code":"RUS","city":"Novosibirsk","geoname_id":"1496747","downloaders":"{\"size\":54850,\"mobile\":4901,\"satellite\":0,\"tor\":0,\"tor_exit_nodes\":0,\"vpn\":720,\"relay\":0,\"proxy\":32,\"hosting\":193,\"service\":79}","uploaders":"{\"size\":288,\"mobile\":31,\"satellite\":0,\"tor\":0,\"tor_exit_nodes\":0,\"vpn\":6,\"relay\":0,\"proxy\":0,\"hosting\":8,\"service\":0}"},"geometry":{"type":"Point","coordinates":[82.93175,55.02259]}},{"type":"Feature","properties":{"country_code":"FRA","city":"Paris","geoname_id":"2988507","downloaders":"{\"size\":54747,\"mobile\":8109,\"satellite\":91,\"tor\":2,\"tor_exit_nodes\":11,\"vpn\":14200,\"relay\":4,\"proxy\":37,\"hosting\":23902,\"service\":11760}","uploaders":"{\"size\":4869,\"mobile\":1409,\"satellite\":17,\"tor\":0,\"tor_exit_nodes\":1,\"vpn\":1719,\"relay\":0,\"proxy\":4,\"hosting\":1426,\"service\":1595}"},"geometry":{"type":"Point","coordinates":[2.3488,48.85341]}},{"type":"Feature","properties":{"country_code":"CAN","city":"Toronto","geoname_id":"6167865","downloaders":"{\"size\":50870,\"mobile\":5295,\"satellite\":225,\"tor\":55,\"tor_exit_nodes\":246,\"vpn\":27379,\"relay\":32,\"proxy\":77,\"hosting\":28551,\"service\":26258}","uploaders":"{\"size\":10281,\"mobile\":1102,\"satellite\":87,\"tor\":6,\"tor_exit_nodes\":45,\"vpn\":6254,\"relay\":3,\"proxy\":15,\"hosting\":6287,\"service\":6093}"},"geometry":{"type":"Point","coordinates":[-79.39864,43.70643]}},{"type":"Feature","properties":{"country_code":"USA","city":"New York City","geoname_id":"5128581","downloaders":"{\"size\":45383,\"mobile\":1732,\"satellite\":42,\"tor\":12,\"tor_exit_nodes\":5,\"vpn\":26864,\"relay\":16,\"proxy\":32,\"hosting\":27308,\"service\":25220}","uploaders":"{\"size\":9673,\"mobile\":446,\"satellite\":17,\"tor\":0,\"tor_exit_nodes\":0,\"vpn\":7562,\"relay\":3,\"proxy\":7,\"hosting\":7447,\"service\":7182}"},"geometry":{"type":"Point","coordinates":[-74.00597,40.71427]}},{"type":"Feature","properties":{"country_code":"BGR","city":"Sofia","geoname_id":"727011","downloaders":"{\"size\":44394,\"mobile\":8171,\"satellite\":48,\"tor\":0,\"tor_exit_nodes\":0,\"vpn\":3621,\"relay\":1,\"proxy\":3,\"hosting\":4405,\"service\":2429}","uploaders":"{\"size\":2776,\"mobile\":906,\"satellite\":17,\"tor\":0,\"tor_exit_nodes\":0,\"vpn\":512,\"relay\":0,\"proxy\":0,\"hosting\":511,\"service\":486}"},"geometry":{"type":"Point","coordinates":[23.32415,42.69751]}},{"type":"Feature","properties":{"country_code":"KOR","city":"Busan","geoname_id":"1838524","downloaders":"{\"size\":41951,\"mobile\":346,\"satellite\":0,\"tor\":0,\"tor_exit_nodes\":0,\"vpn\":313,\"relay\":0,\"proxy\":8,\"hosting\":0,\"service\":50}","uploaders":"{\"size\":211,\"mobile\":1,\"satellite\":0,\"tor\":0,\"tor_exit_nodes\":0,\"vpn\":0,\"relay\":0,\"proxy\":0,\"hosting\":0,\"service\":0}"},"geometry":{"type":"Point","coordinates":[129.03004,35.10168]}},{"type":"Feature","properties":{"country_code":"RUS","city":"Nizhniy Novgorod","geoname_id":"520555","downloaders":"{\"size\":41490,\"mobile\":9201,\"satellite\":0,\"tor\":0,\"tor_exit_nodes\":0,\"vpn\":596,\"relay\":0,\"proxy\":0,\"hosting\":24,\"service\":34}","uploaders":"{\"size\":190,\"mobile\":46,\"satellite\":0,\"tor\":0,\"tor_exit_nodes\":0,\"vpn\":3,\"relay\":0,\"proxy\":0,\"hosting\":0,\"service\":0}"},"geometry":{"type":"Point","coordinates":[44.00205,56.32867]}},{"type":"Feature","properties":{"country_code":"TUR","city":"Ankara","geoname_id":"323786","downloaders":"{\"size\":39275,\"mobile\":2180,\"satellite\":1,\"tor\":0,\"tor_exit_nodes\":0,\"vpn\":5,\"relay\":0,\"proxy\":0,\"hosting\":6,\"service\":0}","uploaders":"{\"size\":222,\"mobile\":16,\"satellite\":0,\"tor\":0,\"tor_exit_nodes\":0,\"vpn\":0,\"relay\":0,\"proxy\":0,\"hosting\":0,\"service\":0}"},"geometry":{"type":"Point","coordinates":[32.85427,39.91987]}},{"type":"Feature","properties":{"country_code":"CAN","city":"Montréal","geoname_id":"6077243","downloaders":"{\"size\":38505,\"mobile\":2706,\"satellite\":6,\"tor\":0,\"tor_exit_nodes\":29,\"vpn\":19097,\"relay\":3,\"proxy\":755,\"hosting\":16797,\"service\":18427}","uploaders":"{\"size\":6549,\"mobile\":453,\"satellite\":0,\"tor\":0,\"tor_exit_nodes\":15,\"vpn\":4358,\"relay\":0,\"proxy\":159,\"hosting\":3836,\"service\":4222}"},"geometry":{"type":"Point","coordinates":[-73.58781,45.50884]}},{"type":"Feature","properties":{"country_code":"ESP","city":"Madrid","geoname_id":"3117735","downloaders":"{\"size\":37339,\"mobile\":13053,\"satellite\":256,\"tor\":0,\"tor_exit_nodes\":0,\"vpn\":5319,\"relay\":1,\"proxy\":3,\"hosting\":5596,\"service\":5012}","uploaders":"{\"size\":3267,\"mobile\":1201,\"satellite\":123,\"tor\":0,\"tor_exit_nodes\":0,\"vpn\":1080,\"relay\":0,\"proxy\":0,\"hosting\":1150,\"service\":1065}"},"geometry":{"type":"Point","coordinates":[-3.70256,40.4165]}},{"type":"Feature","properties":{"country_code":"KOR","city":"Daegu","geoname_id":"1835329","downloaders":"{\"size\":35652,\"mobile\":79,\"satellite\":0,\"tor\":0,\"tor_exit_nodes\":0,\"vpn\":325,\"relay\":0,\"proxy\":2,\"hosting\":539,\"service\":58}","uploaders":"{\"size\":189,\"mobile\":1,\"satellite\":0,\"tor\":0,\"tor_exit_nodes\":0,\"vpn\":3,\"relay\":0,\"proxy\":0,\"hosting\":3,\"service\":1}"},"geometry":{"type":"Point","coordinates":[128.59111,35.87028]}},{"type":"Feature","properties":{"country_code":"AUS","city":"Sydney","geoname_id":"2147714","downloaders":"{\"size\":34916,\"mobile\":1902,\"satellite\":345,\"tor\":0,\"tor_exit_nodes\":0,\"vpn\":7643,\"relay\":26,\"proxy\":274,\"hosting\":10858,\"service\":6645}","uploaders":"{\"size\":8173,\"mobile\":610,\"satellite\":108,\"tor\":0,\"tor_exit_nodes\":0,\"vpn\":1841,\"relay\":14,\"proxy\":9,\"hosting\":2016,\"service\":1713}"},"geometry":{"type":"Point","coordinates":[151.1935,-33.926]}},{"type":"Feature","properties":{"country_code":"RUS","city":"Krasnodar","geoname_id":"542420","downloaders":"{\"size\":34047,\"mobile\":6366,\"satellite\":0,\"tor\":0,\"tor_exit_nodes\":0,\"vpn\":183,\"relay\":0,\"proxy\":0,\"hosting\":69,\"service\":10}","uploaders":"{\"size\":170,\"mobile\":42,\"satellite\":0,\"tor\":0,\"tor_exit_nodes\":0,\"vpn\":1,\"relay\":0,\"proxy\":0,\"hosting\":0,\"service\":0}"},"geometry":{"type":"Point","coordinates":[38.98178,45.04534]}},{"type":"Feature","properties":{"country_code":"RUS","city":"Samara","geoname_id":"499099","downloaders":"{\"size\":32854,\"mobile\":3617,\"satellite\":0,\"tor\":0,\"tor_exit_nodes\":0,\"vpn\":1040,\"relay\":0,\"proxy\":1,\"hosting\":55,\"service\":696}","uploaders":"{\"size\":146,\"mobile\":10,\"satellite\":0,\"tor\":0,\"tor_exit_nodes\":0,\"vpn\":7,\"relay\":0,\"proxy\":0,\"hosting\":2,\"service\":3}"},"geometry":{"type":"Point","coordinates":[50.13553,53.20767]}},{"type":"Feature","properties":{"country_code":"AUS","city":"Melbourne","geoname_id":"2158177","downloaders":"{\"size\":31126,\"mobile\":2287,\"satellite\":218,\"tor\":0,\"tor_exit_nodes\":0,\"vpn\":5899,\"relay\":0,\"proxy\":2,\"hosting\":7086,\"service\":5194}","uploaders":"{\"size\":8619,\"mobile\":865,\"satellite\":93,\"tor\":0,\"tor_exit_nodes\":0,\"vpn\":1522,\"relay\":0,\"proxy\":0,\"hosting\":1964,\"service\":1415}"},"geometry":{"type":"Point","coordinates":[144.96332,-37.814]}},{"type":"Feature","properties":{"country_code":"RUS","city":"Voronezh","geoname_id":"472045","downloaders":"{\"size\":31113,\"mobile\":92,\"satellite\":0,\"tor\":0,\"tor_exit_nodes\":0,\"vpn\":303,\"relay\":0,\"proxy\":4,\"hosting\":539,\"service\":2}","uploaders":"{\"size\":157,\"mobile\":0,\"satellite\":0,\"tor\":0,\"tor_exit_nodes\":0,\"vpn\":23,\"relay\":0,\"proxy\":0,\"hosting\":2,\"service\":0}"},"geometry":{"type":"Point","coordinates":[39.19204,51.66833]}},{"type":"Feature","properties":{"country_code":"KEN","city":"Nairobi","geoname_id":"184745","downloaders":"{\"size\":31006,\"mobile\":16550,\"satellite\":1185,\"tor\":0,\"tor_exit_nodes\":0,\"vpn\":453,\"relay\":0,\"proxy\":9,\"hosting\":759,\"service\":131}","uploaders":"{\"size\":14219,\"mobile\":7703,\"satellite\":635,\"tor\":0,\"tor_exit_nodes\":0,\"vpn\":150,\"relay\":0,\"proxy\":3,\"hosting\":312,\"service\":43}"},"geometry":{"type":"Point","coordinates":[36.81667,-1.28333]}},{"type":"Feature","properties":{"country_code":"BEL","city":"Brussels","geoname_id":"2800866","downloaders":"{\"size\":30896,\"mobile\":2086,\"satellite\":62,\"tor\":0,\"tor_exit_nodes\":6,\"vpn\":3095,\"relay\":0,\"proxy\":1,\"hosting\":2364,\"service\":2925}","uploaders":"{\"size\":5435,\"mobile\":831,\"satellite\":33,\"tor\":0,\"tor_exit_nodes\":0,\"vpn\":726,\"relay\":0,\"proxy\":0,\"hosting\":549,\"service\":684}"},"geometry":{"type":"Point","coordinates":[4.34878,50.85045]}},{"type":"Feature","properties":{"country_code":"PRT","city":"Lisbon","geoname_id":"2267057","downloaders":"{\"size\":29817,\"mobile\":14093,\"satellite\":183,\"tor\":0,\"tor_exit_nodes\":0,\"vpn\":1902,\"relay\":0,\"proxy\":0,\"hosting\":1869,\"service\":1608}","uploaders":"{\"size\":11213,\"mobile\":4959,\"satellite\":91,\"tor\":0,\"tor_exit_nodes\":0,\"vpn\":845,\"relay\":0,\"proxy\":0,\"hosting\":813,\"service\":680}"},"geometry":{"type":"Point","coordinates":[-9.1498,38.72509]}},{"type":"Feature","properties":{"country_code":"RUS","city":"Khimki","geoname_id":"550280","downloaders":"{\"size\":28882,\"mobile\":17,\"satellite\":4,\"tor\":0,\"tor_exit_nodes\":0,\"vpn\":2099,\"relay\":0,\"proxy\":27,\"hosting\":12366,\"service\":552}","uploaders":"{\"size\":139,\"mobile\":0,\"satellite\":0,\"tor\":0,\"tor_exit_nodes\":0,\"vpn\":13,\"relay\":0,\"proxy\":0,\"hosting\":70,\"service\":6}"},"geometry":{"type":"Point","coordinates":[37.42848,55.9001]}},{"type":"Feature","properties":{"country_code":"USA","city":"Los Angeles","geoname_id":"5368361","downloaders":"{\"size\":28784,\"mobile\":1207,\"satellite\":4,\"tor\":2,\"tor_exit_nodes\":0,\"vpn\":17687,\"relay\":4,\"proxy\":34,\"hosting\":21203,\"service\":16454}","uploaders":"{\"size\":5976,\"mobile\":351,\"satellite\":1,\"tor\":0,\"tor_exit_nodes\":0,\"vpn\":4599,\"relay\":0,\"proxy\":3,\"hosting\":4793,\"service\":4354}"},"geometry":{"type":"Point","coordinates":[-118.24368,34.05223]}},{"type":"Feature","properties":{"country_code":"RUS","city":"Rostov-na-Donu","geoname_id":"501175","downloaders":"{\"size\":28495,\"mobile\":1446,\"satellite\":0,\"tor\":0,\"tor_exit_nodes\":0,\"vpn\":203,\"relay\":0,\"proxy\":0,\"hosting\":581,\"service\":118}","uploaders":"{\"size\":119,\"mobile\":8,\"satellite\":0,\"tor\":0,\"tor_exit_nodes\":0,\"vpn\":0,\"relay\":0,\"proxy\":0,\"hosting\":2,\"service\":0}"},"geometry":{"type":"Point","coordinates":[39.70769,47.219970000000004]}},{"type":"Feature","properties":{"country_code":"KOR","city":"Suwon","geoname_id":"1835553","downloaders":"{\"size\":27994,\"mobile\":44,\"satellite\":0,\"tor\":0,\"tor_exit_nodes\":0,\"vpn\":366,\"relay\":0,\"proxy\":12,\"hosting\":0,\"service\":15}","uploaders":"{\"size\":146,\"mobile\":0,\"satellite\":0,\"tor\":0,\"tor_exit_nodes\":0,\"vpn\":1,\"relay\":0,\"proxy\":0,\"hosting\":0,\"service\":0}"},"geometry":{"type":"Point","coordinates":[127.00889,37.29111]}},{"type":"Feature","properties":{"country_code":"ZAF","city":"Johannesburg","geoname_id":"993800","downloaders":"{\"size\":27957,\"mobile\":15838,\"satellite\":1,\"tor\":0,\"tor_exit_nodes\":0,\"vpn\":1121,\"relay\":0,\"proxy\":56,\"hosting\":4674,\"service\":949}","uploaders":"{\"size\":10859,\"mobile\":6215,\"satellite\":0,\"tor\":0,\"tor_exit_nodes\":0,\"vpn\":443,\"relay\":0,\"proxy\":9,\"hosting\":1768,\"service\":396}"},"geometry":{"type":"Point","coordinates":[28.04363,-26.20227]}},{"type":"Feature","properties":{"country_code":"RUS","city":"Perm","geoname_id":"511196","downloaders":"{\"size\":26067,\"mobile\":1316,\"satellite\":0,\"tor\":0,\"tor_exit_nodes\":0,\"vpn\":268,\"relay\":0,\"proxy\":9,\"hosting\":2,\"service\":5}","uploaders":"{\"size\":127,\"mobile\":9,\"satellite\":0,\"tor\":0,\"tor_exit_nodes\":0,\"vpn\":1,\"relay\":0,\"proxy\":0,\"hosting\":0,\"service\":0}"},"geometry":{"type":"Point","coordinates":[56.25017,58.01046]}},{"type":"Feature","properties":{"country_code":"SWE","city":"Stockholm","geoname_id":"2673730","downloaders":"{\"size\":25940,\"mobile\":3127,\"satellite\":18,\"tor\":131,\"tor_exit_nodes\":41,\"vpn\":12738,\"relay\":1,\"proxy\":51,\"hosting\":10375,\"service\":11279}","uploaders":"{\"size\":4537,\"mobile\":1306,\"satellite\":8,\"tor\":12,\"tor_exit_nodes\":1,\"vpn\":2421,\"relay\":0,\"proxy\":2,\"hosting\":2166,\"service\":2292}"},"geometry":{"type":"Point","coordinates":[18.06871,59.32938]}},{"type":"Feature","properties":{"country_code":"RUS","city":"Krasnoyarsk","geoname_id":"1502026","downloaders":"{\"size\":25648,\"mobile\":2335,\"satellite\":1,\"tor\":0,\"tor_exit_nodes\":0,\"vpn\":551,\"relay\":0,\"proxy\":6,\"hosting\":1,\"service\":271}","uploaders":"{\"size\":120,\"mobile\":8,\"satellite\":0,\"tor\":0,\"tor_exit_nodes\":0,\"vpn\":5,\"relay\":0,\"proxy\":0,\"hosting\":0,\"service\":1}"},"geometry":{"type":"Point","coordinates":[92.93136,56.03742]}},{"type":"Feature","properties":{"country_code":"RUS","city":"Chelyabinsk","geoname_id":"1508291","downloaders":"{\"size\":25444,\"mobile\":1958,\"satellite\":0,\"tor\":0,\"tor_exit_nodes\":0,\"vpn\":213,\"relay\":0,\"proxy\":7,\"hosting\":17,\"service\":17}","uploaders":"{\"size\":123,\"mobile\":9,\"satellite\":0,\"tor\":0,\"tor_exit_nodes\":0,\"vpn\":0,\"relay\":0,\"proxy\":0,\"hosting\":0,\"service\":0}"},"geometry":{"type":"Point","coordinates":[61.42877,55.1611]}},{"type":"Feature","properties":{"country_code":"FIN","city":"Helsinki","geoname_id":"658225","downloaders":"{\"size\":25398,\"mobile\":714,\"satellite\":10,\"tor\":0,\"tor_exit_nodes\":0,\"vpn\":3842,\"relay\":0,\"proxy\":20,\"hosting\":21659,\"service\":2448}","uploaders":"{\"size\":944,\"mobile\":257,\"satellite\":0,\"tor\":0,\"tor_exit_nodes\":0,\"vpn\":397,\"relay\":0,\"proxy\":0,\"hosting\":475,\"service\":383}"},"geometry":{"type":"Point","coordinates":[24.93545,60.16952]}},{"type":"Feature","properties":{"country_code":"DEU","city":"Frankfurt am Main","geoname_id":"2925533","downloaders":"{\"size\":25314,\"mobile\":473,\"satellite\":4,\"tor\":4,\"tor_exit_nodes\":72,\"vpn\":10502,\"relay\":1,\"proxy\":48,\"hosting\":21835,\"service\":9383}","uploaders":"{\"size\":2214,\"mobile\":98,\"satellite\":2,\"tor\":0,\"tor_exit_nodes\":1,\"vpn\":1711,\"relay\":0,\"proxy\":1,\"hosting\":1850,\"service\":1576}"},"geometry":{"type":"Point","coordinates":[8.68417,50.11552]}},{"type":"Feature","properties":{"country_code":"BRA","city":"São Paulo","geoname_id":"3448439","downloaders":"{\"size\":25112,\"mobile\":4267,\"satellite\":298,\"tor\":0,\"tor_exit_nodes\":0,\"vpn\":1791,\"relay\":0,\"proxy\":12,\"hosting\":3208,\"service\":1553}","uploaders":"{\"size\":2169,\"mobile\":488,\"satellite\":46,\"tor\":0,\"tor_exit_nodes\":0,\"vpn\":601,\"relay\":0,\"proxy\":0,\"hosting\":626,\"service\":564}"},"geometry":{"type":"Point","coordinates":[-46.63611,-23.5475]}},{"type":"Feature","properties":{"country_code":"TUR","city":"İzmir","geoname_id":"311046","downloaders":"{\"size\":24716,\"mobile\":4157,\"satellite\":0,\"tor\":0,\"tor_exit_nodes\":0,\"vpn\":7,\"relay\":0,\"proxy\":0,\"hosting\":7,\"service\":3}","uploaders":"{\"size\":83,\"mobile\":13,\"satellite\":0,\"tor\":0,\"tor_exit_nodes\":0,\"vpn\":0,\"relay\":0,\"proxy\":0,\"hosting\":0,\"service\":0}"},"geometry":{"type":"Point","coordinates":[27.13838,38.41273]}},{"type":"Feature","properties":{"country_code":"BLR","city":"Minsk","geoname_id":"625144","downloaders":"{\"size\":24675,\"mobile\":121,\"satellite\":0,\"tor\":0,\"tor_exit_nodes\":0,\"vpn\":515,\"relay\":0,\"proxy\":13,\"hosting\":289,\"service\":16}","uploaders":"{\"size\":127,\"mobile\":1,\"satellite\":0,\"tor\":0,\"tor_exit_nodes\":0,\"vpn\":2,\"relay\":0,\"proxy\":0,\"hosting\":1,\"service\":0}"},"geometry":{"type":"Point","coordinates":[27.56653,53.90019]}},{"type":"Feature","properties":{"country_code":"CHE","city":"Zürich","geoname_id":"2657896","downloaders":"{\"size\":24436,\"mobile\":2626,\"satellite\":10,\"tor\":1,\"tor_exit_nodes\":1,\"vpn\":14305,\"relay\":0,\"proxy\":29,\"hosting\":14408,\"service\":13766}","uploaders":"{\"size\":5180,\"mobile\":887,\"satellite\":7,\"tor\":0,\"tor_exit_nodes\":0,\"vpn\":3262,\"relay\":0,\"proxy\":0,\"hosting\":2914,\"service\":3194}"},"geometry":{"type":"Point","coordinates":[8.4488,47.395]}},{"type":"Feature","properties":{"country_code":"KOR","city":"Daejeon","geoname_id":"1835235","downloaders":"{\"size\":24339,\"mobile\":47,\"satellite\":0,\"tor\":0,\"tor_exit_nodes\":0,\"vpn\":246,\"relay\":0,\"proxy\":10,\"hosting\":0,\"service\":27}","uploaders":"{\"size\":121,\"mobile\":0,\"satellite\":0,\"tor\":0,\"tor_exit_nodes\":0,\"vpn\":2,\"relay\":0,\"proxy\":0,\"hosting\":0,\"service\":1}"},"geometry":{"type":"Point","coordinates":[127.38493,36.34913]}},{"type":"Feature","properties":{"country_code":"NLD","city":"Lelystad","geoname_id":"2751738","downloaders":"{\"size\":24137,\"mobile\":59,\"satellite\":0,\"tor\":120,\"tor_exit_nodes\":115,\"vpn\":3783,\"relay\":0,\"proxy\":26,\"hosting\":22937,\"service\":936}","uploaders":"{\"size\":735,\"mobile\":8,\"satellite\":0,\"tor\":8,\"tor_exit_nodes\":8,\"vpn\":107,\"relay\":0,\"proxy\":1,\"hosting\":544,\"service\":79}"},"geometry":{"type":"Point","coordinates":[5.475,52.50833]}},{"type":"Feature","properties":{"country_code":"MEX","city":"Mexico City","geoname_id":"3530597","downloaders":"{\"size\":24048,\"mobile\":56,\"satellite\":222,\"tor\":0,\"tor_exit_nodes\":0,\"vpn\":207,\"relay\":0,\"proxy\":0,\"hosting\":139,\"service\":147}","uploaders":"{\"size\":642,\"mobile\":4,\"satellite\":38,\"tor\":0,\"tor_exit_nodes\":0,\"vpn\":60,\"relay\":0,\"proxy\":0,\"hosting\":52,\"service\":53}"},"geometry":{"type":"Point","coordinates":[-99.12766,19.42847]}},{"type":"Feature","properties":{"country_code":"RUS","city":"Ufa","geoname_id":"479561","downloaders":"{\"size\":24004,\"mobile\":665,\"satellite\":0,\"tor\":0,\"tor_exit_nodes\":0,\"vpn\":224,\"relay\":0,\"proxy\":0,\"hosting\":0,\"service\":16}","uploaders":"{\"size\":120,\"mobile\":4,\"satellite\":0,\"tor\":0,\"tor_exit_nodes\":0,\"vpn\":0,\"relay\":0,\"proxy\":0,\"hosting\":0,\"service\":0}"},"geometry":{"type":"Point","coordinates":[55.96779,54.74306]}},{"type":"Feature","properties":{"country_code":"KOR","city":"Goyang-si","geoname_id":"1842485","downloaders":"{\"size\":23814,\"mobile\":302,\"satellite\":0,\"tor\":0,\"tor_exit_nodes\":0,\"vpn\":403,\"relay\":0,\"proxy\":20,\"hosting\":0,\"service\":22}","uploaders":"{\"size\":104,\"mobile\":1,\"satellite\":0,\"tor\":0,\"tor_exit_nodes\":0,\"vpn\":2,\"relay\":0,\"proxy\":0,\"hosting\":0,\"service\":0}"},"geometry":{"type":"Point","coordinates":[126.835,37.65639]}},{"type":"Feature","properties":{"country_code":"HKG","city":"Hong Kong","geoname_id":"1819729","downloaders":"{\"size\":23636,\"mobile\":304,\"satellite\":0,\"tor\":0,\"tor_exit_nodes\":0,\"vpn\":2679,\"relay\":1,\"proxy\":10,\"hosting\":5232,\"service\":1708}","uploaders":"{\"size\":943,\"mobile\":44,\"satellite\":0,\"tor\":0,\"tor_exit_nodes\":0,\"vpn\":390,\"relay\":0,\"proxy\":0,\"hosting\":539,\"service\":379}"},"geometry":{"type":"Point","coordinates":[114.17469,22.27832]}},{"type":"Feature","properties":{"country_code":"RUS","city":"Tyumen","geoname_id":"1488754","downloaders":"{\"size\":23340,\"mobile\":3129,\"satellite\":0,\"tor\":0,\"tor_exit_nodes\":0,\"vpn\":284,\"relay\":0,\"proxy\":1,\"hosting\":0,\"service\":14}","uploaders":"{\"size\":116,\"mobile\":17,\"satellite\":0,\"tor\":0,\"tor_exit_nodes\":0,\"vpn\":0,\"relay\":0,\"proxy\":0,\"hosting\":0,\"service\":0}"},"geometry":{"type":"Point","coordinates":[65.52722,57.15222]}},{"type":"Feature","properties":{"country_code":"JPN","city":"Tokyo","geoname_id":"1850147","downloaders":"{\"size\":22557,\"mobile\":1400,\"satellite\":19,\"tor\":0,\"tor_exit_nodes\":0,\"vpn\":4333,\"relay\":0,\"proxy\":14,\"hosting\":5930,\"service\":3775}","uploaders":"{\"size\":590,\"mobile\":83,\"satellite\":2,\"tor\":0,\"tor_exit_nodes\":0,\"vpn\":336,\"relay\":0,\"proxy\":4,\"hosting\":348,\"service\":326}"},"geometry":{"type":"Point","coordinates":[139.69171,35.6895]}},{"type":"Feature","properties":{"country_code":"RUS","city":"Barnaul","geoname_id":"1510853","downloaders":"{\"size\":22149,\"mobile\":13,\"satellite\":0,\"tor\":0,\"tor_exit_nodes\":0,\"vpn\":124,\"relay\":0,\"proxy\":0,\"hosting\":0,\"service\":37}","uploaders":"{\"size\":92,\"mobile\":0,\"satellite\":0,\"tor\":0,\"tor_exit_nodes\":0,\"vpn\":0,\"relay\":0,\"proxy\":0,\"hosting\":0,\"service\":0}"},"geometry":{"type":"Point","coordinates":[83.72786,53.36199]}},{"type":"Feature","properties":{"country_code":"RUS","city":"Tomsk","geoname_id":"1489425","downloaders":"{\"size\":21868,\"mobile\":30,\"satellite\":0,\"tor\":0,\"tor_exit_nodes\":0,\"vpn\":222,\"relay\":0,\"proxy\":0,\"hosting\":91,\"service\":24}","uploaders":"{\"size\":112,\"mobile\":1,\"satellite\":0,\"tor\":0,\"tor_exit_nodes\":0,\"vpn\":0,\"relay\":0,\"proxy\":0,\"hosting\":0,\"service\":0}"},"geometry":{"type":"Point","coordinates":[84.98216,56.50049]}},{"type":"Feature","properties":{"country_code":"RUS","city":"Omsk","geoname_id":"1496153","downloaders":"{\"size\":21849,\"mobile\":1302,\"satellite\":0,\"tor\":0,\"tor_exit_nodes\":0,\"vpn\":166,\"relay\":0,\"proxy\":0,\"hosting\":5,\"service\":18}","uploaders":"{\"size\":74,\"mobile\":7,\"satellite\":0,\"tor\":0,\"tor_exit_nodes\":0,\"vpn\":1,\"relay\":0,\"proxy\":0,\"hosting\":0,\"service\":0}"},"geometry":{"type":"Point","coordinates":[73.36859,54.99244]}},{"type":"Feature","properties":{"country_code":"KOR","city":"Seongnam-si","geoname_id":"1897000","downloaders":"{\"size\":21433,\"mobile\":146,\"satellite\":0,\"tor\":0,\"tor_exit_nodes\":0,\"vpn\":348,\"relay\":0,\"proxy\":4,\"hosting\":0,\"service\":18}","uploaders":"{\"size\":136,\"mobile\":4,\"satellite\":0,\"tor\":0,\"tor_exit_nodes\":0,\"vpn\":1,\"relay\":0,\"proxy\":0,\"hosting\":0,\"service\":0}"},"geometry":{"type":"Point","coordinates":[127.13778,37.43861]}},{"type":"Feature","properties":{"country_code":"RUS","city":"Saratov","geoname_id":"498677","downloaders":"{\"size\":21333,\"mobile\":533,\"satellite\":0,\"tor\":0,\"tor_exit_nodes\":0,\"vpn\":167,\"relay\":0,\"proxy\":0,\"hosting\":40,\"service\":6}","uploaders":"{\"size\":88,\"mobile\":6,\"satellite\":0,\"tor\":0,\"tor_exit_nodes\":0,\"vpn\":1,\"relay\":0,\"proxy\":0,\"hosting\":0,\"service\":0}"},"geometry":{"type":"Point","coordinates":[45.9901,51.54048]}},{"type":"Feature","properties":{"country_code":"USA","city":"Chicago","geoname_id":"4887398","downloaders":"{\"size\":21241,\"mobile\":1254,\"satellite\":130,\"tor\":0,\"tor_exit_nodes\":0,\"vpn\":15452,\"relay\":2,\"proxy\":70,\"hosting\":14622,\"service\":12769}","uploaders":"{\"size\":4355,\"mobile\":373,\"satellite\":31,\"tor\":0,\"tor_exit_nodes\":0,\"vpn\":3522,\"relay\":0,\"proxy\":17,\"hosting\":3426,\"service\":3243}"},"geometry":{"type":"Point","coordinates":[-87.65005,41.85003]}},{"type":"Feature","properties":{"country_code":"TUR","city":"Bursa","geoname_id":"750269","downloaders":"{\"size\":21003,\"mobile\":2128,\"satellite\":0,\"tor\":0,\"tor_exit_nodes\":0,\"vpn\":4,\"relay\":0,\"proxy\":0,\"hosting\":122,\"service\":0}","uploaders":"{\"size\":80,\"mobile\":4,\"satellite\":0,\"tor\":0,\"tor_exit_nodes\":0,\"vpn\":0,\"relay\":0,\"proxy\":0,\"hosting\":0,\"service\":0}"},"geometry":{"type":"Point","coordinates":[29.06013,40.19559]}},{"type":"Feature","properties":{"country_code":"KOR","city":"Gwangju","geoname_id":"1841811","downloaders":"{\"size\":20735,\"mobile\":27,\"satellite\":0,\"tor\":0,\"tor_exit_nodes\":0,\"vpn\":158,\"relay\":0,\"proxy\":3,\"hosting\":0,\"service\":61}","uploaders":"{\"size\":99,\"mobile\":0,\"satellite\":0,\"tor\":0,\"tor_exit_nodes\":0,\"vpn\":1,\"relay\":0,\"proxy\":0,\"hosting\":0,\"service\":1}"},"geometry":{"type":"Point","coordinates":[126.91556,35.15472]}},{"type":"Feature","properties":{"country_code":"KOR","city":"Hwaseong-si","geoname_id":"1843847","downloaders":"{\"size\":20100,\"mobile\":49,\"satellite\":0,\"tor\":0,\"tor_exit_nodes\":0,\"vpn\":225,\"relay\":0,\"proxy\":0,\"hosting\":0,\"service\":19}","uploaders":"{\"size\":81,\"mobile\":0,\"satellite\":0,\"tor\":0,\"tor_exit_nodes\":0,\"vpn\":0,\"relay\":0,\"proxy\":0,\"hosting\":0,\"service\":0}"},"geometry":{"type":"Point","coordinates":[126.8169,37.20682]}},{"type":"Feature","properties":{"country_code":"RUS","city":"Kemerovo","geoname_id":"1503901","downloaders":"{\"size\":20006,\"mobile\":40,\"satellite\":0,\"tor\":0,\"tor_exit_nodes\":0,\"vpn\":116,\"relay\":0,\"proxy\":0,\"hosting\":50,\"service\":3}","uploaders":"{\"size\":81,\"mobile\":0,\"satellite\":0,\"tor\":0,\"tor_exit_nodes\":0,\"vpn\":0,\"relay\":0,\"proxy\":0,\"hosting\":0,\"service\":0}"},"geometry":{"type":"Point","coordinates":[86.10435,55.35417]}},{"type":"Feature","properties":{"country_code":"TZA","city":"Dar es Salaam","geoname_id":"160263","downloaders":"{\"size\":19996,\"mobile\":12145,\"satellite\":0,\"tor\":0,\"tor_exit_nodes\":0,\"vpn\":139,\"relay\":0,\"proxy\":0,\"hosting\":131,\"service\":0}","uploaders":"{\"size\":8815,\"mobile\":5419,\"satellite\":0,\"tor\":0,\"tor_exit_nodes\":0,\"vpn\":55,\"relay\":0,\"proxy\":0,\"hosting\":46,\"service\":0}"},"geometry":{"type":"Point","coordinates":[39.26951,-6.82349]}},{"type":"Feature","properties":{"country_code":"CAN","city":"Vancouver","geoname_id":"6173331","downloaders":"{\"size\":19763,\"mobile\":2138,\"satellite\":110,\"tor\":0,\"tor_exit_nodes\":0,\"vpn\":12473,\"relay\":0,\"proxy\":0,\"hosting\":8391,\"service\":11672}","uploaders":"{\"size\":4087,\"mobile\":395,\"satellite\":54,\"tor\":0,\"tor_exit_nodes\":0,\"vpn\":2784,\"relay\":0,\"proxy\":0,\"hosting\":2291,\"service\":2657}"},"geometry":{"type":"Point","coordinates":[-123.11934,49.24966]}},{"type":"Feature","properties":{"country_code":"SVN","city":"Ljubljana","geoname_id":"3196359","downloaders":"{\"size\":19579,\"mobile\":1575,\"satellite\":14,\"tor\":0,\"tor_exit_nodes\":0,\"vpn\":778,\"relay\":0,\"proxy\":0,\"hosting\":373,\"service\":361}","uploaders":"{\"size\":2345,\"mobile\":785,\"satellite\":8,\"tor\":0,\"tor_exit_nodes\":0,\"vpn\":96,\"relay\":0,\"proxy\":0,\"hosting\":76,\"service\":79}"},"geometry":{"type":"Point","coordinates":[14.50513,46.05108]}},{"type":"Feature","properties":{"country_code":"CHN","city":"Beijing","geoname_id":"1816670","downloaders":"{\"size\":19534,\"mobile\":0,\"satellite\":0,\"tor\":0,\"tor_exit_nodes\":0,\"vpn\":401,\"relay\":0,\"proxy\":0,\"hosting\":2186,\"service\":0}","uploaders":"{\"size\":285,\"mobile\":0,\"satellite\":0,\"tor\":0,\"tor_exit_nodes\":0,\"vpn\":0,\"relay\":0,\"proxy\":0,\"hosting\":55,\"service\":0}"},"geometry":{"type":"Point","coordinates":[116.39723,39.9075]}},{"type":"Feature","properties":{"country_code":"LVA","city":"Riga","geoname_id":"456172","downloaders":"{\"size\":19502,\"mobile\":1113,\"satellite\":4,\"tor\":0,\"tor_exit_nodes\":0,\"vpn\":955,\"relay\":0,\"proxy\":6,\"hosting\":1901,\"service\":650}","uploaders":"{\"size\":1978,\"mobile\":415,\"satellite\":0,\"tor\":0,\"tor_exit_nodes\":0,\"vpn\":97,\"relay\":0,\"proxy\":0,\"hosting\":114,\"service\":69}"},"geometry":{"type":"Point","coordinates":[24.10589,56.946]}},{"type":"Feature","properties":{"country_code":"ROU","city":"Bucharest","geoname_id":"683506","downloaders":"{\"size\":19166,\"mobile\":3777,\"satellite\":0,\"tor\":57,\"tor_exit_nodes\":7,\"vpn\":4044,\"relay\":0,\"proxy\":8,\"hosting\":4340,\"service\":3249}","uploaders":"{\"size\":3049,\"mobile\":521,\"satellite\":0,\"tor\":3,\"tor_exit_nodes\":0,\"vpn\":560,\"relay\":0,\"proxy\":0,\"hosting\":560,\"service\":488}"},"geometry":{"type":"Point","coordinates":[26.10626,44.43225]}},{"type":"Feature","properties":{"country_code":"IRL","city":"Dublin","geoname_id":"2964574","downloaders":"{\"size\":18519,\"mobile\":7335,\"satellite\":49,\"tor\":0,\"tor_exit_nodes\":0,\"vpn\":3704,\"relay\":11,\"proxy\":0,\"hosting\":4698,\"service\":3421}","uploaders":"{\"size\":4596,\"mobile\":2141,\"satellite\":26,\"tor\":0,\"tor_exit_nodes\":0,\"vpn\":1064,\"relay\":10,\"proxy\":0,\"hosting\":1149,\"service\":1027}"},"geometry":{"type":"Point","coordinates":[-6.24889,53.33306]}},{"type":"Feature","properties":{"country_code":"KOR","city":"Ansan-si","geoname_id":"1846918","downloaders":"{\"size\":18108,\"mobile\":35,\"satellite\":0,\"tor\":0,\"tor_exit_nodes\":0,\"vpn\":152,\"relay\":0,\"proxy\":2,\"hosting\":0,\"service\":14}","uploaders":"{\"size\":79,\"mobile\":0,\"satellite\":0,\"tor\":0,\"tor_exit_nodes\":0,\"vpn\":0,\"relay\":0,\"proxy\":0,\"hosting\":0,\"service\":0}"},"geometry":{"type":"Point","coordinates":[126.82194,37.32361]}},{"type":"Feature","properties":{"country_code":"ITA","city":"Milan","geoname_id":"3173435","downloaders":"{\"size\":17972,\"mobile\":4093,\"satellite\":132,\"tor\":31,\"tor_exit_nodes\":0,\"vpn\":2788,\"relay\":1,\"proxy\":5,\"hosting\":2909,\"service\":2582}","uploaders":"{\"size\":1832,\"mobile\":578,\"satellite\":25,\"tor\":2,\"tor_exit_nodes\":0,\"vpn\":429,\"relay\":0,\"proxy\":0,\"hosting\":441,\"service\":421}"},"geometry":{"type":"Point","coordinates":[9.18951,45.46427]}},{"type":"Feature","properties":{"country_code":"RUS","city":"Tula","geoname_id":"480562","downloaders":"{\"size\":17898,\"mobile\":3069,\"satellite\":0,\"tor\":0,\"tor_exit_nodes\":0,\"vpn\":153,\"relay\":0,\"proxy\":0,\"hosting\":0,\"service\":0}","uploaders":"{\"size\":77,\"mobile\":10,\"satellite\":0,\"tor\":0,\"tor_exit_nodes\":0,\"vpn\":1,\"relay\":0,\"proxy\":0,\"hosting\":0,\"service\":0}"},"geometry":{"type":"Point","coordinates":[37.61822,54.19609]}},{"type":"Feature","properties":{"country_code":"USA","city":"Atlanta","geoname_id":"4180439","downloaders":"{\"size\":17207,\"mobile\":1195,\"satellite\":57,\"tor\":0,\"tor_exit_nodes\":0,\"vpn\":10220,\"relay\":1,\"proxy\":1,\"hosting\":11584,\"service\":10025}","uploaders":"{\"size\":3591,\"mobile\":311,\"satellite\":16,\"tor\":0,\"tor_exit_nodes\":0,\"vpn\":2751,\"relay\":0,\"proxy\":0,\"hosting\":2752,\"service\":2708}"},"geometry":{"type":"Point","coordinates":[-84.3888,33.7525]}},{"type":"Feature","properties":{"country_code":"SGP","city":"Singapore","geoname_id":"1880252","downloaders":"{\"size\":17121,\"mobile\":144,\"satellite\":0,\"tor\":0,\"tor_exit_nodes\":0,\"vpn\":6499,\"relay\":0,\"proxy\":21,\"hosting\":10253,\"service\":6332}","uploaders":"{\"size\":1933,\"mobile\":40,\"satellite\":0,\"tor\":0,\"tor_exit_nodes\":0,\"vpn\":1308,\"relay\":0,\"proxy\":1,\"hosting\":1588,\"service\":1285}"},"geometry":{"type":"Point","coordinates":[103.85007,1.28967]}},{"type":"Feature","properties":{"country_code":"ZAF","city":"Cape Town","geoname_id":"3369157","downloaders":"{\"size\":16978,\"mobile\":7071,\"satellite\":0,\"tor\":0,\"tor_exit_nodes\":0,\"vpn\":165,\"relay\":0,\"proxy\":7,\"hosting\":3705,\"service\":0}","uploaders":"{\"size\":6414,\"mobile\":2891,\"satellite\":0,\"tor\":0,\"tor_exit_nodes\":0,\"vpn\":38,\"relay\":0,\"proxy\":0,\"hosting\":1450,\"service\":0}"},"geometry":{"type":"Point","coordinates":[18.42322,-33.92584]}},{"type":"Feature","properties":{"country_code":"RUS","city":"Lipetsk","geoname_id":"535121","downloaders":"{\"size\":16811,\"mobile\":2640,\"satellite\":0,\"tor\":0,\"tor_exit_nodes\":0,\"vpn\":125,\"relay\":0,\"proxy\":0,\"hosting\":0,\"service\":4}","uploaders":"{\"size\":62,\"mobile\":10,\"satellite\":0,\"tor\":0,\"tor_exit_nodes\":0,\"vpn\":0,\"relay\":0,\"proxy\":0,\"hosting\":0,\"service\":0}"},"geometry":{"type":"Point","coordinates":[39.55151,52.5876]}},{"type":"Feature","properties":{"country_code":"HRV","city":"Zagreb","geoname_id":"3186886","downloaders":"{\"size\":16656,\"mobile\":3311,\"satellite\":24,\"tor\":0,\"tor_exit_nodes\":0,\"vpn\":1142,\"relay\":0,\"proxy\":0,\"hosting\":1140,\"service\":874}","uploaders":"{\"size\":5677,\"mobile\":1561,\"satellite\":9,\"tor\":0,\"tor_exit_nodes\":0,\"vpn\":338,\"relay\":0,\"proxy\":0,\"hosting\":334,\"service\":215}"},"geometry":{"type":"Point","coordinates":[15.97798,45.81444]}},{"type":"Feature","properties":{"country_code":"KOR","city":"Cheongju-si","geoname_id":"1845604","downloaders":"{\"size\":16607,\"mobile\":18,\"satellite\":0,\"tor\":0,\"tor_exit_nodes\":0,\"vpn\":153,\"relay\":0,\"proxy\":2,\"hosting\":0,\"service\":35}","uploaders":"{\"size\":83,\"mobile\":0,\"satellite\":0,\"tor\":0,\"tor_exit_nodes\":0,\"vpn\":1,\"relay\":0,\"proxy\":0,\"hosting\":0,\"service\":0}"},"geometry":{"type":"Point","coordinates":[127.48972,36.63722]}},{"type":"Feature","properties":{"country_code":"CHN","city":"Jiaxing","geoname_id":"1805953","downloaders":"{\"size\":16077,\"mobile\":0,\"satellite\":0,\"tor\":0,\"tor_exit_nodes\":0,\"vpn\":913,\"relay\":0,\"proxy\":0,\"hosting\":70,\"service\":0}","uploaders":"{\"size\":38,\"mobile\":0,\"satellite\":0,\"tor\":0,\"tor_exit_nodes\":0,\"vpn\":6,\"relay\":0,\"proxy\":0,\"hosting\":0,\"service\":0}"},"geometry":{"type":"Point","coordinates":[120.75,30.7522]}},{"type":"Feature","properties":{"country_code":"RUS","city":"Volgograd","geoname_id":"472757","downloaders":"{\"size\":16033,\"mobile\":1860,\"satellite\":0,\"tor\":0,\"tor_exit_nodes\":0,\"vpn\":90,\"relay\":0,\"proxy\":1,\"hosting\":0,\"service\":42}","uploaders":"{\"size\":57,\"mobile\":8,\"satellite\":0,\"tor\":0,\"tor_exit_nodes\":0,\"vpn\":0,\"relay\":0,\"proxy\":0,\"hosting\":0,\"service\":0}"},"geometry":{"type":"Point","coordinates":[44.4976,48.71378]}},{"type":"Feature","properties":{"country_code":"AUS","city":"Brisbane","geoname_id":"2174003","downloaders":"{\"size\":15912,\"mobile\":1326,\"satellite\":119,\"tor\":0,\"tor_exit_nodes\":0,\"vpn\":2869,\"relay\":0,\"proxy\":0,\"hosting\":3074,\"service\":2613}","uploaders":"{\"size\":3785,\"mobile\":377,\"satellite\":34,\"tor\":0,\"tor_exit_nodes\":0,\"vpn\":996,\"relay\":0,\"proxy\":0,\"hosting\":1060,\"service\":966}"},"geometry":{"type":"Point","coordinates":[153.02809,-27.46794]}},{"type":"Feature","properties":{"country_code":"RUS","city":"Balashikha","geoname_id":"579464","downloaders":"{\"size\":15768,\"mobile\":226,\"satellite\":0,\"tor\":0,\"tor_exit_nodes\":0,\"vpn\":1004,\"relay\":0,\"proxy\":9,\"hosting\":764,\"service\":106}","uploaders":"{\"size\":89,\"mobile\":0,\"satellite\":0,\"tor\":0,\"tor_exit_nodes\":0,\"vpn\":8,\"relay\":0,\"proxy\":0,\"hosting\":1,\"service\":1}"},"geometry":{"type":"Point","coordinates":[37.94794,55.79479]}},{"type":"Feature","properties":{"country_code":"RUS","city":"Irkutsk","geoname_id":"2023469","downloaders":"{\"size\":15618,\"mobile\":2238,\"satellite\":0,\"tor\":0,\"tor_exit_nodes\":0,\"vpn\":129,\"relay\":0,\"proxy\":0,\"hosting\":7,\"service\":1}","uploaders":"{\"size\":80,\"mobile\":11,\"satellite\":0,\"tor\":0,\"tor_exit_nodes\":0,\"vpn\":0,\"relay\":0,\"proxy\":0,\"hosting\":0,\"service\":0}"},"geometry":{"type":"Point","coordinates":[104.29076,52.29566]}},{"type":"Feature","properties":{"country_code":"CHN","city":"Zhengzhou","geoname_id":"1784658","downloaders":"{\"size\":15407,\"mobile\":0,\"satellite\":0,\"tor\":0,\"tor_exit_nodes\":0,\"vpn\":264,\"relay\":0,\"proxy\":0,\"hosting\":10,\"service\":0}","uploaders":"{\"size\":87,\"mobile\":0,\"satellite\":0,\"tor\":0,\"tor_exit_nodes\":0,\"vpn\":1,\"relay\":0,\"proxy\":0,\"hosting\":0,\"service\":0}"},"geometry":{"type":"Point","coordinates":[113.64861,34.75778]}},{"type":"Feature","properties":{"country_code":"USA","city":"Dallas","geoname_id":"4684888","downloaders":"{\"size\":15401,\"mobile\":786,\"satellite\":137,\"tor\":0,\"tor_exit_nodes\":3,\"vpn\":11775,\"relay\":0,\"proxy\":0,\"hosting\":12670,\"service\":10390}","uploaders":"{\"size\":3487,\"mobile\":191,\"satellite\":60,\"tor\":0,\"tor_exit_nodes\":0,\"vpn\":2960,\"relay\":0,\"proxy\":0,\"hosting\":2984,\"service\":2680}"},"geometry":{"type":"Point","coordinates":[-96.80667,32.78306]}},{"type":"Feature","properties":{"country_code":"KOR","city":"Haegok","geoname_id":"6398843","downloaders":"{\"size\":15209,\"mobile\":26,\"satellite\":0,\"tor\":0,\"tor_exit_nodes\":0,\"vpn\":248,\"relay\":0,\"proxy\":5,\"hosting\":0,\"service\":19}","uploaders":"{\"size\":76,\"mobile\":0,\"satellite\":0,\"tor\":0,\"tor_exit_nodes\":0,\"vpn\":0,\"relay\":0,\"proxy\":0,\"hosting\":0,\"service\":0}"},"geometry":{"type":"Point","coordinates":[127.27880999999999,37.19251]}},{"type":"Feature","properties":{"country_code":"UKR","city":"Kyiv","geoname_id":"703448","downloaders":"{\"size\":15187,\"mobile\":146,\"satellite\":210,\"tor\":0,\"tor_exit_nodes\":0,\"vpn\":1025,\"relay\":0,\"proxy\":1,\"hosting\":3382,\"service\":507}","uploaders":"{\"size\":291,\"mobile\":1,\"satellite\":6,\"tor\":0,\"tor_exit_nodes\":0,\"vpn\":88,\"relay\":0,\"proxy\":0,\"hosting\":154,\"service\":72}"},"geometry":{"type":"Point","coordinates":[30.5238,50.45466]}},{"type":"Feature","properties":{"country_code":"KOR","city":"Anyang-si","geoname_id":"1846898","downloaders":"{\"size\":15112,\"mobile\":7,\"satellite\":0,\"tor\":0,\"tor_exit_nodes\":0,\"vpn\":303,\"relay\":0,\"proxy\":4,\"hosting\":0,\"service\":48}","uploaders":"{\"size\":87,\"mobile\":0,\"satellite\":0,\"tor\":0,\"tor_exit_nodes\":0,\"vpn\":1,\"relay\":0,\"proxy\":0,\"hosting\":0,\"service\":0}"},"geometry":{"type":"Point","coordinates":[126.92694,37.3925]}},{"type":"Feature","properties":{"country_code":"KOR","city":"Ulsan","geoname_id":"1833747","downloaders":"{\"size\":15026,\"mobile\":27,\"satellite\":0,\"tor\":0,\"tor_exit_nodes\":0,\"vpn\":160,\"relay\":0,\"proxy\":3,\"hosting\":0,\"service\":58}","uploaders":"{\"size\":68,\"mobile\":0,\"satellite\":0,\"tor\":0,\"tor_exit_nodes\":0,\"vpn\":2,\"relay\":0,\"proxy\":0,\"hosting\":0,\"service\":0}"},"geometry":{"type":"Point","coordinates":[129.31667,35.53722]}},{"type":"Feature","properties":{"country_code":"RUS","city":"Kazan","geoname_id":"551487","downloaders":"{\"size\":14811,\"mobile\":2804,\"satellite\":0,\"tor\":0,\"tor_exit_nodes\":0,\"vpn\":227,\"relay\":0,\"proxy\":0,\"hosting\":18,\"service\":4}","uploaders":"{\"size\":73,\"mobile\":16,\"satellite\":0,\"tor\":0,\"tor_exit_nodes\":0,\"vpn\":0,\"relay\":0,\"proxy\":0,\"hosting\":0,\"service\":0}"},"geometry":{"type":"Point","coordinates":[49.12214,55.78874]}},{"type":"Feature","properties":{"country_code":"USA","city":"Miami","geoname_id":"4164138","downloaders":"{\"size\":14634,\"mobile\":872,\"satellite\":172,\"tor\":2,\"tor_exit_nodes\":1,\"vpn\":10656,\"relay\":0,\"proxy\":1,\"hosting\":11827,\"service\":10282}","uploaders":"{\"size\":3116,\"mobile\":208,\"satellite\":66,\"tor\":0,\"tor_exit_nodes\":0,\"vpn\":2603,\"relay\":0,\"proxy\":0,\"hosting\":2551,\"service\":2518}"},"geometry":{"type":"Point","coordinates":[-80.19366,25.77427]}},{"type":"Feature","properties":{"country_code":"NZL","city":"Auckland","geoname_id":"2193733","downloaders":"{\"size\":14474,\"mobile\":4641,\"satellite\":174,\"tor\":0,\"tor_exit_nodes\":0,\"vpn\":2956,\"relay\":0,\"proxy\":0,\"hosting\":3014,\"service\":2784}","uploaders":"{\"size\":3384,\"mobile\":1121,\"satellite\":64,\"tor\":0,\"tor_exit_nodes\":0,\"vpn\":681,\"relay\":0,\"proxy\":0,\"hosting\":705,\"service\":660}"},"geometry":{"type":"Point","coordinates":[174.76349,-36.84853]}},{"type":"Feature","properties":{"country_code":"POL","city":"Poznań","geoname_id":"3088171","downloaders":"{\"size\":14231,\"mobile\":614,\"satellite\":0,\"tor\":10,\"tor_exit_nodes\":4,\"vpn\":74,\"relay\":0,\"proxy\":0,\"hosting\":58,\"service\":0}","uploaders":"{\"size\":237,\"mobile\":64,\"satellite\":0,\"tor\":0,\"tor_exit_nodes\":0,\"vpn\":1,\"relay\":0,\"proxy\":0,\"hosting\":2,\"service\":0}"},"geometry":{"type":"Point","coordinates":[16.92993,52.40692]}},{"type":"Feature","properties":{"country_code":"KOR","city":"Bucheon-si","geoname_id":"1838716","downloaders":"{\"size\":14031,\"mobile\":5,\"satellite\":0,\"tor\":0,\"tor_exit_nodes\":0,\"vpn\":200,\"relay\":0,\"proxy\":0,\"hosting\":0,\"service\":12}","uploaders":"{\"size\":62,\"mobile\":0,\"satellite\":0,\"tor\":0,\"tor_exit_nodes\":0,\"vpn\":0,\"relay\":0,\"proxy\":0,\"hosting\":0,\"service\":0}"},"geometry":{"type":"Point","coordinates":[126.78306,37.49889]}},{"type":"Feature","properties":{"country_code":"GHA","city":"Accra","geoname_id":"2306104","downloaders":"{\"size\":13677,\"mobile\":11476,\"satellite\":985,\"tor\":0,\"tor_exit_nodes\":0,\"vpn\":41,\"relay\":0,\"proxy\":0,\"hosting\":2,\"service\":0}","uploaders":"{\"size\":5345,\"mobile\":4340,\"satellite\":459,\"tor\":0,\"tor_exit_nodes\":0,\"vpn\":8,\"relay\":0,\"proxy\":0,\"hosting\":0,\"service\":0}"},"geometry":{"type":"Point","coordinates":[-0.1969,5.55602]}},{"type":"Feature","properties":{"country_code":"RUS","city":"Yaroslavl","geoname_id":"468902","downloaders":"{\"size\":13588,\"mobile\":1528,\"satellite\":0,\"tor\":0,\"tor_exit_nodes\":0,\"vpn\":196,\"relay\":0,\"proxy\":3,\"hosting\":11,\"service\":0}","uploaders":"{\"size\":77,\"mobile\":8,\"satellite\":0,\"tor\":0,\"tor_exit_nodes\":0,\"vpn\":1,\"relay\":0,\"proxy\":0,\"hosting\":0,\"service\":0}"},"geometry":{"type":"Point","coordinates":[39.87368,57.62987]}},{"type":"Feature","properties":{"country_code":"DEU","city":"Falkenstein","geoname_id":"2927913","downloaders":"{\"size\":13362,\"mobile\":0,\"satellite\":0,\"tor\":0,\"tor_exit_nodes\":0,\"vpn\":12,\"relay\":0,\"proxy\":0,\"hosting\":13351,\"service\":12}","uploaders":"{\"size\":168,\"mobile\":0,\"satellite\":0,\"tor\":0,\"tor_exit_nodes\":0,\"vpn\":0,\"relay\":0,\"proxy\":0,\"hosting\":168,\"service\":0}"},"geometry":{"type":"Point","coordinates":[12.37129,50.47788]}},{"type":"Feature","properties":{"country_code":"CZE","city":"Prague","geoname_id":"3067696","downloaders":"{\"size\":13314,\"mobile\":1422,\"satellite\":23,\"tor\":0,\"tor_exit_nodes\":0,\"vpn\":2854,\"relay\":0,\"proxy\":7,\"hosting\":3306,\"service\":2178}","uploaders":"{\"size\":758,\"mobile\":144,\"satellite\":2,\"tor\":0,\"tor_exit_nodes\":0,\"vpn\":296,\"relay\":0,\"proxy\":0,\"hosting\":313,\"service\":261}"},"geometry":{"type":"Point","coordinates":[14.42076,50.08804]}},{"type":"Feature","properties":{"country_code":"RUS","city":"Kirov","geoname_id":"548408","downloaders":"{\"size\":13208,\"mobile\":1381,\"satellite\":0,\"tor\":0,\"tor_exit_nodes\":0,\"vpn\":412,\"relay\":0,\"proxy\":1,\"hosting\":0,\"service\":301}","uploaders":"{\"size\":64,\"mobile\":2,\"satellite\":0,\"tor\":0,\"tor_exit_nodes\":0,\"vpn\":4,\"relay\":0,\"proxy\":0,\"hosting\":0,\"service\":3}"},"geometry":{"type":"Point","coordinates":[49.65783,58.59809]}},{"type":"Feature","properties":{"country_code":"USA","city":"Seattle","geoname_id":"5809844","downloaders":"{\"size\":13155,\"mobile\":677,\"satellite\":180,\"tor\":0,\"tor_exit_nodes\":0,\"vpn\":10622,\"relay\":0,\"proxy\":0,\"hosting\":10207,\"service\":10053}","uploaders":"{\"size\":2996,\"mobile\":208,\"satellite\":57,\"tor\":0,\"tor_exit_nodes\":0,\"vpn\":2654,\"relay\":0,\"proxy\":0,\"hosting\":2549,\"service\":2575}"},"geometry":{"type":"Point","coordinates":[-122.3447,47.6151]}},{"type":"Feature","properties":{"country_code":"KOR","city":"Changwon","geoname_id":"1846326","downloaders":"{\"size\":13082,\"mobile\":33,\"satellite\":0,\"tor\":0,\"tor_exit_nodes\":0,\"vpn\":60,\"relay\":0,\"proxy\":0,\"hosting\":0,\"service\":3}","uploaders":"{\"size\":51,\"mobile\":1,\"satellite\":0,\"tor\":0,\"tor_exit_nodes\":0,\"vpn\":0,\"relay\":0,\"proxy\":0,\"hosting\":0,\"service\":0}"},"geometry":{"type":"Point","coordinates":[128.68111,35.22806]}},{"type":"Feature","properties":{"country_code":"LTU","city":"Vilnius","geoname_id":"593116","downloaders":"{\"size\":12896,\"mobile\":1740,\"satellite\":24,\"tor\":0,\"tor_exit_nodes\":0,\"vpn\":912,\"relay\":0,\"proxy\":0,\"hosting\":1184,\"service\":741}","uploaders":"{\"size\":1765,\"mobile\":469,\"satellite\":13,\"tor\":0,\"tor_exit_nodes\":0,\"vpn\":270,\"relay\":0,\"proxy\":0,\"hosting\":266,\"service\":260}"},"geometry":{"type":"Point","coordinates":[25.2798,54.68916]}},{"type":"Feature","properties":{"country_code":"CHN","city":"Qingdao","geoname_id":"1797929","downloaders":"{\"size\":12774,\"mobile\":0,\"satellite\":0,\"tor\":0,\"tor_exit_nodes\":0,\"vpn\":258,\"relay\":0,\"proxy\":0,\"hosting\":89,\"service\":0}","uploaders":"{\"size\":86,\"mobile\":0,\"satellite\":0,\"tor\":0,\"tor_exit_nodes\":0,\"vpn\":0,\"relay\":0,\"proxy\":0,\"hosting\":1,\"service\":0}"},"geometry":{"type":"Point","coordinates":[120.38042,36.06488]}},{"type":"Feature","properties":{"country_code":"ITA","city":"Rome","geoname_id":"3169070","downloaders":"{\"size\":12507,\"mobile\":4657,\"satellite\":1,\"tor\":0,\"tor_exit_nodes\":0,\"vpn\":464,\"relay\":0,\"proxy\":1,\"hosting\":418,\"service\":391}","uploaders":"{\"size\":731,\"mobile\":427,\"satellite\":0,\"tor\":0,\"tor_exit_nodes\":0,\"vpn\":129,\"relay\":0,\"proxy\":0,\"hosting\":129,\"service\":129}"},"geometry":{"type":"Point","coordinates":[12.51133,41.89193]}},{"type":"Feature","properties":{"country_code":"RUS","city":"Cheboksary","geoname_id":"569696","downloaders":"{\"size\":12190,\"mobile\":2122,\"satellite\":0,\"tor\":0,\"tor_exit_nodes\":0,\"vpn\":93,\"relay\":0,\"proxy\":0,\"hosting\":0,\"service\":0}","uploaders":"{\"size\":43,\"mobile\":7,\"satellite\":0,\"tor\":0,\"tor_exit_nodes\":0,\"vpn\":0,\"relay\":0,\"proxy\":0,\"hosting\":0,\"service\":0}"},"geometry":{"type":"Point","coordinates":[47.246,56.13218]}},{"type":"Feature","properties":{"country_code":"ETH","city":"Addis Ababa","geoname_id":"344979","downloaders":"{\"size\":12051,\"mobile\":5321,\"satellite\":0,\"tor\":0,\"tor_exit_nodes\":0,\"vpn\":22,\"relay\":0,\"proxy\":0,\"hosting\":88,\"service\":0}","uploaders":"{\"size\":4621,\"mobile\":2110,\"satellite\":0,\"tor\":0,\"tor_exit_nodes\":0,\"vpn\":5,\"relay\":0,\"proxy\":0,\"hosting\":40,\"service\":0}"},"geometry":{"type":"Point","coordinates":[38.74689,9.02497]}},{"type":"Feature","properties":{"country_code":"EST","city":"Tallinn","geoname_id":"588409","downloaders":"{\"size\":11356,\"mobile\":1707,\"satellite\":11,\"tor\":0,\"tor_exit_nodes\":0,\"vpn\":1106,\"relay\":0,\"proxy\":1,\"hosting\":3118,\"service\":962}","uploaders":"{\"size\":1929,\"mobile\":764,\"satellite\":3,\"tor\":0,\"tor_exit_nodes\":0,\"vpn\":235,\"relay\":0,\"proxy\":0,\"hosting\":310,\"service\":233}"},"geometry":{"type":"Point","coordinates":[24.75353,59.43696]}},{"type":"Feature","properties":{"country_code":"FRA","city":"Dunkerque","geoname_id":"3020686","downloaders":"{\"size\":11245,\"mobile\":90,\"satellite\":0,\"tor\":0,\"tor_exit_nodes\":0,\"vpn\":279,\"relay\":0,\"proxy\":21,\"hosting\":10872,\"service\":27}","uploaders":"{\"size\":156,\"mobile\":0,\"satellite\":0,\"tor\":0,\"tor_exit_nodes\":0,\"vpn\":0,\"relay\":0,\"proxy\":0,\"hosting\":155,\"service\":0}"},"geometry":{"type":"Point","coordinates":[2.37681,51.0344]}},{"type":"Feature","properties":{"country_code":"NOR","city":"Oslo","geoname_id":"3143244","downloaders":"{\"size\":11236,\"mobile\":862,\"satellite\":58,\"tor\":2,\"tor_exit_nodes\":2,\"vpn\":3573,\"relay\":0,\"proxy\":23,\"hosting\":3210,\"service\":3387}","uploaders":"{\"size\":1886,\"mobile\":175,\"satellite\":9,\"tor\":0,\"tor_exit_nodes\":0,\"vpn\":758,\"relay\":0,\"proxy\":2,\"hosting\":717,\"service\":753}"},"geometry":{"type":"Point","coordinates":[10.74609,59.91273]}},{"type":"Feature","properties":{"country_code":"FRA","city":"Amiens","geoname_id":"3037854","downloaders":"{\"size\":11095,\"mobile\":195,\"satellite\":0,\"tor\":0,\"tor_exit_nodes\":0,\"vpn\":336,\"relay\":0,\"proxy\":0,\"hosting\":10435,\"service\":62}","uploaders":"{\"size\":257,\"mobile\":4,\"satellite\":0,\"tor\":0,\"tor_exit_nodes\":0,\"vpn\":0,\"relay\":0,\"proxy\":0,\"hosting\":250,\"service\":0}"},"geometry":{"type":"Point","coordinates":[2.3,49.9]}},{"type":"Feature","properties":{"country_code":"TUR","city":"Antalya","geoname_id":"323777","downloaders":"{\"size\":11085,\"mobile\":6207,\"satellite\":0,\"tor\":0,\"tor_exit_nodes\":0,\"vpn\":0,\"relay\":0,\"proxy\":0,\"hosting\":0,\"service\":0}","uploaders":"{\"size\":48,\"mobile\":17,\"satellite\":0,\"tor\":0,\"tor_exit_nodes\":0,\"vpn\":0,\"relay\":0,\"proxy\":0,\"hosting\":0,\"service\":0}"},"geometry":{"type":"Point","coordinates":[30.69556,36.90812]}},{"type":"Feature","properties":{"country_code":"TUR","city":"Gaziantep","geoname_id":"314830","downloaders":"{\"size\":11085,\"mobile\":920,\"satellite\":0,\"tor\":0,\"tor_exit_nodes\":0,\"vpn\":0,\"relay\":0,\"proxy\":0,\"hosting\":0,\"service\":0}","uploaders":"{\"size\":16,\"mobile\":3,\"satellite\":0,\"tor\":0,\"tor_exit_nodes\":0,\"vpn\":0,\"relay\":0,\"proxy\":0,\"hosting\":0,\"service\":0}"},"geometry":{"type":"Point","coordinates":[37.3825,37.05944]}},{"type":"Feature","properties":{"country_code":"","city":"","geoname_id":"","downloaders":"{\"size\":11082,\"mobile\":0,\"satellite\":0,\"tor\":0,\"tor_exit_nodes\":0,\"vpn\":2,\"relay\":0,\"proxy\":0,\"hosting\":3,\"service\":2}","uploaders":"{\"size\":36,\"mobile\":0,\"satellite\":0,\"tor\":0,\"tor_exit_nodes\":0,\"vpn\":0,\"relay\":0,\"proxy\":0,\"hosting\":0,\"service\":0}"},"geometry":{"type":"Point","coordinates":[0.0,0.0]}},{"type":"Feature","properties":{"country_code":"KOR","city":"Hwado","geoname_id":"1897118","downloaders":"{\"size\":11080,\"mobile\":9,\"satellite\":0,\"tor\":0,\"tor_exit_nodes\":0,\"vpn\":146,\"relay\":0,\"proxy\":16,\"hosting\":0,\"service\":4}","uploaders":"{\"size\":42,\"mobile\":0,\"satellite\":0,\"tor\":0,\"tor_exit_nodes\":0,\"vpn\":0,\"relay\":0,\"proxy\":0,\"hosting\":0,\"service\":0}"},"geometry":{"type":"Point","coordinates":[127.3075,37.6525]}},{"type":"Feature","properties":{"country_code":"CHN","city":"Shenyang","geoname_id":"2034937","downloaders":"{\"size\":11042,\"mobile\":0,\"satellite\":0,\"tor\":0,\"tor_exit_nodes\":0,\"vpn\":99,\"relay\":0,\"proxy\":0,\"hosting\":1,\"service\":0}","uploaders":"{\"size\":54,\"mobile\":0,\"satellite\":0,\"tor\":0,\"tor_exit_nodes\":0,\"vpn\":0,\"relay\":0,\"proxy\":0,\"hosting\":0,\"service\":0}"},"geometry":{"type":"Point","coordinates":[123.43278,41.79222]}},{"type":"Feature","properties":{"country_code":"RUS","city":"Bryansk","geoname_id":"571476","downloaders":"{\"size\":11020,\"mobile\":14,\"satellite\":0,\"tor\":0,\"tor_exit_nodes\":0,\"vpn\":69,\"relay\":0,\"proxy\":0,\"hosting\":0,\"service\":3}","uploaders":"{\"size\":59,\"mobile\":0,\"satellite\":0,\"tor\":0,\"tor_exit_nodes\":0,\"vpn\":2,\"relay\":0,\"proxy\":0,\"hosting\":0,\"service\":0}"},"geometry":{"type":"Point","coordinates":[34.32143,53.27096]}},{"type":"Feature","properties":{"country_code":"RUS","city":"Surgut","geoname_id":"1490624","downloaders":"{\"size\":10913,\"mobile\":1193,\"satellite\":0,\"tor\":0,\"tor_exit_nodes\":0,\"vpn\":85,\"relay\":0,\"proxy\":0,\"hosting\":25,\"service\":32}","uploaders":"{\"size\":52,\"mobile\":7,\"satellite\":0,\"tor\":0,\"tor_exit_nodes\":0,\"vpn\":0,\"relay\":0,\"proxy\":0,\"hosting\":7,\"service\":0}"},"geometry":{"type":"Point","coordinates":[73.41775,61.25757]}},{"type":"Feature","properties":{"country_code":"RUS","city":"Tver","geoname_id":"480060","downloaders":"{\"size\":10912,\"mobile\":274,\"satellite\":0,\"tor\":0,\"tor_exit_nodes\":0,\"vpn\":123,\"relay\":0,\"proxy\":4,\"hosting\":9,\"service\":0}","uploaders":"{\"size\":52,\"mobile\":2,\"satellite\":0,\"tor\":0,\"tor_exit_nodes\":0,\"vpn\":1,\"relay\":0,\"proxy\":0,\"hosting\":0,\"service\":0}"},"geometry":{"type":"Point","coordinates":[35.90057,56.85836]}},{"type":"Feature","properties":{"country_code":"RUS","city":"Ulyanovsk","geoname_id":"479123","downloaders":"{\"size\":10774,\"mobile\":672,\"satellite\":0,\"tor\":0,\"tor_exit_nodes\":0,\"vpn\":77,\"relay\":0,\"proxy\":0,\"hosting\":0,\"service\":1}","uploaders":"{\"size\":44,\"mobile\":3,\"satellite\":0,\"tor\":0,\"tor_exit_nodes\":0,\"vpn\":0,\"relay\":0,\"proxy\":0,\"hosting\":0,\"service\":0}"},"geometry":{"type":"Point","coordinates":[48.38657,54.32824]}},{"type":"Feature","properties":{"country_code":"MAR","city":"Casablanca","geoname_id":"2553604","downloaders":"{\"size\":10765,\"mobile\":4793,\"satellite\":0,\"tor\":0,\"tor_exit_nodes\":0,\"vpn\":24,\"relay\":0,\"proxy\":0,\"hosting\":9,\"service\":0}","uploaders":"{\"size\":3162,\"mobile\":1169,\"satellite\":0,\"tor\":0,\"tor_exit_nodes\":0,\"vpn\":11,\"relay\":0,\"proxy\":0,\"hosting\":4,\"service\":0}"},"geometry":{"type":"Point","coordinates":[-7.61138,33.58831]}},{"type":"Feature","properties":{"country_code":"TWN","city":"Taipei","geoname_id":"1668341","downloaders":"{\"size\":10732,\"mobile\":482,\"satellite\":0,\"tor\":19,\"tor_exit_nodes\":19,\"vpn\":923,\"relay\":0,\"proxy\":7,\"hosting\":450,\"service\":320}","uploaders":"{\"size\":231,\"mobile\":20,\"satellite\":0,\"tor\":0,\"tor_exit_nodes\":0,\"vpn\":55,\"relay\":0,\"proxy\":0,\"hosting\":55,\"service\":52}"},"geometry":{"type":"Point","coordinates":[121.52639,25.05306]}},{"type":"Feature","properties":{"country_code":"RUS","city":"Odintsovo","geoname_id":"516215","downloaders":"{\"size\":10624,\"mobile\":59,\"satellite\":0,\"tor\":0,\"tor_exit_nodes\":0,\"vpn\":398,\"relay\":0,\"proxy\":0,\"hosting\":132,\"service\":0}","uploaders":"{\"size\":61,\"mobile\":1,\"satellite\":0,\"tor\":0,\"tor_exit_nodes\":0,\"vpn\":2,\"relay\":0,\"proxy\":0,\"hosting\":0,\"service\":0}"},"geometry":{"type":"Point","coordinates":[37.27716,55.66977]}},{"type":"Feature","properties":{"country_code":"RUS","city":"Orenburg","geoname_id":"515003","downloaders":"{\"size\":10497,\"mobile\":19,\"satellite\":0,\"tor\":0,\"tor_exit_nodes\":0,\"vpn\":69,\"relay\":0,\"proxy\":0,\"hosting\":4,\"service\":16}","uploaders":"{\"size\":43,\"mobile\":0,\"satellite\":0,\"tor\":0,\"tor_exit_nodes\":0,\"vpn\":0,\"relay\":0,\"proxy\":0,\"hosting\":0,\"service\":0}"},"geometry":{"type":"Point","coordinates":[55.09883,51.76712]}},{"type":"Feature","properties":{"country_code":"DEU","city":"Berlin","geoname_id":"2950159","downloaders":"{\"size\":10400,\"mobile\":3098,\"satellite\":116,\"tor\":254,\"tor_exit_nodes\":255,\"vpn\":2355,\"relay\":0,\"proxy\":2,\"hosting\":2987,\"service\":1911}","uploaders":"{\"size\":750,\"mobile\":100,\"satellite\":12,\"tor\":1,\"tor_exit_nodes\":1,\"vpn\":481,\"relay\":0,\"proxy\":0,\"hosting\":502,\"service\":414}"},"geometry":{"type":"Point","coordinates":[13.41053,52.52437]}},{"type":"Feature","properties":{"country_code":"CHN","city":"Ningbo","geoname_id":"1799397","downloaders":"{\"size\":10365,\"mobile\":0,\"satellite\":0,\"tor\":0,\"tor_exit_nodes\":0,\"vpn\":199,\"relay\":0,\"proxy\":0,\"hosting\":509,\"service\":0}","uploaders":"{\"size\":137,\"mobile\":0,\"satellite\":0,\"tor\":0,\"tor_exit_nodes\":0,\"vpn\":0,\"relay\":0,\"proxy\":0,\"hosting\":1,\"service\":0}"},"geometry":{"type":"Point","coordinates":[121.54945,29.87819]}},{"type":"Feature","properties":{"country_code":"KOR","city":"Jeonju","geoname_id":"1845457","downloaders":"{\"size\":10060,\"mobile\":25,\"satellite\":0,\"tor\":0,\"tor_exit_nodes\":0,\"vpn\":100,\"relay\":0,\"proxy\":0,\"hosting\":0,\"service\":10}","uploaders":"{\"size\":46,\"mobile\":0,\"satellite\":0,\"tor\":0,\"tor_exit_nodes\":0,\"vpn\":0,\"relay\":0,\"proxy\":0,\"hosting\":0,\"service\":0}"},"geometry":{"type":"Point","coordinates":[127.14889,35.82194]}},{"type":"Feature","properties":{"country_code":"KOR","city":"Pyeongtaek","geoname_id":"1838343","downloaders":"{\"size\":9975,\"mobile\":15,\"satellite\":0,\"tor\":0,\"tor_exit_nodes\":0,\"vpn\":61,\"relay\":0,\"proxy\":3,\"hosting\":0,\"service\":10}","uploaders":"{\"size\":56,\"mobile\":0,\"satellite\":0,\"tor\":0,\"tor_exit_nodes\":0,\"vpn\":2,\"relay\":0,\"proxy\":0,\"hosting\":0,\"service\":0}"},"geometry":{"type":"Point","coordinates":[127.08889,36.99472]}},{"type":"Feature","properties":{"country_code":"DNK","city":"Copenhagen","geoname_id":"2618425","downloaders":"{\"size\":9894,\"mobile\":2282,\"satellite\":0,\"tor\":8,\"tor_exit_nodes\":8,\"vpn\":1889,\"relay\":0,\"proxy\":0,\"hosting\":1915,\"service\":1342}","uploaders":"{\"size\":1863,\"mobile\":808,\"satellite\":0,\"tor\":0,\"tor_exit_nodes\":0,\"vpn\":455,\"relay\":0,\"proxy\":0,\"hosting\":435,\"service\":381}"},"geometry":{"type":"Point","coordinates":[12.56553,55.67594]}},{"type":"Feature","properties":{"country_code":"ESP","city":"Barcelona","geoname_id":"3128760","downloaders":"{\"size\":9883,\"mobile\":3595,\"satellite\":0,\"tor\":0,\"tor_exit_nodes\":0,\"vpn\":1405,\"relay\":0,\"proxy\":2,\"hosting\":1349,\"service\":1328}","uploaders":"{\"size\":1153,\"mobile\":390,\"satellite\":0,\"tor\":0,\"tor_exit_nodes\":0,\"vpn\":380,\"relay\":0,\"proxy\":0,\"hosting\":380,\"service\":374}"},"geometry":{"type":"Point","coordinates":[2.15899,41.38879]}},{"type":"Feature","properties":{"country_code":"RUS","city":"Penza","geoname_id":"511565","downloaders":"{\"size\":9842,\"mobile\":1110,\"satellite\":0,\"tor\":0,\"tor_exit_nodes\":0,\"vpn\":106,\"relay\":0,\"proxy\":0,\"hosting\":0,\"service\":5}","uploaders":"{\"size\":42,\"mobile\":4,\"satellite\":0,\"tor\":0,\"tor_exit_nodes\":0,\"vpn\":0,\"relay\":0,\"proxy\":0,\"hosting\":0,\"service\":0}"},"geometry":{"type":"Point","coordinates":[45.01075,53.19568]}},{"type":"Feature","properties":{"country_code":"RUS","city":"Ryazan’","geoname_id":"500096","downloaders":"{\"size\":9764,\"mobile\":268,\"satellite\":0,\"tor\":0,\"tor_exit_nodes\":0,\"vpn\":251,\"relay\":0,\"proxy\":0,\"hosting\":0,\"service\":74}","uploaders":"{\"size\":47,\"mobile\":2,\"satellite\":0,\"tor\":0,\"tor_exit_nodes\":0,\"vpn\":0,\"relay\":0,\"proxy\":0,\"hosting\":0,\"service\":0}"},"geometry":{"type":"Point","coordinates":[39.70415,54.62696]}},{"type":"Feature","properties":{"country_code":"KOR","city":"Wŏnju","geoname_id":"1833105","downloaders":"{\"size\":9697,\"mobile\":1,\"satellite\":0,\"tor\":0,\"tor_exit_nodes\":0,\"vpn\":141,\"relay\":0,\"proxy\":2,\"hosting\":0,\"service\":44}","uploaders":"{\"size\":46,\"mobile\":0,\"satellite\":0,\"tor\":0,\"tor_exit_nodes\":0,\"vpn\":1,\"relay\":0,\"proxy\":0,\"hosting\":0,\"service\":1}"},"geometry":{"type":"Point","coordinates":[127.94528,37.35139]}},{"type":"Feature","properties":{"country_code":"RUS","city":"Khabarovsk","geoname_id":"2022890","downloaders":"{\"size\":9678,\"mobile\":634,\"satellite\":12,\"tor\":0,\"tor_exit_nodes\":0,\"vpn\":179,\"relay\":0,\"proxy\":0,\"hosting\":22,\"service\":79}","uploaders":"{\"size\":58,\"mobile\":1,\"satellite\":0,\"tor\":0,\"tor_exit_nodes\":0,\"vpn\":3,\"relay\":0,\"proxy\":0,\"hosting\":0,\"service\":0}"},"geometry":{"type":"Point","coordinates":[135.0971,48.46204]}},{"type":"Feature","properties":{"country_code":"RUS","city":"Kaluga","geoname_id":"553915","downloaders":"{\"size\":9672,\"mobile\":99,\"satellite\":0,\"tor\":0,\"tor_exit_nodes\":0,\"vpn\":201,\"relay\":0,\"proxy\":0,\"hosting\":1,\"service\":3}","uploaders":"{\"size\":33,\"mobile\":0,\"satellite\":0,\"tor\":0,\"tor_exit_nodes\":0,\"vpn\":0,\"relay\":0,\"proxy\":0,\"hosting\":0,\"service\":0}"},"geometry":{"type":"Point","coordinates":[36.27,54.53063]}},{"type":"Feature","properties":{"country_code":"RUS","city":"Kaliningrad","geoname_id":"554234","downloaders":"{\"size\":9628,\"mobile\":40,\"satellite\":0,\"tor\":0,\"tor_exit_nodes\":0,\"vpn\":8,\"relay\":0,\"proxy\":0,\"hosting\":0,\"service\":0}","uploaders":"{\"size\":47,\"mobile\":0,\"satellite\":0,\"tor\":0,\"tor_exit_nodes\":0,\"vpn\":0,\"relay\":0,\"proxy\":0,\"hosting\":0,\"service\":0}"},"geometry":{"type":"Point","coordinates":[20.51102,54.70639]}},{"type":"Feature","properties":{"country_code":"RUS","city":"Novokuznetsk","geoname_id":"1496990","downloaders":"{\"size\":9526,\"mobile\":9,\"satellite\":0,\"tor\":0,\"tor_exit_nodes\":0,\"vpn\":78,\"relay\":0,\"proxy\":0,\"hosting\":0,\"service\":3}","uploaders":"{\"size\":46,\"mobile\":0,\"satellite\":0,\"tor\":0,\"tor_exit_nodes\":0,\"vpn\":0,\"relay\":0,\"proxy\":0,\"hosting\":0,\"service\":0}"},"geometry":{"type":"Point","coordinates":[87.13599,53.75752]}},{"type":"Feature","properties":{"country_code":"AUS","city":"Perth","geoname_id":"2063523","downloaders":"{\"size\":9451,\"mobile\":684,\"satellite\":70,\"tor\":0,\"tor_exit_nodes\":0,\"vpn\":1983,\"relay\":0,\"proxy\":5,\"hosting\":2176,\"service\":1837}","uploaders":"{\"size\":2471,\"mobile\":237,\"satellite\":23,\"tor\":0,\"tor_exit_nodes\":0,\"vpn\":610,\"relay\":0,\"proxy\":0,\"hosting\":690,\"service\":604}"},"geometry":{"type":"Point","coordinates":[115.8614,-31.95224]}},{"type":"Feature","properties":{"country_code":"GBR","city":"Manchester","geoname_id":"2643123","downloaders":"{\"size\":9381,\"mobile\":1366,\"satellite\":0,\"tor\":0,\"tor_exit_nodes\":0,\"vpn\":5249,\"relay\":1,\"proxy\":0,\"hosting\":4797,\"service\":5013}","uploaders":"{\"size\":2899,\"mobile\":517,\"satellite\":0,\"tor\":0,\"tor_exit_nodes\":0,\"vpn\":1863,\"relay\":0,\"proxy\":0,\"hosting\":1775,\"service\":1802}"},"geometry":{"type":"Point","coordinates":[-2.23743,53.48095]}},{"type":"Feature","properties":{"country_code":"PRT","city":"Almada","geoname_id":"2271961","downloaders":"{\"size\":9224,\"mobile\":569,\"satellite\":0,\"tor\":0,\"tor_exit_nodes\":0,\"vpn\":47,\"relay\":0,\"proxy\":0,\"hosting\":0,\"service\":0}","uploaders":"{\"size\":3451,\"mobile\":191,\"satellite\":0,\"tor\":0,\"tor_exit_nodes\":0,\"vpn\":7,\"relay\":0,\"proxy\":0,\"hosting\":0,\"service\":0}"},"geometry":{"type":"Point","coordinates":[-9.1569,38.67902]}},{"type":"Feature","properties":{"country_code":"POL","city":"Ursynów","geoname_id":"6545326","downloaders":"{\"size\":9184,\"mobile\":0,\"satellite\":0,\"tor\":0,\"tor_exit_nodes\":0,\"vpn\":342,\"relay\":0,\"proxy\":1,\"hosting\":347,\"service\":341}","uploaders":"{\"size\":255,\"mobile\":0,\"satellite\":0,\"tor\":0,\"tor_exit_nodes\":0,\"vpn\":21,\"relay\":0,\"proxy\":0,\"hosting\":21,\"service\":21}"},"geometry":{"type":"Point","coordinates":[21.0068,52.1552]}},{"type":"Feature","properties":{"country_code":"RUS","city":"Tolyatti","geoname_id":"482283","downloaders":"{\"size\":9109,\"mobile\":1,\"satellite\":0,\"tor\":0,\"tor_exit_nodes\":0,\"vpn\":66,\"relay\":0,\"proxy\":0,\"hosting\":0,\"service\":7}","uploaders":"{\"size\":41,\"mobile\":0,\"satellite\":0,\"tor\":0,\"tor_exit_nodes\":0,\"vpn\":0,\"relay\":0,\"proxy\":0,\"hosting\":0,\"service\":0}"},"geometry":{"type":"Point","coordinates":[49.3461,53.5303]}},{"type":"Feature","properties":{"country_code":"AUT","city":"Vienna","geoname_id":"2761369","downloaders":"{\"size\":9105,\"mobile\":1696,\"satellite\":12,\"tor\":4,\"tor_exit_nodes\":4,\"vpn\":2090,\"relay\":0,\"proxy\":24,\"hosting\":2411,\"service\":1955}","uploaders":"{\"size\":1466,\"mobile\":481,\"satellite\":0,\"tor\":0,\"tor_exit_nodes\":0,\"vpn\":424,\"relay\":0,\"proxy\":0,\"hosting\":438,\"service\":422}"},"geometry":{"type":"Point","coordinates":[16.37208,48.20849]}},{"type":"Feature","properties":{"country_code":"KOR","city":"Munsan","geoname_id":"1840862","downloaders":"{\"size\":9093,\"mobile\":3,\"satellite\":0,\"tor\":0,\"tor_exit_nodes\":0,\"vpn\":58,\"relay\":0,\"proxy\":1,\"hosting\":0,\"service\":1}","uploaders":"{\"size\":55,\"mobile\":0,\"satellite\":0,\"tor\":0,\"tor_exit_nodes\":0,\"vpn\":2,\"relay\":0,\"proxy\":0,\"hosting\":0,\"service\":1}"},"geometry":{"type":"Point","coordinates":[126.785,37.85944]}},{"type":"Feature","properties":{"country_code":"JPN","city":"Osaka","geoname_id":"1853909","downloaders":"{\"size\":8973,\"mobile\":630,\"satellite\":0,\"tor\":0,\"tor_exit_nodes\":0,\"vpn\":949,\"relay\":0,\"proxy\":0,\"hosting\":986,\"service\":797}","uploaders":"{\"size\":150,\"mobile\":29,\"satellite\":0,\"tor\":0,\"tor_exit_nodes\":0,\"vpn\":70,\"relay\":0,\"proxy\":0,\"hosting\":72,\"service\":67}"},"geometry":{"type":"Point","coordinates":[135.50107,34.69379]}},{"type":"Feature","properties":{"country_code":"RUS","city":"Izhevsk","geoname_id":"554840","downloaders":"{\"size\":8952,\"mobile\":1273,\"satellite\":0,\"tor\":0,\"tor_exit_nodes\":0,\"vpn\":66,\"relay\":0,\"proxy\":0,\"hosting\":0,\"service\":0}","uploaders":"{\"size\":37,\"mobile\":4,\"satellite\":0,\"tor\":0,\"tor_exit_nodes\":0,\"vpn\":0,\"relay\":0,\"proxy\":0,\"hosting\":0,\"service\":0}"},"geometry":{"type":"Point","coordinates":[53.19862,56.85225]}},{"type":"Feature","properties":{"country_code":"KOR","city":"Cheonan","geoname_id":"1845759","downloaders":"{\"size\":8907,\"mobile\":1,\"satellite\":0,\"tor\":0,\"tor_exit_nodes\":0,\"vpn\":40,\"relay\":0,\"proxy\":0,\"hosting\":0,\"service\":0}","uploaders":"{\"size\":36,\"mobile\":0,\"satellite\":0,\"tor\":0,\"tor_exit_nodes\":0,\"vpn\":0,\"relay\":0,\"proxy\":0,\"hosting\":0,\"service\":0}"},"geometry":{"type":"Point","coordinates":[127.1522,36.8065]}},{"type":"Feature","properties":{"country_code":"TZA","city":"Zanzibar","geoname_id":"148730","downloaders":"{\"size\":8848,\"mobile\":8632,\"satellite\":0,\"tor\":0,\"tor_exit_nodes\":0,\"vpn\":32,\"relay\":0,\"proxy\":0,\"hosting\":0,\"service\":0}","uploaders":"{\"size\":1685,\"mobile\":1611,\"satellite\":0,\"tor\":0,\"tor_exit_nodes\":0,\"vpn\":1,\"relay\":0,\"proxy\":0,\"hosting\":0,\"service\":0}"},"geometry":{"type":"Point","coordinates":[39.19793,-6.16394]}},{"type":"Feature","properties":{"country_code":"RUS","city":"Lyubertsy","geoname_id":"532615","downloaders":"{\"size\":8834,\"mobile\":15,\"satellite\":0,\"tor\":0,\"tor_exit_nodes\":0,\"vpn\":149,\"relay\":0,\"proxy\":1,\"hosting\":750,\"service\":2}","uploaders":"{\"size\":51,\"mobile\":0,\"satellite\":0,\"tor\":0,\"tor_exit_nodes\":0,\"vpn\":1,\"relay\":0,\"proxy\":0,\"hosting\":9,\"service\":0}"},"geometry":{"type":"Point","coordinates":[37.89322,55.67719]}},{"type":"Feature","properties":{"country_code":"USA","city":"San Jose","geoname_id":"5392171","downloaders":"{\"size\":8827,\"mobile\":88,\"satellite\":91,\"tor\":176,\"tor_exit_nodes\":99,\"vpn\":5269,\"relay\":4,\"proxy\":22,\"hosting\":6562,\"service\":5190}","uploaders":"{\"size\":1688,\"mobile\":13,\"satellite\":20,\"tor\":0,\"tor_exit_nodes\":0,\"vpn\":1394,\"relay\":2,\"proxy\":0,\"hosting\":1503,\"service\":1391}"},"geometry":{"type":"Point","coordinates":[-121.7562,37.2974]}},{"type":"Feature","properties":{"country_code":"NLD","city":"Haarlem","geoname_id":"2755003","downloaders":"{\"size\":8723,\"mobile\":4,\"satellite\":0,\"tor\":0,\"tor_exit_nodes\":0,\"vpn\":6584,\"relay\":0,\"proxy\":0,\"hosting\":7623,\"service\":1545}","uploaders":"{\"size\":348,\"mobile\":4,\"satellite\":0,\"tor\":0,\"tor_exit_nodes\":0,\"vpn\":258,\"relay\":0,\"proxy\":0,\"hosting\":264,\"service\":235}"},"geometry":{"type":"Point","coordinates":[4.63683,52.38084]}},{"type":"Feature","properties":{"country_code":"RUS","city":"Vladimir","geoname_id":"473247","downloaders":"{\"size\":8720,\"mobile\":351,\"satellite\":0,\"tor\":0,\"tor_exit_nodes\":0,\"vpn\":107,\"relay\":0,\"proxy\":0,\"hosting\":0,\"service\":25}","uploaders":"{\"size\":30,\"mobile\":1,\"satellite\":0,\"tor\":0,\"tor_exit_nodes\":0,\"vpn\":2,\"relay\":0,\"proxy\":0,\"hosting\":0,\"service\":0}"},"geometry":{"type":"Point","coordinates":[40.39976,56.13854]}},{"type":"Feature","properties":{"country_code":"ARG","city":"Buenos Aires","geoname_id":"3435910","downloaders":"{\"size\":8627,\"mobile\":884,\"satellite\":161,\"tor\":0,\"tor_exit_nodes\":0,\"vpn\":127,\"relay\":0,\"proxy\":0,\"hosting\":195,\"service\":98}","uploaders":"{\"size\":715,\"mobile\":76,\"satellite\":8,\"tor\":0,\"tor_exit_nodes\":0,\"vpn\":24,\"relay\":0,\"proxy\":0,\"hosting\":32,\"service\":22}"},"geometry":{"type":"Point","coordinates":[-58.37723,-34.61315]}},{"type":"Feature","properties":{"country_code":"RUS","city":"Vladivostok","geoname_id":"2013348","downloaders":"{\"size\":8521,\"mobile\":103,\"satellite\":0,\"tor\":0,\"tor_exit_nodes\":0,\"vpn\":2120,\"relay\":0,\"proxy\":0,\"hosting\":61,\"service\":1364}","uploaders":"{\"size\":45,\"mobile\":0,\"satellite\":0,\"tor\":0,\"tor_exit_nodes\":0,\"vpn\":9,\"relay\":0,\"proxy\":0,\"hosting\":0,\"service\":7}"},"geometry":{"type":"Point","coordinates":[131.87353,43.10562]}},{"type":"Feature","properties":{"country_code":"BRA","city":"Rio de Janeiro","geoname_id":"3451190","downloaders":"{\"size\":8475,\"mobile\":790,\"satellite\":0,\"tor\":0,\"tor_exit_nodes\":0,\"vpn\":27,\"relay\":0,\"proxy\":1,\"hosting\":116,\"service\":2}","uploaders":"{\"size\":725,\"mobile\":109,\"satellite\":0,\"tor\":0,\"tor_exit_nodes\":0,\"vpn\":5,\"relay\":0,\"proxy\":0,\"hosting\":11,\"service\":1}"},"geometry":{"type":"Point","coordinates":[-43.18223,-22.90642]}},{"type":"Feature","properties":{"country_code":"KOR","city":"Asan","geoname_id":"1839726","downloaders":"{\"size\":8411,\"mobile\":26,\"satellite\":0,\"tor\":0,\"tor_exit_nodes\":0,\"vpn\":65,\"relay\":0,\"proxy\":1,\"hosting\":0,\"service\":7}","uploaders":"{\"size\":35,\"mobile\":0,\"satellite\":0,\"tor\":0,\"tor_exit_nodes\":0,\"vpn\":1,\"relay\":0,\"proxy\":0,\"hosting\":0,\"service\":0}"},"geometry":{"type":"Point","coordinates":[127.00417,36.78361]}},{"type":"Feature","properties":{"country_code":"RUS","city":"Stavropol’","geoname_id":"487846","downloaders":"{\"size\":8326,\"mobile\":2349,\"satellite\":0,\"tor\":0,\"tor_exit_nodes\":0,\"vpn\":43,\"relay\":0,\"proxy\":0,\"hosting\":0,\"service\":6}","uploaders":"{\"size\":25,\"mobile\":9,\"satellite\":0,\"tor\":0,\"tor_exit_nodes\":0,\"vpn\":0,\"relay\":0,\"proxy\":0,\"hosting\":0,\"service\":0}"},"geometry":{"type":"Point","coordinates":[41.9642,45.03442]}},{"type":"Feature","properties":{"country_code":"NLD","city":"Rotterdam","geoname_id":"2747891","downloaders":"{\"size\":8308,\"mobile\":1432,\"satellite\":0,\"tor\":0,\"tor_exit_nodes\":0,\"vpn\":452,\"relay\":12,\"proxy\":0,\"hosting\":625,\"service\":353}","uploaders":"{\"size\":1595,\"mobile\":592,\"satellite\":0,\"tor\":0,\"tor_exit_nodes\":0,\"vpn\":112,\"relay\":5,\"proxy\":0,\"hosting\":113,\"service\":109}"},"geometry":{"type":"Point","coordinates":[4.47917,51.9225]}},{"type":"Feature","properties":{"country_code":"FRA","city":"Marseille","geoname_id":"2995469","downloaders":"{\"size\":8295,\"mobile\":1443,\"satellite\":0,\"tor\":0,\"tor_exit_nodes\":0,\"vpn\":3314,\"relay\":0,\"proxy\":0,\"hosting\":3501,\"service\":3307}","uploaders":"{\"size\":1036,\"mobile\":148,\"satellite\":0,\"tor\":0,\"tor_exit_nodes\":0,\"vpn\":750,\"relay\":0,\"proxy\":0,\"hosting\":739,\"service\":750}"},"geometry":{"type":"Point","coordinates":[5.38107,43.29695]}},{"type":"Feature","properties":{"country_code":"GRC","city":"Athens","geoname_id":"264371","downloaders":"{\"size\":8256,\"mobile\":3268,\"satellite\":49,\"tor\":0,\"tor_exit_nodes\":0,\"vpn\":1316,\"relay\":0,\"proxy\":1,\"hosting\":1532,\"service\":1280}","uploaders":"{\"size\":2358,\"mobile\":922,\"satellite\":23,\"tor\":0,\"tor_exit_nodes\":0,\"vpn\":455,\"relay\":0,\"proxy\":0,\"hosting\":542,\"service\":454}"},"geometry":{"type":"Point","coordinates":[23.72784,37.98376]}},{"type":"Feature","properties":{"country_code":"USA","city":"Denver","geoname_id":"5419384","downloaders":"{\"size\":8247,\"mobile\":379,\"satellite\":52,\"tor\":0,\"tor_exit_nodes\":0,\"vpn\":5926,\"relay\":6,\"proxy\":0,\"hosting\":5285,\"service\":5666}","uploaders":"{\"size\":1862,\"mobile\":66,\"satellite\":17,\"tor\":0,\"tor_exit_nodes\":0,\"vpn\":1587,\"relay\":0,\"proxy\":0,\"hosting\":1458,\"service\":1521}"},"geometry":{"type":"Point","coordinates":[-104.9847,39.73915]}},{"type":"Feature","properties":{"country_code":"IRQ","city":"Baghdad","geoname_id":"98182","downloaders":"{\"size\":8236,\"mobile\":113,\"satellite\":0,\"tor\":0,\"tor_exit_nodes\":0,\"vpn\":21,\"relay\":0,\"proxy\":0,\"hosting\":5,\"service\":0}","uploaders":"{\"size\":63,\"mobile\":9,\"satellite\":0,\"tor\":0,\"tor_exit_nodes\":0,\"vpn\":0,\"relay\":0,\"proxy\":0,\"hosting\":0,\"service\":0}"},"geometry":{"type":"Point","coordinates":[44.40088,33.34058]}},{"type":"Feature","properties":{"country_code":"TUR","city":"Kayseri","geoname_id":"308464","downloaders":"{\"size\":8219,\"mobile\":1398,\"satellite\":0,\"tor\":0,\"tor_exit_nodes\":0,\"vpn\":0,\"relay\":0,\"proxy\":0,\"hosting\":0,\"service\":0}","uploaders":"{\"size\":17,\"mobile\":8,\"satellite\":0,\"tor\":0,\"tor_exit_nodes\":0,\"vpn\":0,\"relay\":0,\"proxy\":0,\"hosting\":0,\"service\":0}"},"geometry":{"type":"Point","coordinates":[35.48528,38.73222]}},{"type":"Feature","properties":{"country_code":"RUS","city":"Ivanovo","geoname_id":"555312","downloaders":"{\"size\":8183,\"mobile\":816,\"satellite\":0,\"tor\":0,\"tor_exit_nodes\":0,\"vpn\":233,\"relay\":0,\"proxy\":0,\"hosting\":7,\"service\":16}","uploaders":"{\"size\":41,\"mobile\":6,\"satellite\":0,\"tor\":0,\"tor_exit_nodes\":0,\"vpn\":2,\"relay\":0,\"proxy\":0,\"hosting\":0,\"service\":0}"},"geometry":{"type":"Point","coordinates":[40.97257,56.99988]}},{"type":"Feature","properties":{"country_code":"RUS","city":"Korolev","geoname_id":"554233","downloaders":"{\"size\":8163,\"mobile\":0,\"satellite\":0,\"tor\":0,\"tor_exit_nodes\":0,\"vpn\":204,\"relay\":0,\"proxy\":0,\"hosting\":454,\"service\":2}","uploaders":"{\"size\":36,\"mobile\":0,\"satellite\":0,\"tor\":0,\"tor_exit_nodes\":0,\"vpn\":0,\"relay\":0,\"proxy\":0,\"hosting\":3,\"service\":0}"},"geometry":{"type":"Point","coordinates":[37.82556,55.91417]}},{"type":"Feature","properties":{"country_code":"SAU","city":"Riyadh","geoname_id":"108410","downloaders":"{\"size\":8147,\"mobile\":2477,\"satellite\":0,\"tor\":0,\"tor_exit_nodes\":0,\"vpn\":16,\"relay\":0,\"proxy\":0,\"hosting\":57,\"service\":1}","uploaders":"{\"size\":2091,\"mobile\":848,\"satellite\":0,\"tor\":0,\"tor_exit_nodes\":0,\"vpn\":5,\"relay\":0,\"proxy\":0,\"hosting\":31,\"service\":0}"},"geometry":{"type":"Point","coordinates":[46.72185,24.68773]}},{"type":"Feature","properties":{"country_code":"CHN","city":"Quanzhou","geoname_id":"1797353","downloaders":"{\"size\":8117,\"mobile\":1,\"satellite\":0,\"tor\":0,\"tor_exit_nodes\":0,\"vpn\":93,\"relay\":0,\"proxy\":0,\"hosting\":0,\"service\":0}","uploaders":"{\"size\":11,\"mobile\":0,\"satellite\":0,\"tor\":0,\"tor_exit_nodes\":0,\"vpn\":1,\"relay\":0,\"proxy\":0,\"hosting\":0,\"service\":0}"},"geometry":{"type":"Point","coordinates":[118.58583,24.91389]}},{"type":"Feature","properties":{"country_code":"TWN","city":"Banqiao","geoname_id":"1670029","downloaders":"{\"size\":8107,\"mobile\":39,\"satellite\":0,\"tor\":0,\"tor_exit_nodes\":0,\"vpn\":516,\"relay\":0,\"proxy\":0,\"hosting\":10,\"service\":0}","uploaders":"{\"size\":91,\"mobile\":0,\"satellite\":0,\"tor\":0,\"tor_exit_nodes\":0,\"vpn\":8,\"relay\":0,\"proxy\":0,\"hosting\":0,\"service\":0}"},"geometry":{"type":"Point","coordinates":[121.46719,25.01427]}},{"type":"Feature","properties":{"country_code":"SWE","city":"Göteborg","geoname_id":"2711537","downloaders":"{\"size\":8073,\"mobile\":798,\"satellite\":0,\"tor\":5,\"tor_exit_nodes\":5,\"vpn\":1998,\"relay\":0,\"proxy\":0,\"hosting\":1505,\"service\":1918}","uploaders":"{\"size\":923,\"mobile\":150,\"satellite\":0,\"tor\":0,\"tor_exit_nodes\":0,\"vpn\":353,\"relay\":0,\"proxy\":0,\"hosting\":321,\"service\":346}"},"geometry":{"type":"Point","coordinates":[11.96679,57.70716]}},{"type":"Feature","properties":{"country_code":"TUR","city":"Adana","geoname_id":"325363","downloaders":"{\"size\":8044,\"mobile\":910,\"satellite\":0,\"tor\":0,\"tor_exit_nodes\":0,\"vpn\":8,\"relay\":0,\"proxy\":0,\"hosting\":0,\"service\":0}","uploaders":"{\"size\":24,\"mobile\":0,\"satellite\":0,\"tor\":0,\"tor_exit_nodes\":0,\"vpn\":2,\"relay\":0,\"proxy\":0,\"hosting\":0,\"service\":0}"},"geometry":{"type":"Point","coordinates":[35.32531,36.98615]}},{"type":"Feature","properties":{"country_code":"ZWE","city":"Harare","geoname_id":"890299","downloaders":"{\"size\":7966,\"mobile\":349,\"satellite\":2191,\"tor\":0,\"tor_exit_nodes\":0,\"vpn\":130,\"relay\":0,\"proxy\":0,\"hosting\":150,\"service\":9}","uploaders":"{\"size\":3644,\"mobile\":92,\"satellite\":1224,\"tor\":0,\"tor_exit_nodes\":0,\"vpn\":63,\"relay\":0,\"proxy\":0,\"hosting\":46,\"service\":5}"},"geometry":{"type":"Point","coordinates":[31.05337,-17.82772]}},{"type":"Feature","properties":{"country_code":"THA","city":"Bangkok","geoname_id":"1609350","downloaders":"{\"size\":7865,\"mobile\":2474,\"satellite\":0,\"tor\":0,\"tor_exit_nodes\":0,\"vpn\":370,\"relay\":0,\"proxy\":21,\"hosting\":732,\"service\":280}","uploaders":"{\"size\":694,\"mobile\":284,\"satellite\":0,\"tor\":0,\"tor_exit_nodes\":0,\"vpn\":92,\"relay\":0,\"proxy\":2,\"hosting\":107,\"service\":92}"},"geometry":{"type":"Point","coordinates":[100.50144,13.75398]}},{"type":"Feature","properties":{"country_code":"SVK","city":"Bratislava","geoname_id":"3060972","downloaders":"{\"size\":7834,\"mobile\":544,\"satellite\":1,\"tor\":0,\"tor_exit_nodes\":0,\"vpn\":843,\"relay\":0,\"proxy\":11,\"hosting\":916,\"service\":694}","uploaders":"{\"size\":378,\"mobile\":10,\"satellite\":0,\"tor\":0,\"tor_exit_nodes\":0,\"vpn\":113,\"relay\":0,\"proxy\":0,\"hosting\":114,\"service\":109}"},"geometry":{"type":"Point","coordinates":[17.10674,48.14816]}},{"type":"Feature","properties":{"country_code":"PRT","city":"Queluz","geoname_id":"2264268","downloaders":"{\"size\":7772,\"mobile\":369,\"satellite\":0,\"tor\":0,\"tor_exit_nodes\":0,\"vpn\":32,\"relay\":0,\"proxy\":0,\"hosting\":0,\"service\":0}","uploaders":"{\"size\":2603,\"mobile\":145,\"satellite\":0,\"tor\":0,\"tor_exit_nodes\":0,\"vpn\":3,\"relay\":0,\"proxy\":0,\"hosting\":0,\"service\":0}"},"geometry":{"type":"Point","coordinates":[-9.25451,38.75657]}},{"type":"Feature","properties":{"country_code":"JPN","city":"Yokohama","geoname_id":"1848354","downloaders":"{\"size\":7743,\"mobile\":329,\"satellite\":0,\"tor\":0,\"tor_exit_nodes\":0,\"vpn\":395,\"relay\":0,\"proxy\":3,\"hosting\":67,\"service\":248}","uploaders":"{\"size\":62,\"mobile\":7,\"satellite\":0,\"tor\":0,\"tor_exit_nodes\":0,\"vpn\":6,\"relay\":0,\"proxy\":0,\"hosting\":0,\"service\":4}"},"geometry":{"type":"Point","coordinates":[139.65,35.43333]}},{"type":"Feature","properties":{"country_code":"MKD","city":"Skopje","geoname_id":"785842","downloaders":"{\"size\":7735,\"mobile\":737,\"satellite\":0,\"tor\":0,\"tor_exit_nodes\":0,\"vpn\":219,\"relay\":0,\"proxy\":2,\"hosting\":46,\"service\":113}","uploaders":"{\"size\":3159,\"mobile\":376,\"satellite\":0,\"tor\":0,\"tor_exit_nodes\":0,\"vpn\":53,\"relay\":0,\"proxy\":0,\"hosting\":10,\"service\":16}"},"geometry":{"type":"Point","coordinates":[21.43141,41.99646]}},{"type":"Feature","properties":{"country_code":"RUS","city":"Kursk","geoname_id":"538560","downloaders":"{\"size\":7663,\"mobile\":80,\"satellite\":0,\"tor\":0,\"tor_exit_nodes\":0,\"vpn\":32,\"relay\":0,\"proxy\":0,\"hosting\":0,\"service\":0}","uploaders":"{\"size\":28,\"mobile\":2,\"satellite\":0,\"tor\":0,\"tor_exit_nodes\":0,\"vpn\":0,\"relay\":0,\"proxy\":0,\"hosting\":0,\"service\":0}"},"geometry":{"type":"Point","coordinates":[36.18457,51.72689]}},{"type":"Feature","properties":{"country_code":"TUR","city":"Mersin","geoname_id":"304531","downloaders":"{\"size\":7630,\"mobile\":2287,\"satellite\":0,\"tor\":0,\"tor_exit_nodes\":0,\"vpn\":0,\"relay\":0,\"proxy\":0,\"hosting\":0,\"service\":0}","uploaders":"{\"size\":60,\"mobile\":8,\"satellite\":0,\"tor\":0,\"tor_exit_nodes\":0,\"vpn\":0,\"relay\":0,\"proxy\":0,\"hosting\":0,\"service\":0}"},"geometry":{"type":"Point","coordinates":[34.63886,36.81196]}},{"type":"Feature","properties":{"country_code":"ISR","city":"Bat Yam","geoname_id":"295548","downloaders":"{\"size\":7627,\"mobile\":2835,\"satellite\":0,\"tor\":0,\"tor_exit_nodes\":0,\"vpn\":5,\"relay\":0,\"proxy\":0,\"hosting\":0,\"service\":0}","uploaders":"{\"size\":2499,\"mobile\":950,\"satellite\":0,\"tor\":0,\"tor_exit_nodes\":0,\"vpn\":3,\"relay\":0,\"proxy\":0,\"hosting\":0,\"service\":0}"},"geometry":{"type":"Point","coordinates":[34.75185,32.02379]}},{"type":"Feature","properties":{"country_code":"CHL","city":"Santiago","geoname_id":"3871336","downloaders":"{\"size\":7612,\"mobile\":1757,\"satellite\":49,\"tor\":0,\"tor_exit_nodes\":0,\"vpn\":195,\"relay\":0,\"proxy\":0,\"hosting\":490,\"service\":187}","uploaders":"{\"size\":1069,\"mobile\":378,\"satellite\":5,\"tor\":0,\"tor_exit_nodes\":0,\"vpn\":63,\"relay\":0,\"proxy\":0,\"hosting\":91,\"service\":63}"},"geometry":{"type":"Point","coordinates":[-70.64827,-33.45694]}},{"type":"Feature","properties":{"country_code":"NLD","city":"Soest","geoname_id":"2747034","downloaders":"{\"size\":7580,\"mobile\":0,\"satellite\":0,\"tor\":0,\"tor_exit_nodes\":0,\"vpn\":833,\"relay\":0,\"proxy\":9,\"hosting\":7442,\"service\":621}","uploaders":"{\"size\":113,\"mobile\":0,\"satellite\":0,\"tor\":0,\"tor_exit_nodes\":0,\"vpn\":20,\"relay\":0,\"proxy\":0,\"hosting\":96,\"service\":12}"},"geometry":{"type":"Point","coordinates":[5.29167,52.17333]}},{"type":"Feature","properties":{"country_code":"CHN","city":"Chengdu","geoname_id":"1815286","downloaders":"{\"size\":7571,\"mobile\":12,\"satellite\":0,\"tor\":0,\"tor_exit_nodes\":0,\"vpn\":407,\"relay\":0,\"proxy\":0,\"hosting\":290,\"service\":0}","uploaders":"{\"size\":124,\"mobile\":0,\"satellite\":0,\"tor\":0,\"tor_exit_nodes\":0,\"vpn\":7,\"relay\":0,\"proxy\":0,\"hosting\":0,\"service\":0}"},"geometry":{"type":"Point","coordinates":[104.06667,30.66667]}},{"type":"Feature","properties":{"country_code":"PAK","city":"Lahore","geoname_id":"1172451","downloaders":"{\"size\":7531,\"mobile\":146,\"satellite\":0,\"tor\":0,\"tor_exit_nodes\":0,\"vpn\":26,\"relay\":0,\"proxy\":0,\"hosting\":24,\"service\":0}","uploaders":"{\"size\":315,\"mobile\":46,\"satellite\":0,\"tor\":0,\"tor_exit_nodes\":0,\"vpn\":0,\"relay\":0,\"proxy\":0,\"hosting\":3,\"service\":0}"},"geometry":{"type":"Point","coordinates":[74.35071,31.558]}},{"type":"Feature","properties":{"country_code":"RUS","city":"Domodedovo","geoname_id":"565381","downloaders":"{\"size\":7512,\"mobile\":5,\"satellite\":0,\"tor\":0,\"tor_exit_nodes\":0,\"vpn\":128,\"relay\":0,\"proxy\":0,\"hosting\":191,\"service\":2}","uploaders":"{\"size\":41,\"mobile\":0,\"satellite\":0,\"tor\":0,\"tor_exit_nodes\":0,\"vpn\":2,\"relay\":0,\"proxy\":0,\"hosting\":8,\"service\":0}"},"geometry":{"type":"Point","coordinates":[37.75372,55.44223]}},{"type":"Feature","properties":{"country_code":"RUS","city":"Smolensk","geoname_id":"491687","downloaders":"{\"size\":7486,\"mobile\":40,\"satellite\":0,\"tor\":0,\"tor_exit_nodes\":0,\"vpn\":68,\"relay\":0,\"proxy\":0,\"hosting\":0,\"service\":3}","uploaders":"{\"size\":61,\"mobile\":0,\"satellite\":0,\"tor\":0,\"tor_exit_nodes\":0,\"vpn\":1,\"relay\":0,\"proxy\":0,\"hosting\":0,\"service\":0}"},"geometry":{"type":"Point","coordinates":[32.05088,54.77826]}},{"type":"Feature","properties":{"country_code":"TUN","city":"Tunis","geoname_id":"2464470","downloaders":"{\"size\":7422,\"mobile\":1202,\"satellite\":0,\"tor\":0,\"tor_exit_nodes\":0,\"vpn\":6,\"relay\":0,\"proxy\":0,\"hosting\":8,\"service\":1}","uploaders":"{\"size\":2250,\"mobile\":449,\"satellite\":0,\"tor\":0,\"tor_exit_nodes\":0,\"vpn\":5,\"relay\":0,\"proxy\":0,\"hosting\":0,\"service\":0}"},"geometry":{"type":"Point","coordinates":[10.16579,36.81897]}},{"type":"Feature","properties":{"country_code":"KOR","city":"Gumi","geoname_id":"1842225","downloaders":"{\"size\":7389,\"mobile\":25,\"satellite\":0,\"tor\":0,\"tor_exit_nodes\":0,\"vpn\":24,\"relay\":0,\"proxy\":5,\"hosting\":0,\"service\":11}","uploaders":"{\"size\":36,\"mobile\":1,\"satellite\":0,\"tor\":0,\"tor_exit_nodes\":0,\"vpn\":0,\"relay\":0,\"proxy\":0,\"hosting\":0,\"service\":0}"},"geometry":{"type":"Point","coordinates":[128.336,36.1136]}},{"type":"Feature","properties":{"country_code":"USA","city":"Phoenix","geoname_id":"5308655","downloaders":"{\"size\":7221,\"mobile\":378,\"satellite\":51,\"tor\":0,\"tor_exit_nodes\":0,\"vpn\":1951,\"relay\":29,\"proxy\":2,\"hosting\":2904,\"service\":1824}","uploaders":"{\"size\":923,\"mobile\":71,\"satellite\":13,\"tor\":0,\"tor_exit_nodes\":0,\"vpn\":512,\"relay\":0,\"proxy\":0,\"hosting\":509,\"service\":482}"},"geometry":{"type":"Point","coordinates":[-112.07404,33.44838]}},{"type":"Feature","properties":{"country_code":"ZAF","city":"Durban","geoname_id":"1007311","downloaders":"{\"size\":7206,\"mobile\":4483,\"satellite\":0,\"tor\":0,\"tor_exit_nodes\":0,\"vpn\":26,\"relay\":0,\"proxy\":0,\"hosting\":765,\"service\":0}","uploaders":"{\"size\":2648,\"mobile\":1579,\"satellite\":0,\"tor\":0,\"tor_exit_nodes\":0,\"vpn\":6,\"relay\":0,\"proxy\":0,\"hosting\":320,\"service\":0}"},"geometry":{"type":"Point","coordinates":[31.0292,-29.8579]}},{"type":"Feature","properties":{"country_code":"RUS","city":"Podolsk","geoname_id":"508101","downloaders":"{\"size\":7179,\"mobile\":53,\"satellite\":0,\"tor\":0,\"tor_exit_nodes\":0,\"vpn\":396,\"relay\":0,\"proxy\":0,\"hosting\":145,\"service\":96}","uploaders":"{\"size\":30,\"mobile\":1,\"satellite\":0,\"tor\":0,\"tor_exit_nodes\":0,\"vpn\":0,\"relay\":0,\"proxy\":0,\"hosting\":0,\"service\":0}"},"geometry":{"type":"Point","coordinates":[37.55472,55.42419]}},{"type":"Feature","properties":{"country_code":"RUS","city":"Murmansk","geoname_id":"524305","downloaders":"{\"size\":7168,\"mobile\":421,\"satellite\":0,\"tor\":0,\"tor_exit_nodes\":0,\"vpn\":4,\"relay\":0,\"proxy\":0,\"hosting\":0,\"service\":0}","uploaders":"{\"size\":32,\"mobile\":4,\"satellite\":0,\"tor\":0,\"tor_exit_nodes\":0,\"vpn\":0,\"relay\":0,\"proxy\":0,\"hosting\":0,\"service\":0}"},"geometry":{"type":"Point","coordinates":[33.09922,68.96778]}},{"type":"Feature","properties":{"country_code":"KOR","city":"Gwangju","geoname_id":"1841810","downloaders":"{\"size\":7145,\"mobile\":3,\"satellite\":0,\"tor\":0,\"tor_exit_nodes\":0,\"vpn\":60,\"relay\":0,\"proxy\":38,\"hosting\":0,\"service\":15}","uploaders":"{\"size\":26,\"mobile\":0,\"satellite\":0,\"tor\":0,\"tor_exit_nodes\":0,\"vpn\":0,\"relay\":0,\"proxy\":0,\"hosting\":0,\"service\":0}"},"geometry":{"type":"Point","coordinates":[127.25722,37.41]}},{"type":"Feature","properties":{"country_code":"KOR","city":"Uijeongbu-si","geoname_id":"1833788","downloaders":"{\"size\":7132,\"mobile\":20,\"satellite\":0,\"tor\":0,\"tor_exit_nodes\":0,\"vpn\":49,\"relay\":0,\"proxy\":0,\"hosting\":0,\"service\":10}","uploaders":"{\"size\":38,\"mobile\":0,\"satellite\":0,\"tor\":0,\"tor_exit_nodes\":0,\"vpn\":2,\"relay\":0,\"proxy\":0,\"hosting\":0,\"service\":1}"},"geometry":{"type":"Point","coordinates":[127.0474,37.7415]}},{"type":"Feature","properties":{"country_code":"SAU","city":"Jeddah","geoname_id":"105343","downloaders":"{\"size\":6875,\"mobile\":1642,\"satellite\":0,\"tor\":0,\"tor_exit_nodes\":0,\"vpn\":18,\"relay\":0,\"proxy\":0,\"hosting\":15,\"service\":1}","uploaders":"{\"size\":1189,\"mobile\":458,\"satellite\":0,\"tor\":0,\"tor_exit_nodes\":0,\"vpn\":6,\"relay\":0,\"proxy\":0,\"hosting\":2,\"service\":0}"},"geometry":{"type":"Point","coordinates":[39.18624,21.49012]}},{"type":"Feature","properties":{"country_code":"KOR","city":"Jeju City","geoname_id":"1846266","downloaders":"{\"size\":6786,\"mobile\":2,\"satellite\":0,\"tor\":0,\"tor_exit_nodes\":0,\"vpn\":21,\"relay\":0,\"proxy\":3,\"hosting\":0,\"service\":1}","uploaders":"{\"size\":27,\"mobile\":0,\"satellite\":0,\"tor\":0,\"tor_exit_nodes\":0,\"vpn\":0,\"relay\":0,\"proxy\":0,\"hosting\":0,\"service\":0}"},"geometry":{"type":"Point","coordinates":[126.52194,33.50972]}},{"type":"Feature","properties":{"country_code":"RUS","city":"Kostroma","geoname_id":"543878","downloaders":"{\"size\":6783,\"mobile\":2,\"satellite\":0,\"tor\":0,\"tor_exit_nodes\":0,\"vpn\":264,\"relay\":0,\"proxy\":0,\"hosting\":0,\"service\":213}","uploaders":"{\"size\":30,\"mobile\":0,\"satellite\":0,\"tor\":0,\"tor_exit_nodes\":0,\"vpn\":4,\"relay\":0,\"proxy\":0,\"hosting\":0,\"service\":3}"},"geometry":{"type":"Point","coordinates":[40.92828,57.76638]}},{"type":"Feature","properties":{"country_code":"KOR","city":"Kimhae","geoname_id":"1842943","downloaders":"{\"size\":6714,\"mobile\":2,\"satellite\":0,\"tor\":0,\"tor_exit_nodes\":0,\"vpn\":36,\"relay\":0,\"proxy\":4,\"hosting\":0,\"service\":5}","uploaders":"{\"size\":32,\"mobile\":0,\"satellite\":0,\"tor\":0,\"tor_exit_nodes\":0,\"vpn\":0,\"relay\":0,\"proxy\":0,\"hosting\":0,\"service\":0}"},"geometry":{"type":"Point","coordinates":[128.88111,35.23417]}},{"type":"Feature","properties":{"country_code":"BGR","city":"Plovdiv","geoname_id":"728193","downloaders":"{\"size\":6675,\"mobile\":191,\"satellite\":0,\"tor\":0,\"tor_exit_nodes\":0,\"vpn\":124,\"relay\":0,\"proxy\":0,\"hosting\":49,\"service\":0}","uploaders":"{\"size\":235,\"mobile\":26,\"satellite\":0,\"tor\":0,\"tor_exit_nodes\":0,\"vpn\":0,\"relay\":0,\"proxy\":0,\"hosting\":0,\"service\":0}"},"geometry":{"type":"Point","coordinates":[24.75001,42.15387]}},{"type":"Feature","properties":{"country_code":"AUS","city":"Adelaide","geoname_id":"2078025","downloaders":"{\"size\":6614,\"mobile\":612,\"satellite\":0,\"tor\":0,\"tor_exit_nodes\":0,\"vpn\":1300,\"relay\":0,\"proxy\":11,\"hosting\":1435,\"service\":1203}","uploaders":"{\"size\":1711,\"mobile\":162,\"satellite\":0,\"tor\":0,\"tor_exit_nodes\":0,\"vpn\":346,\"relay\":0,\"proxy\":0,\"hosting\":408,\"service\":339}"},"geometry":{"type":"Point","coordinates":[138.59863000000001,-34.92866]}},{"type":"Feature","properties":{"country_code":"KOR","city":"Chinju","geoname_id":"1846052","downloaders":"{\"size\":6597,\"mobile\":1,\"satellite\":0,\"tor\":0,\"tor_exit_nodes\":0,\"vpn\":53,\"relay\":0,\"proxy\":1,\"hosting\":0,\"service\":1}","uploaders":"{\"size\":23,\"mobile\":0,\"satellite\":0,\"tor\":0,\"tor_exit_nodes\":0,\"vpn\":0,\"relay\":0,\"proxy\":0,\"hosting\":0,\"service\":0}"},"geometry":{"type":"Point","coordinates":[128.08472,35.19278]}},{"type":"Feature","properties":{"country_code":"TUR","city":"Çankaya","geoname_id":"6955677","downloaders":"{\"size\":6568,\"mobile\":35,\"satellite\":0,\"tor\":0,\"tor_exit_nodes\":0,\"vpn\":9,\"relay\":0,\"proxy\":0,\"hosting\":9,\"service\":9}","uploaders":"{\"size\":39,\"mobile\":0,\"satellite\":0,\"tor\":0,\"tor_exit_nodes\":0,\"vpn\":6,\"relay\":0,\"proxy\":0,\"hosting\":6,\"service\":6}"},"geometry":{"type":"Point","coordinates":[32.86268,39.9179]}},{"type":"Feature","properties":{"country_code":"RUS","city":"Pushkino","geoname_id":"503977","downloaders":"{\"size\":6568,\"mobile\":22,\"satellite\":0,\"tor\":0,\"tor_exit_nodes\":0,\"vpn\":256,\"relay\":0,\"proxy\":0,\"hosting\":113,\"service\":1}","uploaders":"{\"size\":31,\"mobile\":0,\"satellite\":0,\"tor\":0,\"tor_exit_nodes\":0,\"vpn\":2,\"relay\":0,\"proxy\":0,\"hosting\":0,\"service\":0}"},"geometry":{"type":"Point","coordinates":[37.82897,55.99456]}},{"type":"Feature","properties":{"country_code":"CHN","city":"Wuhan","geoname_id":"1791247","downloaders":"{\"size\":6548,\"mobile\":11,\"satellite\":0,\"tor\":0,\"tor_exit_nodes\":0,\"vpn\":296,\"relay\":0,\"proxy\":0,\"hosting\":115,\"service\":0}","uploaders":"{\"size\":25,\"mobile\":0,\"satellite\":0,\"tor\":0,\"tor_exit_nodes\":0,\"vpn\":0,\"relay\":0,\"proxy\":0,\"hosting\":0,\"service\":0}"},"geometry":{"type":"Point","coordinates":[114.26667,30.58333]}},{"type":"Feature","properties":{"country_code":"RUS","city":"Orël","geoname_id":"515012","downloaders":"{\"size\":6496,\"mobile\":154,\"satellite\":0,\"tor\":0,\"tor_exit_nodes\":0,\"vpn\":25,\"relay\":0,\"proxy\":0,\"hosting\":0,\"service\":1}","uploaders":"{\"size\":21,\"mobile\":1,\"satellite\":0,\"tor\":0,\"tor_exit_nodes\":0,\"vpn\":0,\"relay\":0,\"proxy\":0,\"hosting\":0,\"service\":0}"},"geometry":{"type":"Point","coordinates":[36.0791,52.96879]}},{"type":"Feature","properties":{"country_code":"BGR","city":"Varna","geoname_id":"726050","downloaders":"{\"size\":6474,\"mobile\":953,\"satellite\":0,\"tor\":0,\"tor_exit_nodes\":0,\"vpn\":80,\"relay\":0,\"proxy\":0,\"hosting\":22,\"service\":0}","uploaders":"{\"size\":328,\"mobile\":56,\"satellite\":0,\"tor\":0,\"tor_exit_nodes\":0,\"vpn\":2,\"relay\":0,\"proxy\":0,\"hosting\":0,\"service\":0}"},"geometry":{"type":"Point","coordinates":[27.91024,43.21912]}},{"type":"Feature","properties":{"country_code":"CAN","city":"Willowdale","geoname_id":"8558534","downloaders":"{\"size\":6435,\"mobile\":1296,\"satellite\":0,\"tor\":0,\"tor_exit_nodes\":0,\"vpn\":35,\"relay\":0,\"proxy\":1,\"hosting\":2,\"service\":2}","uploaders":"{\"size\":1035,\"mobile\":175,\"satellite\":0,\"tor\":0,\"tor_exit_nodes\":0,\"vpn\":4,\"relay\":0,\"proxy\":0,\"hosting\":0,\"service\":0}"},"geometry":{"type":"Point","coordinates":[-79.39909,43.76672]}},