{"type":"FeatureCollection","id":"Summer I turned pretty","swarm_features":117,"features":[{"type":"Feature","properties":{"country_code":"KOR","city":"Seoul","geoname_id":"1835848","downloaders":"{\"size\":527745,\"mobile\":777,\"satellite\":0,\"tor\":0,\"tor_exit_nodes\":0,\"vpn\":12307,\"relay\":0,\"proxy\":0,\"hosting\":3789,\"service\":2004}","uploaders":"{\"size\":403,\"mobile\":0,\"satellite\":0,\"tor\":0,\"tor_exit_nodes\":0,\"vpn\":39,\"relay\":0,\"proxy\":0,\"hosting\":60,\"service\":18}"},"geometry":{"type":"Point","coordinates":[126.9784,37.566]}},{"type":"Feature","properties":{"country_code":"RUS","city":"Moscow","geoname_id":"524901","downloaders":"{\"size\":383684,\"mobile\":15967,\"satellite\":7,\"tor\":0,\"tor_exit_nodes\":0,\"vpn\":20880,\"relay\":0,\"proxy\":53,\"hosting\":51466,\"service\":5468}","uploaders":"{\"size\":1307,\"mobile\":127,\"satellite\":0,\"tor\":0,\"tor_exit_nodes\":0,\"vpn\":53,\"relay\":0,\"proxy\":0,\"hosting\":448,\"service\":17}"},"geometry":{"type":"Point","coordinates":[37.61556,55.75222]}},{"type":"Feature","properties":{"country_code":"CHN","city":"Shanghai","geoname_id":"1796236","downloaders":"{\"size\":290431,\"mobile\":4065,\"satellite\":0,\"tor\":0,\"tor_exit_nodes\":0,\"vpn\":9284,\"relay\":0,\"proxy\":0,\"hosting\":36843,\"service\":3}","uploaders":"{\"size\":1609,\"mobile\":5,\"satellite\":0,\"tor\":0,\"tor_exit_nodes\":0,\"vpn\":42,\"relay\":0,\"proxy\":0,\"hosting\":79,\"service\":0}"},"geometry":{"type":"Point","coordinates":[121.45806,31.22222]}},{"type":"Feature","properties":{"country_code":"TUR","city":"Istanbul","geoname_id":"745044","downloaders":"{\"size\":254243,\"mobile\":23453,\"satellite\":0,\"tor\":0,\"tor_exit_nodes\":0,\"vpn\":399,\"relay\":0,\"proxy\":0,\"hosting\":652,\"service\":273}","uploaders":"{\"size\":514,\"mobile\":53,\"satellite\":0,\"tor\":0,\"tor_exit_nodes\":0,\"vpn\":63,\"relay\":0,\"proxy\":0,\"hosting\":69,\"service\":59}"},"geometry":{"type":"Point","coordinates":[28.94966,41.01384]}},{"type":"Feature","properties":{"country_code":"NLD","city":"Amsterdam","geoname_id":"2759794","downloaders":"{\"size\":206763,\"mobile\":242,\"satellite\":22,\"tor\":12,\"tor_exit_nodes\":23,\"vpn\":68834,\"relay\":0,\"proxy\":22,\"hosting\":174340,\"service\":32621}","uploaders":"{\"size\":6735,\"mobile\":60,\"satellite\":9,\"tor\":8,\"tor_exit_nodes\":8,\"vpn\":4333,\"relay\":0,\"proxy\":0,\"hosting\":4367,\"service\":3937}"},"geometry":{"type":"Point","coordinates":[4.88969,52.37403]}},{"type":"Feature","properties":{"country_code":"RUS","city":"Saint Petersburg","geoname_id":"498817","downloaders":"{\"size\":201020,\"mobile\":10466,\"satellite\":0,\"tor\":0,\"tor_exit_nodes\":0,\"vpn\":5406,\"relay\":0,\"proxy\":0,\"hosting\":7870,\"service\":376}","uploaders":"{\"size\":503,\"mobile\":35,\"satellite\":0,\"tor\":0,\"tor_exit_nodes\":0,\"vpn\":12,\"relay\":0,\"proxy\":0,\"hosting\":35,\"service\":4}"},"geometry":{"type":"Point","coordinates":[30.31413,59.93863]}},{"type":"Feature","properties":{"country_code":"CHN","city":"Nanjing","geoname_id":"1799962","downloaders":"{\"size\":162730,\"mobile\":0,\"satellite\":0,\"tor\":0,\"tor_exit_nodes\":0,\"vpn\":2651,\"relay\":0,\"proxy\":0,\"hosting\":660,\"service\":0}","uploaders":"{\"size\":664,\"mobile\":0,\"satellite\":0,\"tor\":0,\"tor_exit_nodes\":0,\"vpn\":8,\"relay\":0,\"proxy\":0,\"hosting\":35,\"service\":0}"},"geometry":{"type":"Point","coordinates":[118.77778,32.06167]}},{"type":"Feature","properties":{"country_code":"USA","city":"Ashburn","geoname_id":"4744870","downloaders":"{\"size\":135915,\"mobile\":32,\"satellite\":59,\"tor\":0,\"tor_exit_nodes\":0,\"vpn\":5222,\"relay\":0,\"proxy\":0,\"hosting\":135049,\"service\":4829}","uploaders":"{\"size\":41749,\"mobile\":4,\"satellite\":6,\"tor\":0,\"tor_exit_nodes\":0,\"vpn\":449,\"relay\":0,\"proxy\":0,\"hosting\":41730,\"service\":425}"},"geometry":{"type":"Point","coordinates":[-77.48749,39.04372]}},{"type":"Feature","properties":{"country_code":"HUN","city":"Budapest","geoname_id":"3054643","downloaders":"{\"size\":122897,\"mobile\":5138,\"satellite\":16,\"tor\":0,\"tor_exit_nodes\":2,\"vpn\":4765,\"relay\":0,\"proxy\":0,\"hosting\":3806,\"service\":1262}","uploaders":"{\"size\":715,\"mobile\":88,\"satellite\":2,\"tor\":0,\"tor_exit_nodes\":0,\"vpn\":122,\"relay\":0,\"proxy\":0,\"hosting\":128,\"service\":116}"},"geometry":{"type":"Point","coordinates":[19.04045,47.49835]}},{"type":"Feature","properties":{"country_code":"POL","city":"Warsaw","geoname_id":"756135","downloaders":"{\"size\":104339,\"mobile\":11194,\"satellite\":62,\"tor\":0,\"tor_exit_nodes\":0,\"vpn\":3814,\"relay\":0,\"proxy\":9,\"hosting\":5259,\"service\":2918}","uploaders":"{\"size\":947,\"mobile\":157,\"satellite\":2,\"tor\":0,\"tor_exit_nodes\":0,\"vpn\":233,\"relay\":0,\"proxy\":0,\"hosting\":315,\"service\":225}"},"geometry":{"type":"Point","coordinates":[21.01178,52.22977]}},{"type":"Feature","properties":{"country_code":"KOR","city":"Incheon","geoname_id":"1843564","downloaders":"{\"size\":101492,\"mobile\":29,\"satellite\":0,\"tor\":0,\"tor_exit_nodes\":0,\"vpn\":1441,\"relay\":0,\"proxy\":0,\"hosting\":258,\"service\":296}","uploaders":"{\"size\":62,\"mobile\":0,\"satellite\":0,\"tor\":0,\"tor_exit_nodes\":0,\"vpn\":1,\"relay\":0,\"proxy\":0,\"hosting\":11,\"service\":0}"},"geometry":{"type":"Point","coordinates":[126.70515,37.45646]}},{"type":"Feature","properties":{"country_code":"GBR","city":"London","geoname_id":"2643743","downloaders":"{\"size\":95618,\"mobile\":4267,\"satellite\":97,\"tor\":0,\"tor_exit_nodes\":0,\"vpn\":16603,\"relay\":13,\"proxy\":6,\"hosting\":21081,\"service\":15137}","uploaders":"{\"size\":4842,\"mobile\":598,\"satellite\":24,\"tor\":0,\"tor_exit_nodes\":0,\"vpn\":2404,\"relay\":0,\"proxy\":2,\"hosting\":2039,\"service\":2284}"},"geometry":{"type":"Point","coordinates":[-0.12574,51.50853]}},{"type":"Feature","properties":{"country_code":"CHN","city":"Shenzhen","geoname_id":"1795565","downloaders":"{\"size\":91881,\"mobile\":99,\"satellite\":0,\"tor\":0,\"tor_exit_nodes\":0,\"vpn\":4182,\"relay\":0,\"proxy\":0,\"hosting\":1238,\"service\":0}","uploaders":"{\"size\":528,\"mobile\":3,\"satellite\":0,\"tor\":0,\"tor_exit_nodes\":0,\"vpn\":25,\"relay\":0,\"proxy\":0,\"hosting\":17,\"service\":0}"},"geometry":{"type":"Point","coordinates":[114.0683,22.54554]}},{"type":"Feature","properties":{"country_code":"RUS","city":"Yekaterinburg","geoname_id":"1486209","downloaders":"{\"size\":88728,\"mobile\":6845,\"satellite\":0,\"tor\":0,\"tor_exit_nodes\":0,\"vpn\":2518,\"relay\":0,\"proxy\":0,\"hosting\":8453,\"service\":345}","uploaders":"{\"size\":161,\"mobile\":18,\"satellite\":0,\"tor\":0,\"tor_exit_nodes\":0,\"vpn\":4,\"relay\":0,\"proxy\":0,\"hosting\":15,\"service\":0}"},"geometry":{"type":"Point","coordinates":[60.6122,56.8519]}},{"type":"Feature","properties":{"country_code":"TUR","city":"Ankara","geoname_id":"323786","downloaders":"{\"size\":88113,\"mobile\":5511,\"satellite\":4,\"tor\":0,\"tor_exit_nodes\":0,\"vpn\":20,\"relay\":0,\"proxy\":0,\"hosting\":7,\"service\":2}","uploaders":"{\"size\":151,\"mobile\":27,\"satellite\":0,\"tor\":0,\"tor_exit_nodes\":0,\"vpn\":0,\"relay\":0,\"proxy\":0,\"hosting\":0,\"service\":0}"},"geometry":{"type":"Point","coordinates":[32.85427,39.91987]}},{"type":"Feature","properties":{"country_code":"FRA","city":"Paris","geoname_id":"2988507","downloaders":"{\"size\":83325,\"mobile\":14232,\"satellite\":136,\"tor\":5,\"tor_exit_nodes\":27,\"vpn\":13255,\"relay\":4,\"proxy\":14,\"hosting\":27254,\"service\":10075}","uploaders":"{\"size\":2846,\"mobile\":1054,\"satellite\":10,\"tor\":0,\"tor_exit_nodes\":3,\"vpn\":794,\"relay\":4,\"proxy\":2,\"hosting\":736,\"service\":739}"},"geometry":{"type":"Point","coordinates":[2.3488,48.85341]}},{"type":"Feature","properties":{"country_code":"CHN","city":"Hangzhou","geoname_id":"1808926","downloaders":"{\"size\":77195,\"mobile\":0,\"satellite\":0,\"tor\":0,\"tor_exit_nodes\":0,\"vpn\":748,\"relay\":0,\"proxy\":0,\"hosting\":2568,\"service\":0}","uploaders":"{\"size\":144,\"mobile\":0,\"satellite\":0,\"tor\":0,\"tor_exit_nodes\":0,\"vpn\":1,\"relay\":0,\"proxy\":0,\"hosting\":15,\"service\":0}"},"geometry":{"type":"Point","coordinates":[120.16142,30.29365]}},{"type":"Feature","properties":{"country_code":"RUS","city":"Novosibirsk","geoname_id":"1496747","downloaders":"{\"size\":73986,\"mobile\":6050,\"satellite\":0,\"tor\":0,\"tor_exit_nodes\":0,\"vpn\":332,\"relay\":0,\"proxy\":0,\"hosting\":302,\"service\":79}","uploaders":"{\"size\":145,\"mobile\":18,\"satellite\":0,\"tor\":0,\"tor_exit_nodes\":0,\"vpn\":1,\"relay\":0,\"proxy\":0,\"hosting\":37,\"service\":0}"},"geometry":{"type":"Point","coordinates":[82.94339,55.03442]}},{"type":"Feature","properties":{"country_code":"KOR","city":"Busan","geoname_id":"1838524","downloaders":"{\"size\":62382,\"mobile\":67,\"satellite\":0,\"tor\":0,\"tor_exit_nodes\":0,\"vpn\":436,\"relay\":0,\"proxy\":0,\"hosting\":0,\"service\":55}","uploaders":"{\"size\":39,\"mobile\":0,\"satellite\":0,\"tor\":0,\"tor_exit_nodes\":0,\"vpn\":1,\"relay\":0,\"proxy\":0,\"hosting\":0,\"service\":0}"},"geometry":{"type":"Point","coordinates":[129.03004,35.10168]}},{"type":"Feature","properties":{"country_code":"BGR","city":"Sofia","geoname_id":"727011","downloaders":"{\"size\":60180,\"mobile\":10134,\"satellite\":120,\"tor\":0,\"tor_exit_nodes\":0,\"vpn\":4019,\"relay\":0,\"proxy\":1,\"hosting\":6554,\"service\":2216}","uploaders":"{\"size\":998,\"mobile\":302,\"satellite\":3,\"tor\":0,\"tor_exit_nodes\":0,\"vpn\":190,\"relay\":0,\"proxy\":0,\"hosting\":204,\"service\":181}"},"geometry":{"type":"Point","coordinates":[23.32415,42.69751]}},{"type":"Feature","properties":{"country_code":"ESP","city":"Madrid","geoname_id":"3117735","downloaders":"{\"size\":58267,\"mobile\":20728,\"satellite\":621,\"tor\":0,\"tor_exit_nodes\":0,\"vpn\":5611,\"relay\":3,\"proxy\":0,\"hosting\":5745,\"service\":4966}","uploaders":"{\"size\":1948,\"mobile\":644,\"satellite\":211,\"tor\":0,\"tor_exit_nodes\":0,\"vpn\":503,\"relay\":0,\"proxy\":0,\"hosting\":528,\"service\":483}"},"geometry":{"type":"Point","coordinates":[-3.70256,40.4165]}},{"type":"Feature","properties":{"country_code":"RUS","city":"Nizhniy Novgorod","geoname_id":"520555","downloaders":"{\"size\":55533,\"mobile\":11802,\"satellite\":0,\"tor\":0,\"tor_exit_nodes\":0,\"vpn\":555,\"relay\":0,\"proxy\":1,\"hosting\":27,\"service\":61}","uploaders":"{\"size\":105,\"mobile\":31,\"satellite\":0,\"tor\":0,\"tor_exit_nodes\":0,\"vpn\":1,\"relay\":0,\"proxy\":0,\"hosting\":0,\"service\":0}"},"geometry":{"type":"Point","coordinates":[44.00205,56.32867]}},{"type":"Feature","properties":{"country_code":"MEX","city":"Mexico City","geoname_id":"3530597","downloaders":"{\"size\":55235,\"mobile\":218,\"satellite\":270,\"tor\":0,\"tor_exit_nodes\":0,\"vpn\":177,\"relay\":1,\"proxy\":0,\"hosting\":320,\"service\":121}","uploaders":"{\"size\":1543,\"mobile\":3,\"satellite\":10,\"tor\":0,\"tor_exit_nodes\":0,\"vpn\":18,\"relay\":0,\"proxy\":0,\"hosting\":19,\"service\":17}"},"geometry":{"type":"Point","coordinates":[-99.12766,19.42847]}},{"type":"Feature","properties":{"country_code":"CAN","city":"Toronto","geoname_id":"6167865","downloaders":"{\"size\":55187,\"mobile\":1815,\"satellite\":168,\"tor\":63,\"tor_exit_nodes\":325,\"vpn\":29810,\"relay\":4,\"proxy\":29,\"hosting\":30613,\"service\":28181}","uploaders":"{\"size\":4246,\"mobile\":86,\"satellite\":12,\"tor\":10,\"tor_exit_nodes\":42,\"vpn\":3439,\"relay\":0,\"proxy\":0,\"hosting\":3363,\"service\":3282}"},"geometry":{"type":"Point","coordinates":[-79.39864,43.70643]}},{"type":"Feature","properties":{"country_code":"KOR","city":"Daegu","geoname_id":"1835329","downloaders":"{\"size\":52640,\"mobile\":40,\"satellite\":0,\"tor\":0,\"tor_exit_nodes\":0,\"vpn\":539,\"relay\":0,\"proxy\":0,\"hosting\":964,\"service\":69}","uploaders":"{\"size\":34,\"mobile\":0,\"satellite\":0,\"tor\":0,\"tor_exit_nodes\":0,\"vpn\":0,\"relay\":0,\"proxy\":0,\"hosting\":1,\"service\":0}"},"geometry":{"type":"Point","coordinates":[128.59111,35.87028]}},{"type":"Feature","properties":{"country_code":"RUS","city":"Krasnodar","geoname_id":"542420","downloaders":"{\"size\":52342,\"mobile\":7756,\"satellite\":0,\"tor\":0,\"tor_exit_nodes\":0,\"vpn\":1409,\"relay\":0,\"proxy\":10,\"hosting\":3545,\"service\":718}","uploaders":"{\"size\":154,\"mobile\":26,\"satellite\":0,\"tor\":0,\"tor_exit_nodes\":0,\"vpn\":2,\"relay\":0,\"proxy\":0,\"hosting\":6,\"service\":2}"},"geometry":{"type":"Point","coordinates":[38.97603,45.04484]}},{"type":"Feature","properties":{"country_code":"BEL","city":"Brussels","geoname_id":"2800866","downloaders":"{\"size\":49935,\"mobile\":2098,\"satellite\":33,\"tor\":0,\"tor_exit_nodes\":11,\"vpn\":3027,\"relay\":0,\"proxy\":1,\"hosting\":2207,\"service\":2771}","uploaders":"{\"size\":3568,\"mobile\":614,\"satellite\":10,\"tor\":0,\"tor_exit_nodes\":0,\"vpn\":374,\"relay\":0,\"proxy\":0,\"hosting\":272,\"service\":363}"},"geometry":{"type":"Point","coordinates":[4.34878,50.85045]}},{"type":"Feature","properties":{"country_code":"TUR","city":"İzmir","geoname_id":"311046","downloaders":"{\"size\":49815,\"mobile\":9009,\"satellite\":0,\"tor\":0,\"tor_exit_nodes\":0,\"vpn\":9,\"relay\":0,\"proxy\":0,\"hosting\":1,\"service\":0}","uploaders":"{\"size\":60,\"mobile\":12,\"satellite\":0,\"tor\":0,\"tor_exit_nodes\":0,\"vpn\":2,\"relay\":0,\"proxy\":0,\"hosting\":0,\"service\":0}"},"geometry":{"type":"Point","coordinates":[27.13838,38.41273]}},{"type":"Feature","properties":{"country_code":"BRA","city":"São Paulo","geoname_id":"3448439","downloaders":"{\"size\":48981,\"mobile\":6611,\"satellite\":436,\"tor\":0,\"tor_exit_nodes\":0,\"vpn\":1524,\"relay\":0,\"proxy\":0,\"hosting\":4250,\"service\":1285}","uploaders":"{\"size\":933,\"mobile\":161,\"satellite\":18,\"tor\":0,\"tor_exit_nodes\":0,\"vpn\":136,\"relay\":0,\"proxy\":0,\"hosting\":215,\"service\":124}"},"geometry":{"type":"Point","coordinates":[-46.63611,-23.5475]}},{"type":"Feature","properties":{"country_code":"USA","city":"New York City","geoname_id":"5128581","downloaders":"{\"size\":48026,\"mobile\":399,\"satellite\":64,\"tor\":0,\"tor_exit_nodes\":0,\"vpn\":21334,\"relay\":5,\"proxy\":0,\"hosting\":23558,\"service\":20253}","uploaders":"{\"size\":2978,\"mobile\":19,\"satellite\":2,\"tor\":0,\"tor_exit_nodes\":0,\"vpn\":2566,\"relay\":0,\"proxy\":0,\"hosting\":2635,\"service\":2439}"},"geometry":{"type":"Point","coordinates":[-74.00597,40.71427]}},{"type":"Feature","properties":{"country_code":"CAN","city":"Montréal","geoname_id":"6077243","downloaders":"{\"size\":47227,\"mobile\":1946,\"satellite\":3,\"tor\":0,\"tor_exit_nodes\":58,\"vpn\":17967,\"relay\":1,\"proxy\":0,\"hosting\":22754,\"service\":17447}","uploaders":"{\"size\":2881,\"mobile\":82,\"satellite\":0,\"tor\":0,\"tor_exit_nodes\":15,\"vpn\":1803,\"relay\":0,\"proxy\":0,\"hosting\":2004,\"service\":1767}"},"geometry":{"type":"Point","coordinates":[-73.58781,45.50884]}},{"type":"Feature","properties":{"country_code":"NLD","city":"Lelystad","geoname_id":"2751738","downloaders":"{\"size\":46323,\"mobile\":27,\"satellite\":0,\"tor\":79,\"tor_exit_nodes\":10,\"vpn\":7488,\"relay\":0,\"proxy\":0,\"hosting\":44471,\"service\":2189}","uploaders":"{\"size\":433,\"mobile\":2,\"satellite\":0,\"tor\":14,\"tor_exit_nodes\":0,\"vpn\":155,\"relay\":0,\"proxy\":0,\"hosting\":351,\"service\":132}"},"geometry":{"type":"Point","coordinates":[5.475,52.50833]}},{"type":"Feature","properties":{"country_code":"RUS","city":"Voronezh","geoname_id":"472045","downloaders":"{\"size\":43455,\"mobile\":488,\"satellite\":0,\"tor\":0,\"tor_exit_nodes\":0,\"vpn\":656,\"relay\":0,\"proxy\":1,\"hosting\":767,\"service\":5}","uploaders":"{\"size\":97,\"mobile\":1,\"satellite\":0,\"tor\":0,\"tor_exit_nodes\":0,\"vpn\":4,\"relay\":0,\"proxy\":0,\"hosting\":3,\"service\":0}"},"geometry":{"type":"Point","coordinates":[39.1843,51.67204]}},{"type":"Feature","properties":{"country_code":"RUS","city":"Samara","geoname_id":"499099","downloaders":"{\"size\":41105,\"mobile\":4240,\"satellite\":0,\"tor\":0,\"tor_exit_nodes\":0,\"vpn\":827,\"relay\":0,\"proxy\":0,\"hosting\":57,\"service\":304}","uploaders":"{\"size\":46,\"mobile\":9,\"satellite\":0,\"tor\":0,\"tor_exit_nodes\":0,\"vpn\":1,\"relay\":0,\"proxy\":0,\"hosting\":0,\"service\":1}"},"geometry":{"type":"Point","coordinates":[50.15,53.20007]}},{"type":"Feature","properties":{"country_code":"KOR","city":"Suwon","geoname_id":"1835553","downloaders":"{\"size\":40358,\"mobile\":18,\"satellite\":0,\"tor\":0,\"tor_exit_nodes\":0,\"vpn\":753,\"relay\":0,\"proxy\":0,\"hosting\":0,\"service\":72}","uploaders":"{\"size\":23,\"mobile\":0,\"satellite\":0,\"tor\":0,\"tor_exit_nodes\":0,\"vpn\":4,\"relay\":0,\"proxy\":0,\"hosting\":0,\"service\":0}"},"geometry":{"type":"Point","coordinates":[127.00889,37.29111]}},{"type":"Feature","properties":{"country_code":"DEU","city":"Frankfurt am Main","geoname_id":"2925533","downloaders":"{\"size\":39186,\"mobile\":1414,\"satellite\":1,\"tor\":8,\"tor_exit_nodes\":91,\"vpn\":13652,\"relay\":0,\"proxy\":2,\"hosting\":32163,\"service\":12705}","uploaders":"{\"size\":1556,\"mobile\":2,\"satellite\":0,\"tor\":0,\"tor_exit_nodes\":0,\"vpn\":1031,\"relay\":0,\"proxy\":0,\"hosting\":1410,\"service\":1002}"},"geometry":{"type":"Point","coordinates":[8.68417,50.11552]}},{"type":"Feature","properties":{"country_code":"RUS","city":"Perm","geoname_id":"511196","downloaders":"{\"size\":38490,\"mobile\":1950,\"satellite\":0,\"tor\":0,\"tor_exit_nodes\":0,\"vpn\":424,\"relay\":0,\"proxy\":0,\"hosting\":6,\"service\":8}","uploaders":"{\"size\":64,\"mobile\":7,\"satellite\":0,\"tor\":0,\"tor_exit_nodes\":0,\"vpn\":0,\"relay\":0,\"proxy\":0,\"hosting\":0,\"service\":0}"},"geometry":{"type":"Point","coordinates":[56.25017,58.01046]}},{"type":"Feature","properties":{"country_code":"TUR","city":"Bursa","geoname_id":"750269","downloaders":"{\"size\":38047,\"mobile\":4313,\"satellite\":0,\"tor\":0,\"tor_exit_nodes\":0,\"vpn\":14,\"relay\":0,\"proxy\":0,\"hosting\":224,\"service\":0}","uploaders":"{\"size\":37,\"mobile\":7,\"satellite\":0,\"tor\":0,\"tor_exit_nodes\":0,\"vpn\":0,\"relay\":0,\"proxy\":0,\"hosting\":0,\"service\":0}"},"geometry":{"type":"Point","coordinates":[29.06013,40.19559]}},{"type":"Feature","properties":{"country_code":"RUS","city":"Rostov-na-Donu","geoname_id":"501175","downloaders":"{\"size\":37666,\"mobile\":2082,\"satellite\":0,\"tor\":0,\"tor_exit_nodes\":0,\"vpn\":1030,\"relay\":0,\"proxy\":0,\"hosting\":20,\"service\":243}","uploaders":"{\"size\":104,\"mobile\":10,\"satellite\":0,\"tor\":0,\"tor_exit_nodes\":0,\"vpn\":2,\"relay\":0,\"proxy\":0,\"hosting\":0,\"service\":1}"},"geometry":{"type":"Point","coordinates":[39.72328,47.23135]}},{"type":"Feature","properties":{"country_code":"CHN","city":"Ningbo","geoname_id":"1799397","downloaders":"{\"size\":37208,\"mobile\":0,\"satellite\":0,\"tor\":0,\"tor_exit_nodes\":0,\"vpn\":514,\"relay\":0,\"proxy\":0,\"hosting\":2346,\"service\":0}","uploaders":"{\"size\":210,\"mobile\":0,\"satellite\":0,\"tor\":0,\"tor_exit_nodes\":0,\"vpn\":2,\"relay\":0,\"proxy\":0,\"hosting\":2,\"service\":0}"},"geometry":{"type":"Point","coordinates":[121.54945,29.87819]}},{"type":"Feature","properties":{"country_code":"FIN","city":"Helsinki","geoname_id":"658225","downloaders":"{\"size\":37088,\"mobile\":473,\"satellite\":4,\"tor\":0,\"tor_exit_nodes\":0,\"vpn\":5270,\"relay\":0,\"proxy\":0,\"hosting\":31388,\"service\":3006}","uploaders":"{\"size\":332,\"mobile\":19,\"satellite\":0,\"tor\":0,\"tor_exit_nodes\":0,\"vpn\":162,\"relay\":0,\"proxy\":0,\"hosting\":254,\"service\":136}"},"geometry":{"type":"Point","coordinates":[24.93545,60.16952]}},{"type":"Feature","properties":{"country_code":"RUS","city":"Chelyabinsk","geoname_id":"1508291","downloaders":"{\"size\":36426,\"mobile\":2611,\"satellite\":0,\"tor\":0,\"tor_exit_nodes\":0,\"vpn\":192,\"relay\":0,\"proxy\":0,\"hosting\":28,\"service\":34}","uploaders":"{\"size\":62,\"mobile\":3,\"satellite\":0,\"tor\":0,\"tor_exit_nodes\":0,\"vpn\":0,\"relay\":0,\"proxy\":0,\"hosting\":0,\"service\":0}"},"geometry":{"type":"Point","coordinates":[61.42915,55.15402]}},{"type":"Feature","properties":{"country_code":"RUS","city":"Tyumen","geoname_id":"1488754","downloaders":"{\"size\":35717,\"mobile\":5074,\"satellite\":0,\"tor\":0,\"tor_exit_nodes\":0,\"vpn\":283,\"relay\":0,\"proxy\":0,\"hosting\":2,\"service\":13}","uploaders":"{\"size\":35,\"mobile\":3,\"satellite\":0,\"tor\":0,\"tor_exit_nodes\":0,\"vpn\":0,\"relay\":0,\"proxy\":0,\"hosting\":0,\"service\":0}"},"geometry":{"type":"Point","coordinates":[65.52722,57.15222]}},{"type":"Feature","properties":{"country_code":"HKG","city":"Hong Kong","geoname_id":"1819729","downloaders":"{\"size\":35049,\"mobile\":292,\"satellite\":0,\"tor\":0,\"tor_exit_nodes\":0,\"vpn\":3108,\"relay\":0,\"proxy\":0,\"hosting\":6752,\"service\":1583}","uploaders":"{\"size\":619,\"mobile\":13,\"satellite\":0,\"tor\":0,\"tor_exit_nodes\":0,\"vpn\":164,\"relay\":0,\"proxy\":0,\"hosting\":386,\"service\":159}"},"geometry":{"type":"Point","coordinates":[114.17469,22.27832]}},{"type":"Feature","properties":{"country_code":"RUS","city":"Krasnoyarsk","geoname_id":"1502026","downloaders":"{\"size\":34429,\"mobile\":2846,\"satellite\":4,\"tor\":0,\"tor_exit_nodes\":0,\"vpn\":343,\"relay\":0,\"proxy\":1,\"hosting\":435,\"service\":275}","uploaders":"{\"size\":96,\"mobile\":10,\"satellite\":0,\"tor\":0,\"tor_exit_nodes\":0,\"vpn\":1,\"relay\":0,\"proxy\":0,\"hosting\":23,\"service\":1}"},"geometry":{"type":"Point","coordinates":[92.90765,56.02668]}},{"type":"Feature","properties":{"country_code":"AUS","city":"Sydney","geoname_id":"2147714","downloaders":"{\"size\":34249,\"mobile\":1589,\"satellite\":260,\"tor\":1,\"tor_exit_nodes\":0,\"vpn\":8807,\"relay\":17,\"proxy\":9,\"hosting\":10485,\"service\":7762}","uploaders":"{\"size\":3036,\"mobile\":220,\"satellite\":69,\"tor\":0,\"tor_exit_nodes\":0,\"vpn\":1026,\"relay\":0,\"proxy\":0,\"hosting\":1123,\"service\":961}"},"geometry":{"type":"Point","coordinates":[151.1935,-33.926]}},{"type":"Feature","properties":{"country_code":"KOR","city":"Daejeon","geoname_id":"1835235","downloaders":"{\"size\":34171,\"mobile\":52,\"satellite\":0,\"tor\":0,\"tor_exit_nodes\":0,\"vpn\":537,\"relay\":0,\"proxy\":0,\"hosting\":0,\"service\":86}","uploaders":"{\"size\":19,\"mobile\":0,\"satellite\":0,\"tor\":0,\"tor_exit_nodes\":0,\"vpn\":0,\"relay\":0,\"proxy\":0,\"hosting\":0,\"service\":0}"},"geometry":{"type":"Point","coordinates":[127.38493,36.34913]}},{"type":"Feature","properties":{"country_code":"KOR","city":"Goyang-si","geoname_id":"1842485","downloaders":"{\"size\":33025,\"mobile\":1,\"satellite\":0,\"tor\":0,\"tor_exit_nodes\":0,\"vpn\":580,\"relay\":0,\"proxy\":0,\"hosting\":0,\"service\":35}","uploaders":"{\"size\":17,\"mobile\":0,\"satellite\":0,\"tor\":0,\"tor_exit_nodes\":0,\"vpn\":0,\"relay\":0,\"proxy\":0,\"hosting\":0,\"service\":0}"},"geometry":{"type":"Point","coordinates":[126.835,37.65639]}},{"type":"Feature","properties":{"country_code":"KOR","city":"Hwaseong-si","geoname_id":"1843847","downloaders":"{\"size\":32620,\"mobile\":49,\"satellite\":0,\"tor\":0,\"tor_exit_nodes\":0,\"vpn\":518,\"relay\":0,\"proxy\":0,\"hosting\":0,\"service\":85}","uploaders":"{\"size\":21,\"mobile\":0,\"satellite\":0,\"tor\":0,\"tor_exit_nodes\":0,\"vpn\":0,\"relay\":0,\"proxy\":0,\"hosting\":0,\"service\":0}"},"geometry":{"type":"Point","coordinates":[126.8169,37.20682]}},{"type":"Feature","properties":{"country_code":"RUS","city":"Barnaul","geoname_id":"1510853","downloaders":"{\"size\":32296,\"mobile\":70,\"satellite\":0,\"tor\":0,\"tor_exit_nodes\":0,\"vpn\":116,\"relay\":0,\"proxy\":0,\"hosting\":0,\"service\":62}","uploaders":"{\"size\":54,\"mobile\":1,\"satellite\":0,\"tor\":0,\"tor_exit_nodes\":0,\"vpn\":0,\"relay\":0,\"proxy\":0,\"hosting\":0,\"service\":0}"},"geometry":{"type":"Point","coordinates":[83.7456,53.3598]}},{"type":"Feature","properties":{"country_code":"RUS","city":"Ufa","geoname_id":"479561","downloaders":"{\"size\":32169,\"mobile\":1173,\"satellite\":0,\"tor\":0,\"tor_exit_nodes\":0,\"vpn\":328,\"relay\":0,\"proxy\":0,\"hosting\":0,\"service\":35}","uploaders":"{\"size\":65,\"mobile\":3,\"satellite\":0,\"tor\":0,\"tor_exit_nodes\":0,\"vpn\":1,\"relay\":0,\"proxy\":0,\"hosting\":0,\"service\":0}"},"geometry":{"type":"Point","coordinates":[55.96779,54.74306]}},{"type":"Feature","properties":{"country_code":"KOR","city":"Seongnam-si","geoname_id":"1897000","downloaders":"{\"size\":32115,\"mobile\":23,\"satellite\":0,\"tor\":0,\"tor_exit_nodes\":0,\"vpn\":514,\"relay\":0,\"proxy\":0,\"hosting\":0,\"service\":124}","uploaders":"{\"size\":18,\"mobile\":0,\"satellite\":0,\"tor\":0,\"tor_exit_nodes\":0,\"vpn\":0,\"relay\":0,\"proxy\":0,\"hosting\":0,\"service\":0}"},"geometry":{"type":"Point","coordinates":[127.13778,37.43861]}},{"type":"Feature","properties":{"country_code":"CHN","city":"Beijing","geoname_id":"1816670","downloaders":"{\"size\":31971,\"mobile\":0,\"satellite\":0,\"tor\":0,\"tor_exit_nodes\":0,\"vpn\":736,\"relay\":0,\"proxy\":2,\"hosting\":4099,\"service\":0}","uploaders":"{\"size\":410,\"mobile\":0,\"satellite\":0,\"tor\":0,\"tor_exit_nodes\":0,\"vpn\":3,\"relay\":0,\"proxy\":0,\"hosting\":159,\"service\":0}"},"geometry":{"type":"Point","coordinates":[116.39723,39.9075]}},{"type":"Feature","properties":{"country_code":"RUS","city":"Tomsk","geoname_id":"1489425","downloaders":"{\"size\":31871,\"mobile\":26,\"satellite\":0,\"tor\":0,\"tor_exit_nodes\":0,\"vpn\":82,\"relay\":0,\"proxy\":0,\"hosting\":114,\"service\":9}","uploaders":"{\"size\":49,\"mobile\":0,\"satellite\":0,\"tor\":0,\"tor_exit_nodes\":0,\"vpn\":0,\"relay\":0,\"proxy\":0,\"hosting\":0,\"service\":0}"},"geometry":{"type":"Point","coordinates":[84.98204,56.50032]}},{"type":"Feature","properties":{"country_code":"AUS","city":"Melbourne","geoname_id":"2158177","downloaders":"{\"size\":31720,\"mobile\":1500,\"satellite\":184,\"tor\":0,\"tor_exit_nodes\":0,\"vpn\":5644,\"relay\":0,\"proxy\":0,\"hosting\":6334,\"service\":4749}","uploaders":"{\"size\":3296,\"mobile\":244,\"satellite\":44,\"tor\":0,\"tor_exit_nodes\":0,\"vpn\":808,\"relay\":0,\"proxy\":0,\"hosting\":925,\"service\":768}"},"geometry":{"type":"Point","coordinates":[144.96332,-37.814]}},{"type":"Feature","properties":{"country_code":"JPN","city":"Tokyo","geoname_id":"1850147","downloaders":"{\"size\":31703,\"mobile\":2181,\"satellite\":23,\"tor\":0,\"tor_exit_nodes\":0,\"vpn\":6466,\"relay\":0,\"proxy\":1,\"hosting\":9385,\"service\":5630}","uploaders":"{\"size\":459,\"mobile\":27,\"satellite\":0,\"tor\":0,\"tor_exit_nodes\":0,\"vpn\":352,\"relay\":0,\"proxy\":1,\"hosting\":399,\"service\":348}"},"geometry":{"type":"Point","coordinates":[139.69171,35.6895]}},{"type":"Feature","properties":{"country_code":"RUS","city":"Omsk","geoname_id":"1496153","downloaders":"{\"size\":31563,\"mobile\":117,\"satellite\":0,\"tor\":0,\"tor_exit_nodes\":0,\"vpn\":78,\"relay\":0,\"proxy\":0,\"hosting\":10,\"service\":39}","uploaders":"{\"size\":43,\"mobile\":4,\"satellite\":0,\"tor\":0,\"tor_exit_nodes\":0,\"vpn\":0,\"relay\":0,\"proxy\":0,\"hosting\":0,\"service\":0}"},"geometry":{"type":"Point","coordinates":[73.36859,54.99244]}},{"type":"Feature","properties":{"country_code":"SWE","city":"Stockholm","geoname_id":"2673730","downloaders":"{\"size\":30284,\"mobile\":2181,\"satellite\":7,\"tor\":17,\"tor_exit_nodes\":4,\"vpn\":14096,\"relay\":0,\"proxy\":0,\"hosting\":11288,\"service\":12853}","uploaders":"{\"size\":2040,\"mobile\":678,\"satellite\":0,\"tor\":10,\"tor_exit_nodes\":1,\"vpn\":1153,\"relay\":0,\"proxy\":0,\"hosting\":972,\"service\":1139}"},"geometry":{"type":"Point","coordinates":[18.06871,59.32938]}},{"type":"Feature","properties":{"country_code":"UKR","city":"Kyiv","geoname_id":"703448","downloaders":"{\"size\":30263,\"mobile\":216,\"satellite\":262,\"tor\":0,\"tor_exit_nodes\":0,\"vpn\":1612,\"relay\":0,\"proxy\":0,\"hosting\":5545,\"service\":811}","uploaders":"{\"size\":330,\"mobile\":7,\"satellite\":0,\"tor\":0,\"tor_exit_nodes\":0,\"vpn\":65,\"relay\":0,\"proxy\":0,\"hosting\":172,\"service\":61}"},"geometry":{"type":"Point","coordinates":[30.5238,50.45466]}},{"type":"Feature","properties":{"country_code":"CHE","city":"Zürich","geoname_id":"2657896","downloaders":"{\"size\":30021,\"mobile\":3385,\"satellite\":16,\"tor\":19,\"tor_exit_nodes\":0,\"vpn\":17220,\"relay\":3,\"proxy\":2,\"hosting\":14743,\"service\":16454}","uploaders":"{\"size\":3177,\"mobile\":656,\"satellite\":7,\"tor\":0,\"tor_exit_nodes\":0,\"vpn\":2023,\"relay\":1,\"proxy\":0,\"hosting\":1607,\"service\":1958}"},"geometry":{"type":"Point","coordinates":[8.55,47.36667]}},{"type":"Feature","properties":{"country_code":"KOR","city":"Gwangju","geoname_id":"1841811","downloaders":"{\"size\":29833,\"mobile\":8,\"satellite\":0,\"tor\":0,\"tor_exit_nodes\":0,\"vpn\":167,\"relay\":0,\"proxy\":0,\"hosting\":0,\"service\":33}","uploaders":"{\"size\":12,\"mobile\":0,\"satellite\":0,\"tor\":0,\"tor_exit_nodes\":0,\"vpn\":0,\"relay\":0,\"proxy\":0,\"hosting\":0,\"service\":0}"},"geometry":{"type":"Point","coordinates":[126.91556,35.15472]}},{"type":"Feature","properties":{"country_code":"BLR","city":"Minsk","geoname_id":"625144","downloaders":"{\"size\":29709,\"mobile\":451,\"satellite\":0,\"tor\":0,\"tor_exit_nodes\":0,\"vpn\":795,\"relay\":0,\"proxy\":0,\"hosting\":478,\"service\":77}","uploaders":"{\"size\":141,\"mobile\":5,\"satellite\":0,\"tor\":0,\"tor_exit_nodes\":0,\"vpn\":3,\"relay\":0,\"proxy\":0,\"hosting\":8,\"service\":0}"},"geometry":{"type":"Point","coordinates":[27.56653,53.90019]}},{"type":"Feature","properties":{"country_code":"RUS","city":"Saratov","geoname_id":"498677","downloaders":"{\"size\":29362,\"mobile\":792,\"satellite\":0,\"tor\":0,\"tor_exit_nodes\":0,\"vpn\":326,\"relay\":0,\"proxy\":0,\"hosting\":0,\"service\":13}","uploaders":"{\"size\":44,\"mobile\":2,\"satellite\":0,\"tor\":0,\"tor_exit_nodes\":0,\"vpn\":0,\"relay\":0,\"proxy\":0,\"hosting\":0,\"service\":0}"},"geometry":{"type":"Point","coordinates":[46.00861,51.54056]}},{"type":"Feature","properties":{"country_code":"USA","city":"Los Angeles","geoname_id":"5368361","downloaders":"{\"size\":29037,\"mobile\":351,\"satellite\":8,\"tor\":0,\"tor_exit_nodes\":0,\"vpn\":15407,\"relay\":2,\"proxy\":0,\"hosting\":22287,\"service\":13383}","uploaders":"{\"size\":2829,\"mobile\":26,\"satellite\":0,\"tor\":0,\"tor_exit_nodes\":0,\"vpn\":1788,\"relay\":0,\"proxy\":0,\"hosting\":2562,\"service\":1620}"},"geometry":{"type":"Point","coordinates":[-118.24368,34.05223]}},{"type":"Feature","properties":{"country_code":"USA","city":"Chicago","geoname_id":"4887398","downloaders":"{\"size\":29033,\"mobile\":321,\"satellite\":192,\"tor\":0,\"tor_exit_nodes\":0,\"vpn\":20252,\"relay\":5,\"proxy\":0,\"hosting\":18689,\"service\":17546}","uploaders":"{\"size\":1605,\"mobile\":14,\"satellite\":11,\"tor\":0,\"tor_exit_nodes\":0,\"vpn\":1450,\"relay\":0,\"proxy\":0,\"hosting\":1373,\"service\":1317}"},"geometry":{"type":"Point","coordinates":[-87.65005,41.85003]}},{"type":"Feature","properties":{"country_code":"CHN","city":"Jiaxing","geoname_id":"1805953","downloaders":"{\"size\":27256,\"mobile\":0,\"satellite\":0,\"tor\":0,\"tor_exit_nodes\":0,\"vpn\":1565,\"relay\":0,\"proxy\":0,\"hosting\":82,\"service\":0}","uploaders":"{\"size\":62,\"mobile\":0,\"satellite\":0,\"tor\":0,\"tor_exit_nodes\":0,\"vpn\":6,\"relay\":0,\"proxy\":0,\"hosting\":0,\"service\":0}"},"geometry":{"type":"Point","coordinates":[120.75,30.7522]}},{"type":"Feature","properties":{"country_code":"RUS","city":"Kemerovo","geoname_id":"1503901","downloaders":"{\"size\":27135,\"mobile\":24,\"satellite\":0,\"tor\":0,\"tor_exit_nodes\":0,\"vpn\":112,\"relay\":0,\"proxy\":0,\"hosting\":67,\"service\":12}","uploaders":"{\"size\":31,\"mobile\":0,\"satellite\":0,\"tor\":0,\"tor_exit_nodes\":0,\"vpn\":0,\"relay\":0,\"proxy\":0,\"hosting\":0,\"service\":0}"},"geometry":{"type":"Point","coordinates":[86.08333,55.33333]}},{"type":"Feature","properties":{"country_code":"SVN","city":"Ljubljana","geoname_id":"3196359","downloaders":"{\"size\":26578,\"mobile\":845,\"satellite\":10,\"tor\":0,\"tor_exit_nodes\":0,\"vpn\":1144,\"relay\":0,\"proxy\":0,\"hosting\":618,\"service\":566}","uploaders":"{\"size\":1032,\"mobile\":263,\"satellite\":2,\"tor\":0,\"tor_exit_nodes\":0,\"vpn\":73,\"relay\":0,\"proxy\":0,\"hosting\":63,\"service\":60}"},"geometry":{"type":"Point","coordinates":[14.50513,46.05108]}},{"type":"Feature","properties":{"country_code":"PRT","city":"Lisbon","geoname_id":"2267057","downloaders":"{\"size\":26549,\"mobile\":8879,\"satellite\":76,\"tor\":0,\"tor_exit_nodes\":0,\"vpn\":1161,\"relay\":0,\"proxy\":1,\"hosting\":1124,\"service\":938}","uploaders":"{\"size\":5740,\"mobile\":2597,\"satellite\":22,\"tor\":0,\"tor_exit_nodes\":0,\"vpn\":136,\"relay\":0,\"proxy\":0,\"hosting\":132,\"service\":112}"},"geometry":{"type":"Point","coordinates":[-9.1498,38.72509]}},{"type":"Feature","properties":{"country_code":"ITA","city":"Milan","geoname_id":"3173435","downloaders":"{\"size\":26477,\"mobile\":4030,\"satellite\":145,\"tor\":0,\"tor_exit_nodes\":0,\"vpn\":3642,\"relay\":3,\"proxy\":0,\"hosting\":3784,\"service\":3295}","uploaders":"{\"size\":832,\"mobile\":121,\"satellite\":7,\"tor\":0,\"tor_exit_nodes\":0,\"vpn\":276,\"relay\":0,\"proxy\":0,\"hosting\":296,\"service\":273}"},"geometry":{"type":"Point","coordinates":[9.18951,45.46427]}},{"type":"Feature","properties":{"country_code":"CHN","city":"Zhengzhou","geoname_id":"1784658","downloaders":"{\"size\":24942,\"mobile\":0,\"satellite\":0,\"tor\":0,\"tor_exit_nodes\":0,\"vpn\":322,\"relay\":0,\"proxy\":0,\"hosting\":14,\"service\":0}","uploaders":"{\"size\":141,\"mobile\":0,\"satellite\":0,\"tor\":0,\"tor_exit_nodes\":0,\"vpn\":0,\"relay\":0,\"proxy\":0,\"hosting\":0,\"service\":0}"},"geometry":{"type":"Point","coordinates":[113.64861,34.75778]}},{"type":"Feature","properties":{"country_code":"KOR","city":"Ansan-si","geoname_id":"1846918","downloaders":"{\"size\":24767,\"mobile\":19,\"satellite\":0,\"tor\":0,\"tor_exit_nodes\":0,\"vpn\":200,\"relay\":0,\"proxy\":0,\"hosting\":0,\"service\":28}","uploaders":"{\"size\":9,\"mobile\":0,\"satellite\":0,\"tor\":0,\"tor_exit_nodes\":0,\"vpn\":0,\"relay\":0,\"proxy\":0,\"hosting\":0,\"service\":0}"},"geometry":{"type":"Point","coordinates":[126.82194,37.32361]}},{"type":"Feature","properties":{"country_code":"LVA","city":"Riga","geoname_id":"456172","downloaders":"{\"size\":24536,\"mobile\":1072,\"satellite\":16,\"tor\":0,\"tor_exit_nodes\":0,\"vpn\":1372,\"relay\":0,\"proxy\":0,\"hosting\":2498,\"service\":943}","uploaders":"{\"size\":563,\"mobile\":126,\"satellite\":1,\"tor\":0,\"tor_exit_nodes\":0,\"vpn\":87,\"relay\":0,\"proxy\":0,\"hosting\":102,\"service\":83}"},"geometry":{"type":"Point","coordinates":[24.10589,56.946]}},{"type":"Feature","properties":{"country_code":"ROU","city":"Bucharest","geoname_id":"683506","downloaders":"{\"size\":24273,\"mobile\":3445,\"satellite\":5,\"tor\":59,\"tor_exit_nodes\":1,\"vpn\":4956,\"relay\":0,\"proxy\":0,\"hosting\":5265,\"service\":4140}","uploaders":"{\"size\":1114,\"mobile\":173,\"satellite\":0,\"tor\":3,\"tor_exit_nodes\":0,\"vpn\":414,\"relay\":0,\"proxy\":0,\"hosting\":454,\"service\":391}"},"geometry":{"type":"Point","coordinates":[26.10626,44.43225]}},{"type":"Feature","properties":{"country_code":"KOR","city":"Cheongju-si","geoname_id":"1845604","downloaders":"{\"size\":24090,\"mobile\":6,\"satellite\":0,\"tor\":0,\"tor_exit_nodes\":0,\"vpn\":245,\"relay\":0,\"proxy\":0,\"hosting\":0,\"service\":18}","uploaders":"{\"size\":14,\"mobile\":0,\"satellite\":0,\"tor\":0,\"tor_exit_nodes\":0,\"vpn\":1,\"relay\":0,\"proxy\":0,\"hosting\":0,\"service\":0}"},"geometry":{"type":"Point","coordinates":[127.48972,36.63722]}},{"type":"Feature","properties":{"country_code":"RUS","city":"Tula","geoname_id":"480562","downloaders":"{\"size\":23797,\"mobile\":4871,\"satellite\":0,\"tor\":0,\"tor_exit_nodes\":0,\"vpn\":237,\"relay\":0,\"proxy\":0,\"hosting\":1408,\"service\":7}","uploaders":"{\"size\":26,\"mobile\":2,\"satellite\":0,\"tor\":0,\"tor_exit_nodes\":0,\"vpn\":1,\"relay\":0,\"proxy\":0,\"hosting\":2,\"service\":0}"},"geometry":{"type":"Point","coordinates":[37.61822,54.19609]}},{"type":"Feature","properties":{"country_code":"POL","city":"Poznań","geoname_id":"3088171","downloaders":"{\"size\":23669,\"mobile\":733,\"satellite\":0,\"tor\":0,\"tor_exit_nodes\":0,\"vpn\":210,\"relay\":0,\"proxy\":0,\"hosting\":47,\"service\":0}","uploaders":"{\"size\":105,\"mobile\":39,\"satellite\":0,\"tor\":0,\"tor_exit_nodes\":0,\"vpn\":1,\"relay\":0,\"proxy\":0,\"hosting\":2,\"service\":0}"},"geometry":{"type":"Point","coordinates":[16.92993,52.40692]}},{"type":"Feature","properties":{"country_code":"CZE","city":"Prague","geoname_id":"3067696","downloaders":"{\"size\":23254,\"mobile\":1422,\"satellite\":24,\"tor\":0,\"tor_exit_nodes\":0,\"vpn\":4583,\"relay\":36,\"proxy\":0,\"hosting\":4828,\"service\":3269}","uploaders":"{\"size\":585,\"mobile\":56,\"satellite\":0,\"tor\":0,\"tor_exit_nodes\":0,\"vpn\":257,\"relay\":4,\"proxy\":0,\"hosting\":269,\"service\":253}"},"geometry":{"type":"Point","coordinates":[14.42076,50.08804]}},{"type":"Feature","properties":{"country_code":"RUS","city":"Volgograd","geoname_id":"472757","downloaders":"{\"size\":23145,\"mobile\":2103,\"satellite\":0,\"tor\":0,\"tor_exit_nodes\":0,\"vpn\":286,\"relay\":0,\"proxy\":0,\"hosting\":0,\"service\":13}","uploaders":"{\"size\":41,\"mobile\":2,\"satellite\":0,\"tor\":0,\"tor_exit_nodes\":0,\"vpn\":1,\"relay\":0,\"proxy\":0,\"hosting\":0,\"service\":0}"},"geometry":{"type":"Point","coordinates":[44.50183,48.71939]}},{"type":"Feature","properties":{"country_code":"ARG","city":"Buenos Aires","geoname_id":"3435910","downloaders":"{\"size\":23082,\"mobile\":2265,\"satellite\":553,\"tor\":0,\"tor_exit_nodes\":0,\"vpn\":274,\"relay\":0,\"proxy\":0,\"hosting\":406,\"service\":147}","uploaders":"{\"size\":2673,\"mobile\":232,\"satellite\":89,\"tor\":0,\"tor_exit_nodes\":0,\"vpn\":53,\"relay\":0,\"proxy\":0,\"hosting\":82,\"service\":42}"},"geometry":{"type":"Point","coordinates":[-58.37723,-34.61315]}},{"type":"Feature","properties":{"country_code":"RUS","city":"Lipetsk","geoname_id":"535121","downloaders":"{\"size\":23051,\"mobile\":2639,\"satellite\":0,\"tor\":0,\"tor_exit_nodes\":0,\"vpn\":171,\"relay\":0,\"proxy\":0,\"hosting\":0,\"service\":22}","uploaders":"{\"size\":25,\"mobile\":3,\"satellite\":0,\"tor\":0,\"tor_exit_nodes\":0,\"vpn\":0,\"relay\":0,\"proxy\":0,\"hosting\":0,\"service\":0}"},"geometry":{"type":"Point","coordinates":[39.57076,52.60311]}},{"type":"Feature","properties":{"country_code":"KOR","city":"Haegok","geoname_id":"6398843","downloaders":"{\"size\":22622,\"mobile\":45,\"satellite\":0,\"tor\":0,\"tor_exit_nodes\":0,\"vpn\":347,\"relay\":0,\"proxy\":0,\"hosting\":0,\"service\":13}","uploaders":"{\"size\":4,\"mobile\":0,\"satellite\":0,\"tor\":0,\"tor_exit_nodes\":0,\"vpn\":0,\"relay\":0,\"proxy\":0,\"hosting\":0,\"service\":0}"},"geometry":{"type":"Point","coordinates":[127.27880999999999,37.19251]}},{"type":"Feature","properties":{"country_code":"BRA","city":"Rio de Janeiro","geoname_id":"3451190","downloaders":"{\"size\":21772,\"mobile\":1722,\"satellite\":0,\"tor\":0,\"tor_exit_nodes\":0,\"vpn\":51,\"relay\":0,\"proxy\":0,\"hosting\":172,\"service\":0}","uploaders":"{\"size\":451,\"mobile\":105,\"satellite\":0,\"tor\":0,\"tor_exit_nodes\":0,\"vpn\":0,\"relay\":0,\"proxy\":0,\"hosting\":2,\"service\":0}"},"geometry":{"type":"Point","coordinates":[-43.18223,-22.90642]}},{"type":"Feature","properties":{"country_code":"RUS","city":"Kazan","geoname_id":"551487","downloaders":"{\"size\":21660,\"mobile\":3920,\"satellite\":0,\"tor\":0,\"tor_exit_nodes\":0,\"vpn\":321,\"relay\":0,\"proxy\":0,\"hosting\":79,\"service\":5}","uploaders":"{\"size\":59,\"mobile\":12,\"satellite\":0,\"tor\":0,\"tor_exit_nodes\":0,\"vpn\":1,\"relay\":0,\"proxy\":0,\"hosting\":1,\"service\":0}"},"geometry":{"type":"Point","coordinates":[49.12214,55.78874]}},{"type":"Feature","properties":{"country_code":"KOR","city":"Ulsan","geoname_id":"1833747","downloaders":"{\"size\":21531,\"mobile\":12,\"satellite\":0,\"tor\":0,\"tor_exit_nodes\":0,\"vpn\":270,\"relay\":0,\"proxy\":0,\"hosting\":0,\"service\":132}","uploaders":"{\"size\":7,\"mobile\":0,\"satellite\":0,\"tor\":0,\"tor_exit_nodes\":0,\"vpn\":0,\"relay\":0,\"proxy\":0,\"hosting\":0,\"service\":0}"},"geometry":{"type":"Point","coordinates":[129.31667,35.53722]}},{"type":"Feature","properties":{"country_code":"FRA","city":"Dunkerque","geoname_id":"3020686","downloaders":"{\"size\":21500,\"mobile\":138,\"satellite\":0,\"tor\":0,\"tor_exit_nodes\":0,\"vpn\":634,\"relay\":0,\"proxy\":0,\"hosting\":20722,\"service\":167}","uploaders":"{\"size\":499,\"mobile\":0,\"satellite\":0,\"tor\":0,\"tor_exit_nodes\":0,\"vpn\":30,\"relay\":0,\"proxy\":0,\"hosting\":498,\"service\":29}"},"geometry":{"type":"Point","coordinates":[2.37681,51.0344]}},{"type":"Feature","properties":{"country_code":"RUS","city":"Irkutsk","geoname_id":"2023469","downloaders":"{\"size\":21422,\"mobile\":3646,\"satellite\":0,\"tor\":0,\"tor_exit_nodes\":0,\"vpn\":45,\"relay\":0,\"proxy\":0,\"hosting\":7,\"service\":2}","uploaders":"{\"size\":24,\"mobile\":4,\"satellite\":0,\"tor\":0,\"tor_exit_nodes\":0,\"vpn\":0,\"relay\":0,\"proxy\":0,\"hosting\":1,\"service\":0}"},"geometry":{"type":"Point","coordinates":[104.29585,52.29795]}},{"type":"Feature","properties":{"country_code":"RUS","city":"Khimki","geoname_id":"550280","downloaders":"{\"size\":21066,\"mobile\":18,\"satellite\":3,\"tor\":0,\"tor_exit_nodes\":0,\"vpn\":1505,\"relay\":0,\"proxy\":0,\"hosting\":4271,\"service\":446}","uploaders":"{\"size\":45,\"mobile\":0,\"satellite\":0,\"tor\":0,\"tor_exit_nodes\":0,\"vpn\":1,\"relay\":0,\"proxy\":0,\"hosting\":2,\"service\":0}"},"geometry":{"type":"Point","coordinates":[37.42848,55.9001]}},{"type":"Feature","properties":{"country_code":"KOR","city":"Anyang-si","geoname_id":"1846898","downloaders":"{\"size\":20408,\"mobile\":0,\"satellite\":0,\"tor\":0,\"tor_exit_nodes\":0,\"vpn\":451,\"relay\":0,\"proxy\":0,\"hosting\":0,\"service\":62}","uploaders":"{\"size\":11,\"mobile\":0,\"satellite\":0,\"tor\":0,\"tor_exit_nodes\":0,\"vpn\":0,\"relay\":0,\"proxy\":0,\"hosting\":0,\"service\":0}"},"geometry":{"type":"Point","coordinates":[126.92694,37.3925]}},{"type":"Feature","properties":{"country_code":"CAN","city":"Vancouver","geoname_id":"6173331","downloaders":"{\"size\":20362,\"mobile\":1136,\"satellite\":29,\"tor\":0,\"tor_exit_nodes\":0,\"vpn\":12667,\"relay\":0,\"proxy\":39,\"hosting\":8296,\"service\":11978}","uploaders":"{\"size\":1350,\"mobile\":40,\"satellite\":1,\"tor\":0,\"tor_exit_nodes\":0,\"vpn\":1137,\"relay\":0,\"proxy\":0,\"hosting\":804,\"service\":1102}"},"geometry":{"type":"Point","coordinates":[-123.11934,49.24966]}},{"type":"Feature","properties":{"country_code":"ISR","city":"Tel Aviv","geoname_id":"293397","downloaders":"{\"size\":20355,\"mobile\":4996,\"satellite\":0,\"tor\":0,\"tor_exit_nodes\":0,\"vpn\":715,\"relay\":0,\"proxy\":0,\"hosting\":1430,\"service\":616}","uploaders":"{\"size\":3326,\"mobile\":1007,\"satellite\":0,\"tor\":0,\"tor_exit_nodes\":0,\"vpn\":79,\"relay\":0,\"proxy\":0,\"hosting\":256,\"service\":67}"},"geometry":{"type":"Point","coordinates":[34.78057,32.08088]}},{"type":"Feature","properties":{"country_code":"KOR","city":"Bucheon-si","geoname_id":"1838716","downloaders":"{\"size\":20329,\"mobile\":3,\"satellite\":0,\"tor\":0,\"tor_exit_nodes\":0,\"vpn\":331,\"relay\":0,\"proxy\":0,\"hosting\":1,\"service\":21}","uploaders":"{\"size\":8,\"mobile\":0,\"satellite\":0,\"tor\":0,\"tor_exit_nodes\":0,\"vpn\":0,\"relay\":0,\"proxy\":0,\"hosting\":0,\"service\":0}"},"geometry":{"type":"Point","coordinates":[126.78306,37.49889]}},{"type":"Feature","properties":{"country_code":"SGP","city":"Singapore","geoname_id":"1880252","downloaders":"{\"size\":19663,\"mobile\":1279,\"satellite\":0,\"tor\":0,\"tor_exit_nodes\":0,\"vpn\":7562,\"relay\":1,\"proxy\":42,\"hosting\":13186,\"service\":7289}","uploaders":"{\"size\":1161,\"mobile\":45,\"satellite\":0,\"tor\":0,\"tor_exit_nodes\":0,\"vpn\":680,\"relay\":0,\"proxy\":17,\"hosting\":985,\"service\":673}"},"geometry":{"type":"Point","coordinates":[103.85007,1.28967]}},{"type":"Feature","properties":{"country_code":"DEU","city":"Falkenstein","geoname_id":"2927913","downloaders":"{\"size\":19464,\"mobile\":0,\"satellite\":0,\"tor\":0,\"tor_exit_nodes\":0,\"vpn\":13,\"relay\":0,\"proxy\":0,\"hosting\":19455,\"service\":13}","uploaders":"{\"size\":164,\"mobile\":0,\"satellite\":0,\"tor\":0,\"tor_exit_nodes\":0,\"vpn\":0,\"relay\":0,\"proxy\":0,\"hosting\":164,\"service\":0}"},"geometry":{"type":"Point","coordinates":[12.37129,50.47788]}},{"type":"Feature","properties":{"country_code":"TUR","city":"Antalya","geoname_id":"323777","downloaders":"{\"size\":18975,\"mobile\":10172,\"satellite\":0,\"tor\":0,\"tor_exit_nodes\":0,\"vpn\":4,\"relay\":0,\"proxy\":0,\"hosting\":0,\"service\":0}","uploaders":"{\"size\":18,\"mobile\":7,\"satellite\":0,\"tor\":0,\"tor_exit_nodes\":0,\"vpn\":0,\"relay\":0,\"proxy\":0,\"hosting\":0,\"service\":0}"},"geometry":{"type":"Point","coordinates":[30.69556,36.90812]}},{"type":"Feature","properties":{"country_code":"ITA","city":"Rome","geoname_id":"3169070","downloaders":"{\"size\":18869,\"mobile\":4280,\"satellite\":15,\"tor\":0,\"tor_exit_nodes\":0,\"vpn\":410,\"relay\":0,\"proxy\":0,\"hosting\":353,\"service\":311}","uploaders":"{\"size\":293,\"mobile\":151,\"satellite\":4,\"tor\":0,\"tor_exit_nodes\":0,\"vpn\":46,\"relay\":0,\"proxy\":0,\"hosting\":47,\"service\":45}"},"geometry":{"type":"Point","coordinates":[12.51133,41.89193]}},{"type":"Feature","properties":{"country_code":"TUR","city":"Konya","geoname_id":"306571","downloaders":"{\"size\":18722,\"mobile\":4486,\"satellite\":0,\"tor\":0,\"tor_exit_nodes\":0,\"vpn\":2,\"relay\":0,\"proxy\":0,\"hosting\":0,\"service\":0}","uploaders":"{\"size\":7,\"mobile\":1,\"satellite\":0,\"tor\":0,\"tor_exit_nodes\":0,\"vpn\":0,\"relay\":0,\"proxy\":0,\"hosting\":0,\"service\":0}"},"geometry":{"type":"Point","coordinates":[32.48464,37.87135]}},{"type":"Feature","properties":{"country_code":"LTU","city":"Vilnius","geoname_id":"593116","downloaders":"{\"size\":18640,\"mobile\":2018,\"satellite\":7,\"tor\":0,\"tor_exit_nodes\":0,\"vpn\":884,\"relay\":3,\"proxy\":0,\"hosting\":1313,\"service\":647}","uploaders":"{\"size\":899,\"mobile\":236,\"satellite\":1,\"tor\":0,\"tor_exit_nodes\":0,\"vpn\":141,\"relay\":0,\"proxy\":0,\"hosting\":141,\"service\":129}"},"geometry":{"type":"Point","coordinates":[25.2798,54.68916]}},{"type":"Feature","properties":{"country_code":"RUS","city":"Balashikha","geoname_id":"579464","downloaders":"{\"size\":18590,\"mobile\":283,\"satellite\":0,\"tor\":0,\"tor_exit_nodes\":0,\"vpn\":1070,\"relay\":0,\"proxy\":0,\"hosting\":1059,\"service\":70}","uploaders":"{\"size\":29,\"mobile\":2,\"satellite\":0,\"tor\":0,\"tor_exit_nodes\":0,\"vpn\":1,\"relay\":0,\"proxy\":0,\"hosting\":2,\"service\":0}"},"geometry":{"type":"Point","coordinates":[37.94794,55.79479]}},{"type":"Feature","properties":{"country_code":"CHN","city":"Qingdao","geoname_id":"1797929","downloaders":"{\"size\":18503,\"mobile\":0,\"satellite\":0,\"tor\":0,\"tor_exit_nodes\":0,\"vpn\":370,\"relay\":0,\"proxy\":0,\"hosting\":181,\"service\":0}","uploaders":"{\"size\":126,\"mobile\":0,\"satellite\":0,\"tor\":0,\"tor_exit_nodes\":0,\"vpn\":1,\"relay\":0,\"proxy\":0,\"hosting\":0,\"service\":0}"},"geometry":{"type":"Point","coordinates":[120.38042,36.06488]}},{"type":"Feature","properties":{"country_code":"IRQ","city":"Baghdad","geoname_id":"98182","downloaders":"{\"size\":18423,\"mobile\":87,\"satellite\":0,\"tor\":0,\"tor_exit_nodes\":0,\"vpn\":42,\"relay\":0,\"proxy\":0,\"hosting\":10,\"service\":3}","uploaders":"{\"size\":26,\"mobile\":1,\"satellite\":0,\"tor\":0,\"tor_exit_nodes\":0,\"vpn\":1,\"relay\":0,\"proxy\":0,\"hosting\":1,\"service\":1}"},"geometry":{"type":"Point","coordinates":[44.40088,33.34058]}},{"type":"Feature","properties":{"country_code":"TUR","city":"Gaziantep","geoname_id":"314830","downloaders":"{\"size\":18388,\"mobile\":1481,\"satellite\":0,\"tor\":0,\"tor_exit_nodes\":0,\"vpn\":1,\"relay\":0,\"proxy\":0,\"hosting\":0,\"service\":0}","uploaders":"{\"size\":18,\"mobile\":4,\"satellite\":0,\"tor\":0,\"tor_exit_nodes\":0,\"vpn\":0,\"relay\":0,\"proxy\":0,\"hosting\":0,\"service\":0}"},"geometry":{"type":"Point","coordinates":[37.3825,37.05944]}},{"type":"Feature","properties":{"country_code":"KOR","city":"Changwon","geoname_id":"1846326","downloaders":"{\"size\":18122,\"mobile\":45,\"satellite\":0,\"tor\":0,\"tor_exit_nodes\":0,\"vpn\":129,\"relay\":0,\"proxy\":0,\"hosting\":0,\"service\":1}","uploaders":"{\"size\":12,\"mobile\":0,\"satellite\":0,\"tor\":0,\"tor_exit_nodes\":0,\"vpn\":0,\"relay\":0,\"proxy\":0,\"hosting\":0,\"service\":0}"},"geometry":{"type":"Point","coordinates":[128.68111,35.22806]}},{"type":"Feature","properties":{"country_code":"RUS","city":"Kirov","geoname_id":"548408","downloaders":"{\"size\":18035,\"mobile\":1856,\"satellite\":0,\"tor\":0,\"tor_exit_nodes\":0,\"vpn\":1746,\"relay\":0,\"proxy\":0,\"hosting\":0,\"service\":1572}","uploaders":"{\"size\":34,\"mobile\":3,\"satellite\":0,\"tor\":0,\"tor_exit_nodes\":0,\"vpn\":2,\"relay\":0,\"proxy\":0,\"hosting\":0,\"service\":2}"},"geometry":{"type":"Point","coordinates":[49.66007,58.59665]}},{"type":"Feature","properties":{"country_code":"USA","city":"Atlanta","geoname_id":"4180439","downloaders":"{\"size\":17974,\"mobile\":205,\"satellite\":52,\"tor\":0,\"tor_exit_nodes\":0,\"vpn\":9499,\"relay\":0,\"proxy\":0,\"hosting\":10921,\"service\":9272}","uploaders":"{\"size\":1136,\"mobile\":6,\"satellite\":1,\"tor\":0,\"tor_exit_nodes\":0,\"vpn\":990,\"relay\":0,\"proxy\":0,\"hosting\":1010,\"service\":979}"},"geometry":{"type":"Point","coordinates":[-84.38798,33.749]}},{"type":"Feature","properties":{"country_code":"CHN","city":"Shenyang","geoname_id":"2034937","downloaders":"{\"size\":17635,\"mobile\":0,\"satellite\":0,\"tor\":0,\"tor_exit_nodes\":0,\"vpn\":126,\"relay\":0,\"proxy\":0,\"hosting\":0,\"service\":0}","uploaders":"{\"size\":73,\"mobile\":0,\"satellite\":0,\"tor\":0,\"tor_exit_nodes\":0,\"vpn\":1,\"relay\":0,\"proxy\":0,\"hosting\":0,\"service\":0}"},"geometry":{"type":"Point","coordinates":[123.43278,41.79222]}},{"type":"Feature","properties":{"country_code":"KOR","city":"Hwado","geoname_id":"1897118","downloaders":"{\"size\":17066,\"mobile\":17,\"satellite\":0,\"tor\":0,\"tor_exit_nodes\":0,\"vpn\":218,\"relay\":0,\"proxy\":0,\"hosting\":0,\"service\":16}","uploaders":"{\"size\":7,\"mobile\":0,\"satellite\":0,\"tor\":0,\"tor_exit_nodes\":0,\"vpn\":0,\"relay\":0,\"proxy\":0,\"hosting\":0,\"service\":0}"},"geometry":{"type":"Point","coordinates":[127.3075,37.6525]}},{"type":"Feature","properties":{"country_code":"TUR","city":"Adana","geoname_id":"325363","downloaders":"{\"size\":16877,\"mobile\":2517,\"satellite\":0,\"tor\":0,\"tor_exit_nodes\":0,\"vpn\":4,\"relay\":0,\"proxy\":0,\"hosting\":0,\"service\":0}","uploaders":"{\"size\":29,\"mobile\":3,\"satellite\":0,\"tor\":0,\"tor_exit_nodes\":0,\"vpn\":0,\"relay\":0,\"proxy\":0,\"hosting\":0,\"service\":0}"},"geometry":{"type":"Point","coordinates":[35.32531,36.98615]}},{"type":"Feature","properties":{"country_code":"IRL","city":"Dublin","geoname_id":"2964574","downloaders":"{\"size\":16711,\"mobile\":1975,\"satellite\":38,\"tor\":0,\"tor_exit_nodes\":0,\"vpn\":3146,\"relay\":0,\"proxy\":0,\"hosting\":4818,\"service\":2887}","uploaders":"{\"size\":1157,\"mobile\":309,\"satellite\":9,\"tor\":0,\"tor_exit_nodes\":0,\"vpn\":390,\"relay\":0,\"proxy\":0,\"hosting\":416,\"service\":380}"},"geometry":{"type":"Point","coordinates":[-6.24889,53.33306]}},{"type":"Feature","properties":{"country_code":"DEU","city":"Berlin","geoname_id":"2950159","downloaders":"{\"size\":16695,\"mobile\":4414,\"satellite\":299,\"tor\":13,\"tor_exit_nodes\":13,\"vpn\":2264,\"relay\":0,\"proxy\":0,\"hosting\":3068,\"service\":1842}","uploaders":"{\"size\":374,\"mobile\":18,\"satellite\":29,\"tor\":8,\"tor_exit_nodes\":8,\"vpn\":210,\"relay\":0,\"proxy\":0,\"hosting\":217,\"service\":168}"},"geometry":{"type":"Point","coordinates":[13.41053,52.52437]}},{"type":"Feature","properties":{"country_code":"POL","city":"Ursynów","geoname_id":"6545326","downloaders":"{\"size\":16694,\"mobile\":0,\"satellite\":0,\"tor\":0,\"tor_exit_nodes\":0,\"vpn\":569,\"relay\":0,\"proxy\":0,\"hosting\":571,\"service\":569}","uploaders":"{\"size\":168,\"mobile\":0,\"satellite\":0,\"tor\":0,\"tor_exit_nodes\":0,\"vpn\":48,\"relay\":0,\"proxy\":0,\"hosting\":48,\"service\":48}"},"geometry":{"type":"Point","coordinates":[21.0068,52.1552]}},{"type":"Feature","properties":{"country_code":"NLD","city":"Haarlem","geoname_id":"2755003","downloaders":"{\"size\":16322,\"mobile\":2,\"satellite\":0,\"tor\":0,\"tor_exit_nodes\":0,\"vpn\":8463,\"relay\":0,\"proxy\":0,\"hosting\":14980,\"service\":1821}","uploaders":"{\"size\":207,\"mobile\":2,\"satellite\":0,\"tor\":0,\"tor_exit_nodes\":0,\"vpn\":154,\"relay\":0,\"proxy\":0,\"hosting\":171,\"service\":145}"},"geometry":{"type":"Point","coordinates":[4.63683,52.38084]}},{"type":"Feature","properties":{"country_code":"AUS","city":"Brisbane","geoname_id":"2174003","downloaders":"{\"size\":16259,\"mobile\":800,\"satellite\":94,\"tor\":0,\"tor_exit_nodes\":0,\"vpn\":2972,\"relay\":0,\"proxy\":0,\"hosting\":3228,\"service\":2107}","uploaders":"{\"size\":2244,\"mobile\":181,\"satellite\":14,\"tor\":0,\"tor_exit_nodes\":0,\"vpn\":434,\"relay\":0,\"proxy\":0,\"hosting\":462,\"service\":380}"},"geometry":{"type":"Point","coordinates":[153.02809,-27.46794]}},{"type":"Feature","properties":{"country_code":"USA","city":"Dallas","geoname_id":"4684888","downloaders":"{\"size\":16131,\"mobile\":197,\"satellite\":82,\"tor\":0,\"tor_exit_nodes\":0,\"vpn\":10926,\"relay\":2,\"proxy\":0,\"hosting\":12761,\"service\":10219}","uploaders":"{\"size\":1339,\"mobile\":10,\"satellite\":1,\"tor\":0,\"tor_exit_nodes\":0,\"vpn\":1123,\"relay\":0,\"proxy\":0,\"hosting\":1264,\"service\":1100}"},"geometry":{"type":"Point","coordinates":[-96.80667,32.78306]}},{"type":"Feature","properties":{"country_code":"RUS","city":"Yaroslavl","geoname_id":"468902","downloaders":"{\"size\":15935,\"mobile\":1906,\"satellite\":0,\"tor\":0,\"tor_exit_nodes\":0,\"vpn\":297,\"relay\":0,\"proxy\":10,\"hosting\":0,\"service\":1}","uploaders":"{\"size\":37,\"mobile\":8,\"satellite\":0,\"tor\":0,\"tor_exit_nodes\":0,\"vpn\":0,\"relay\":0,\"proxy\":0,\"hosting\":0,\"service\":0}"},"geometry":{"type":"Point","coordinates":[39.87368,57.62987]}},{"type":"Feature","properties":{"country_code":"RUS","city":"Tver","geoname_id":"480060","downloaders":"{\"size\":15913,\"mobile\":227,\"satellite\":0,\"tor\":0,\"tor_exit_nodes\":0,\"vpn\":290,\"relay\":0,\"proxy\":0,\"hosting\":180,\"service\":34}","uploaders":"{\"size\":48,\"mobile\":0,\"satellite\":0,\"tor\":0,\"tor_exit_nodes\":0,\"vpn\":0,\"relay\":0,\"proxy\":0,\"hosting\":0,\"service\":0}"},"geometry":{"type":"Point","coordinates":[35.90057,56.85836]}},{"type":"Feature","properties":{"country_code":"HRV","city":"Zagreb","geoname_id":"3186886","downloaders":"{\"size\":15654,\"mobile\":2364,\"satellite\":14,\"tor\":0,\"tor_exit_nodes\":0,\"vpn\":765,\"relay\":0,\"proxy\":0,\"hosting\":777,\"service\":565}","uploaders":"{\"size\":2414,\"mobile\":635,\"satellite\":3,\"tor\":0,\"tor_exit_nodes\":0,\"vpn\":112,\"relay\":0,\"proxy\":0,\"hosting\":136,\"service\":71}"},"geometry":{"type":"Point","coordinates":[15.97798,45.81444]}},{"type":"Feature","properties":{"country_code":"RUS","city":"Surgut","geoname_id":"1490624","downloaders":"{\"size\":15647,\"mobile\":1407,\"satellite\":0,\"tor\":0,\"tor_exit_nodes\":0,\"vpn\":58,\"relay\":0,\"proxy\":0,\"hosting\":16,\"service\":18}","uploaders":"{\"size\":34,\"mobile\":2,\"satellite\":0,\"tor\":0,\"tor_exit_nodes\":0,\"vpn\":2,\"relay\":0,\"proxy\":0,\"hosting\":0,\"service\":0}"},"geometry":{"type":"Point","coordinates":[73.41775,61.25757]}},{"type":"Feature","properties":{"country_code":"RUS","city":"Penza","geoname_id":"511565","downloaders":"{\"size\":15564,\"mobile\":1363,\"satellite\":0,\"tor\":0,\"tor_exit_nodes\":0,\"vpn\":174,\"relay\":0,\"proxy\":0,\"hosting\":0,\"service\":10}","uploaders":"{\"size\":46,\"mobile\":7,\"satellite\":0,\"tor\":0,\"tor_exit_nodes\":0,\"vpn\":0,\"relay\":0,\"proxy\":0,\"hosting\":0,\"service\":0}"},"geometry":{"type":"Point","coordinates":[45.00464,53.20066]}},{"type":"Feature","properties":{"country_code":"RUS","city":"Bryansk","geoname_id":"571476","downloaders":"{\"size\":15350,\"mobile\":11,\"satellite\":0,\"tor\":0,\"tor_exit_nodes\":0,\"vpn\":108,\"relay\":0,\"proxy\":0,\"hosting\":0,\"service\":26}","uploaders":"{\"size\":22,\"mobile\":0,\"satellite\":0,\"tor\":0,\"tor_exit_nodes\":0,\"vpn\":0,\"relay\":0,\"proxy\":0,\"hosting\":0,\"service\":0}"},"geometry":{"type":"Point","coordinates":[34.37167,53.25209]}},{"type":"Feature","properties":{"country_code":"ESP","city":"Barcelona","geoname_id":"3128760","downloaders":"{\"size\":15296,\"mobile\":5450,\"satellite\":0,\"tor\":0,\"tor_exit_nodes\":0,\"vpn\":1156,\"relay\":0,\"proxy\":0,\"hosting\":1026,\"service\":972}","uploaders":"{\"size\":540,\"mobile\":121,\"satellite\":0,\"tor\":0,\"tor_exit_nodes\":0,\"vpn\":138,\"relay\":0,\"proxy\":0,\"hosting\":144,\"service\":134}"},"geometry":{"type":"Point","coordinates":[2.15899,41.38879]}},{"type":"Feature","properties":{"country_code":"KOR","city":"Cheonan","geoname_id":"1845759","downloaders":"{\"size\":15221,\"mobile\":0,\"satellite\":0,\"tor\":0,\"tor_exit_nodes\":0,\"vpn\":120,\"relay\":0,\"proxy\":0,\"hosting\":0,\"service\":28}","uploaders":"{\"size\":12,\"mobile\":0,\"satellite\":0,\"tor\":0,\"tor_exit_nodes\":0,\"vpn\":0,\"relay\":0,\"proxy\":0,\"hosting\":0,\"service\":0}"},"geometry":{"type":"Point","coordinates":[127.1522,36.8065]}},{"type":"Feature","properties":{"country_code":"NZL","city":"Auckland","geoname_id":"2193733","downloaders":"{\"size\":15178,\"mobile\":4863,\"satellite\":252,\"tor\":0,\"tor_exit_nodes\":0,\"vpn\":2686,\"relay\":0,\"proxy\":0,\"hosting\":2627,\"service\":2437}","uploaders":"{\"size\":1415,\"mobile\":346,\"satellite\":55,\"tor\":0,\"tor_exit_nodes\":0,\"vpn\":418,\"relay\":0,\"proxy\":0,\"hosting\":429,\"service\":405}"},"geometry":{"type":"Point","coordinates":[174.76349,-36.84853]}},{"type":"Feature","properties":{"country_code":"TWN","city":"Taipei","geoname_id":"1668341","downloaders":"{\"size\":15075,\"mobile\":695,\"satellite\":0,\"tor\":23,\"tor_exit_nodes\":23,\"vpn\":1324,\"relay\":1,\"proxy\":0,\"hosting\":502,\"service\":368}","uploaders":"{\"size\":118,\"mobile\":7,\"satellite\":0,\"tor\":1,\"tor_exit_nodes\":1,\"vpn\":37,\"relay\":0,\"proxy\":0,\"hosting\":37,\"service\":36}"},"geometry":{"type":"Point","coordinates":[121.52639,25.05306]}},{"type":"Feature","properties":{"country_code":"RUS","city":"Vladivostok","geoname_id":"2013348","downloaders":"{\"size\":14975,\"mobile\":722,\"satellite\":11,\"tor\":0,\"tor_exit_nodes\":0,\"vpn\":3135,\"relay\":0,\"proxy\":0,\"hosting\":76,\"service\":2161}","uploaders":"{\"size\":52,\"mobile\":4,\"satellite\":0,\"tor\":0,\"tor_exit_nodes\":0,\"vpn\":6,\"relay\":0,\"proxy\":0,\"hosting\":0,\"service\":5}"},"geometry":{"type":"Point","coordinates":[131.87353,43.10562]}},{"type":"Feature","properties":{"country_code":"RUS","city":"Orenburg","geoname_id":"515003","downloaders":"{\"size\":14860,\"mobile\":17,\"satellite\":0,\"tor\":0,\"tor_exit_nodes\":0,\"vpn\":437,\"relay\":0,\"proxy\":0,\"hosting\":2,\"service\":359}","uploaders":"{\"size\":33,\"mobile\":0,\"satellite\":0,\"tor\":0,\"tor_exit_nodes\":0,\"vpn\":1,\"relay\":0,\"proxy\":0,\"hosting\":0,\"service\":0}"},"geometry":{"type":"Point","coordinates":[55.0988,51.7727]}},{"type":"Feature","properties":{"country_code":"RUS","city":"Novokuznetsk","geoname_id":"1496990","downloaders":"{\"size\":14770,\"mobile\":17,\"satellite\":0,\"tor\":0,\"tor_exit_nodes\":0,\"vpn\":47,\"relay\":0,\"proxy\":0,\"hosting\":0,\"service\":2}","uploaders":"{\"size\":27,\"mobile\":0,\"satellite\":0,\"tor\":0,\"tor_exit_nodes\":0,\"vpn\":0,\"relay\":0,\"proxy\":0,\"hosting\":0,\"service\":0}"},"geometry":{"type":"Point","coordinates":[87.13599,53.75752]}},{"type":"Feature","properties":{"country_code":"KOR","city":"Wŏnju","geoname_id":"1833105","downloaders":"{\"size\":14764,\"mobile\":19,\"satellite\":0,\"tor\":0,\"tor_exit_nodes\":0,\"vpn\":217,\"relay\":0,\"proxy\":0,\"hosting\":0,\"service\":51}","uploaders":"{\"size\":14,\"mobile\":0,\"satellite\":0,\"tor\":0,\"tor_exit_nodes\":0,\"vpn\":0,\"relay\":0,\"proxy\":0,\"hosting\":0,\"service\":0}"},"geometry":{"type":"Point","coordinates":[127.94528,37.35139]}},{"type":"Feature","properties":{"country_code":"KOR","city":"Jeonju","geoname_id":"1845457","downloaders":"{\"size\":14702,\"mobile\":47,\"satellite\":0,\"tor\":0,\"tor_exit_nodes\":0,\"vpn\":129,\"relay\":0,\"proxy\":0,\"hosting\":0,\"service\":19}","uploaders":"{\"size\":6,\"mobile\":0,\"satellite\":0,\"tor\":0,\"tor_exit_nodes\":0,\"vpn\":0,\"relay\":0,\"proxy\":0,\"hosting\":0,\"service\":0}"},"geometry":{"type":"Point","coordinates":[127.14889,35.82194]}},{"type":"Feature","properties":{"country_code":"RUS","city":"Ulyanovsk","geoname_id":"479123","downloaders":"{\"size\":14692,\"mobile\":969,\"satellite\":0,\"tor\":0,\"tor_exit_nodes\":0,\"vpn\":101,\"relay\":0,\"proxy\":0,\"hosting\":0,\"service\":5}","uploaders":"{\"size\":20,\"mobile\":4,\"satellite\":0,\"tor\":0,\"tor_exit_nodes\":0,\"vpn\":0,\"relay\":0,\"proxy\":0,\"hosting\":0,\"service\":0}"},"geometry":{"type":"Point","coordinates":[48.38657,54.32824]}},{"type":"Feature","properties":{"country_code":"RUS","city":"Izhevsk","geoname_id":"554840","downloaders":"{\"size\":14587,\"mobile\":1419,\"satellite\":0,\"tor\":0,\"tor_exit_nodes\":0,\"vpn\":162,\"relay\":0,\"proxy\":0,\"hosting\":2,\"service\":10}","uploaders":"{\"size\":32,\"mobile\":8,\"satellite\":0,\"tor\":0,\"tor_exit_nodes\":0,\"vpn\":0,\"relay\":0,\"proxy\":0,\"hosting\":0,\"service\":0}"},"geometry":{"type":"Point","coordinates":[53.20448,56.84976]}},{"type":"Feature","properties":{"country_code":"NOR","city":"Oslo","geoname_id":"3143244","downloaders":"{\"size\":14555,\"mobile\":800,\"satellite\":235,\"tor\":6,\"tor_exit_nodes\":11,\"vpn\":4283,\"relay\":0,\"proxy\":0,\"hosting\":3822,\"service\":3983}","uploaders":"{\"size\":694,\"mobile\":48,\"satellite\":15,\"tor\":0,\"tor_exit_nodes\":0,\"vpn\":342,\"relay\":0,\"proxy\":0,\"hosting\":322,\"service\":337}"},"geometry":{"type":"Point","coordinates":[10.74609,59.91273]}},{"type":"Feature","properties":{"country_code":"GRC","city":"Athens","geoname_id":"264371","downloaders":"{\"size\":14542,\"mobile\":4316,\"satellite\":80,\"tor\":0,\"tor_exit_nodes\":0,\"vpn\":1038,\"relay\":0,\"proxy\":0,\"hosting\":1380,\"service\":960}","uploaders":"{\"size\":2609,\"mobile\":1122,\"satellite\":28,\"tor\":0,\"tor_exit_nodes\":0,\"vpn\":201,\"relay\":0,\"proxy\":0,\"hosting\":283,\"service\":200}"},"geometry":{"type":"Point","coordinates":[23.72784,37.98376]}},{"type":"Feature","properties":{"country_code":"RUS","city":"Odintsovo","geoname_id":"516215","downloaders":"{\"size\":14386,\"mobile\":3,\"satellite\":0,\"tor\":0,\"tor_exit_nodes\":0,\"vpn\":425,\"relay\":0,\"proxy\":0,\"hosting\":204,\"service\":2}","uploaders":"{\"size\":25,\"mobile\":0,\"satellite\":0,\"tor\":0,\"tor_exit_nodes\":0,\"vpn\":1,\"relay\":0,\"proxy\":0,\"hosting\":0,\"service\":0}"},"geometry":{"type":"Point","coordinates":[37.27716,55.66977]}},{"type":"Feature","properties":{"country_code":"CHN","city":"Chengdu","geoname_id":"1815286","downloaders":"{\"size\":14385,\"mobile\":0,\"satellite\":0,\"tor\":0,\"tor_exit_nodes\":0,\"vpn\":933,\"relay\":0,\"proxy\":6,\"hosting\":681,\"service\":0}","uploaders":"{\"size\":183,\"mobile\":0,\"satellite\":0,\"tor\":0,\"tor_exit_nodes\":0,\"vpn\":19,\"relay\":0,\"proxy\":0,\"hosting\":0,\"service\":0}"},"geometry":{"type":"Point","coordinates":[104.06667,30.66667]}},{"type":"Feature","properties":{"country_code":"RUS","city":"Khabarovsk","geoname_id":"2022890","downloaders":"{\"size\":14172,\"mobile\":931,\"satellite\":7,\"tor\":0,\"tor_exit_nodes\":0,\"vpn\":210,\"relay\":0,\"proxy\":0,\"hosting\":57,\"service\":188}","uploaders":"{\"size\":35,\"mobile\":5,\"satellite\":1,\"tor\":0,\"tor_exit_nodes\":0,\"vpn\":2,\"relay\":0,\"proxy\":0,\"hosting\":1,\"service\":2}"},"geometry":{"type":"Point","coordinates":[135.08822,48.48032]}},{"type":"Feature","properties":{"country_code":"USA","city":"Miami","geoname_id":"4164138","downloaders":"{\"size\":13980,\"mobile\":282,\"satellite\":49,\"tor\":0,\"tor_exit_nodes\":0,\"vpn\":9698,\"relay\":0,\"proxy\":0,\"hosting\":12119,\"service\":9419}","uploaders":"{\"size\":1241,\"mobile\":14,\"satellite\":3,\"tor\":0,\"tor_exit_nodes\":0,\"vpn\":1176,\"relay\":0,\"proxy\":0,\"hosting\":1134,\"service\":1161}"},"geometry":{"type":"Point","coordinates":[-80.19366,25.77427]}},{"type":"Feature","properties":{"country_code":"FRA","city":"Marseille","geoname_id":"2995469","downloaders":"{\"size\":13965,\"mobile\":3144,\"satellite\":0,\"tor\":0,\"tor_exit_nodes\":0,\"vpn\":4196,\"relay\":0,\"proxy\":0,\"hosting\":4647,\"service\":4189}","uploaders":"{\"size\":849,\"mobile\":98,\"satellite\":0,\"tor\":0,\"tor_exit_nodes\":0,\"vpn\":636,\"relay\":0,\"proxy\":0,\"hosting\":653,\"service\":636}"},"geometry":{"type":"Point","coordinates":[5.38107,43.29695]}},{"type":"Feature","properties":{"country_code":"RUS","city":"Cheboksary","geoname_id":"569696","downloaders":"{\"size\":13825,\"mobile\":2537,\"satellite\":0,\"tor\":0,\"tor_exit_nodes\":0,\"vpn\":212,\"relay\":0,\"proxy\":0,\"hosting\":0,\"service\":4}","uploaders":"{\"size\":18,\"mobile\":5,\"satellite\":0,\"tor\":0,\"tor_exit_nodes\":0,\"vpn\":0,\"relay\":0,\"proxy\":0,\"hosting\":0,\"service\":0}"},"geometry":{"type":"Point","coordinates":[47.25194,56.13222]}},{"type":"Feature","properties":{"country_code":"RUS","city":"Ryazan’","geoname_id":"500096","downloaders":"{\"size\":13819,\"mobile\":268,\"satellite\":0,\"tor\":0,\"tor_exit_nodes\":0,\"vpn\":364,\"relay\":0,\"proxy\":0,\"hosting\":1,\"service\":73}","uploaders":"{\"size\":36,\"mobile\":2,\"satellite\":0,\"tor\":0,\"tor_exit_nodes\":0,\"vpn\":3,\"relay\":0,\"proxy\":0,\"hosting\":0,\"service\":1}"},"geometry":{"type":"Point","coordinates":[39.6916,54.6269]}},{"type":"Feature","properties":{"country_code":"POL","city":"Gdańsk","geoname_id":"3099434","downloaders":"{\"size\":13810,\"mobile\":274,\"satellite\":0,\"tor\":0,\"tor_exit_nodes\":0,\"vpn\":138,\"relay\":0,\"proxy\":0,\"hosting\":105,\"service\":54}","uploaders":"{\"size\":64,\"mobile\":1,\"satellite\":0,\"tor\":0,\"tor_exit_nodes\":0,\"vpn\":6,\"relay\":0,\"proxy\":0,\"hosting\":6,\"service\":6}"},"geometry":{"type":"Point","coordinates":[18.64912,54.35227]}},{"type":"Feature","properties":{"country_code":"FRA","city":"Calais","geoname_id":"3029162","downloaders":"{\"size\":13753,\"mobile\":196,\"satellite\":0,\"tor\":20,\"tor_exit_nodes\":20,\"vpn\":441,\"relay\":0,\"proxy\":3,\"hosting\":13176,\"service\":14}","uploaders":"{\"size\":321,\"mobile\":1,\"satellite\":0,\"tor\":0,\"tor_exit_nodes\":0,\"vpn\":0,\"relay\":0,\"proxy\":0,\"hosting\":319,\"service\":0}"},"geometry":{"type":"Point","coordinates":[1.85635,50.95194]}},{"type":"Feature","properties":{"country_code":"KOR","city":"Munsan","geoname_id":"1840862","downloaders":"{\"size\":13598,\"mobile\":8,\"satellite\":0,\"tor\":0,\"tor_exit_nodes\":0,\"vpn\":123,\"relay\":0,\"proxy\":0,\"hosting\":0,\"service\":9}","uploaders":"{\"size\":9,\"mobile\":0,\"satellite\":0,\"tor\":0,\"tor_exit_nodes\":0,\"vpn\":0,\"relay\":0,\"proxy\":0,\"hosting\":0,\"service\":0}"},"geometry":{"type":"Point","coordinates":[126.785,37.85944]}},{"type":"Feature","properties":{"country_code":"CHL","city":"Santiago","geoname_id":"3871336","downloaders":"{\"size\":13400,\"mobile\":3745,\"satellite\":102,\"tor\":0,\"tor_exit_nodes\":0,\"vpn\":169,\"relay\":0,\"proxy\":0,\"hosting\":959,\"service\":127}","uploaders":"{\"size\":1146,\"mobile\":616,\"satellite\":19,\"tor\":0,\"tor_exit_nodes\":0,\"vpn\":20,\"relay\":0,\"proxy\":0,\"hosting\":36,\"service\":17}"},"geometry":{"type":"Point","coordinates":[-70.64827,-33.45694]}},{"type":"Feature","properties":{"country_code":"EST","city":"Tallinn","geoname_id":"588409","downloaders":"{\"size\":13397,\"mobile\":859,\"satellite\":7,\"tor\":0,\"tor_exit_nodes\":0,\"vpn\":1172,\"relay\":0,\"proxy\":0,\"hosting\":1557,\"service\":953}","uploaders":"{\"size\":550,\"mobile\":172,\"satellite\":0,\"tor\":0,\"tor_exit_nodes\":0,\"vpn\":90,\"relay\":0,\"proxy\":0,\"hosting\":87,\"service\":81}"},"geometry":{"type":"Point","coordinates":[24.75353,59.43696]}},{"type":"Feature","properties":{"country_code":"CHN","city":"Wuhan","geoname_id":"1791247","downloaders":"{\"size\":13355,\"mobile\":0,\"satellite\":0,\"tor\":0,\"tor_exit_nodes\":0,\"vpn\":566,\"relay\":0,\"proxy\":0,\"hosting\":1,\"service\":0}","uploaders":"{\"size\":139,\"mobile\":0,\"satellite\":0,\"tor\":0,\"tor_exit_nodes\":0,\"vpn\":10,\"relay\":0,\"proxy\":0,\"hosting\":0,\"service\":0}"},"geometry":{"type":"Point","coordinates":[114.26667,30.58333]}},{"type":"Feature","properties":{"country_code":"KOR","city":"Pyeongtaek","geoname_id":"1838343","downloaders":"{\"size\":13276,\"mobile\":0,\"satellite\":0,\"tor\":0,\"tor_exit_nodes\":0,\"vpn\":152,\"relay\":0,\"proxy\":0,\"hosting\":0,\"service\":35}","uploaders":"{\"size\":7,\"mobile\":0,\"satellite\":0,\"tor\":0,\"tor_exit_nodes\":0,\"vpn\":0,\"relay\":0,\"proxy\":0,\"hosting\":0,\"service\":0}"},"geometry":{"type":"Point","coordinates":[127.08889,36.99472]}},{"type":"Feature","properties":{"country_code":"JPN","city":"Osaka","geoname_id":"1853909","downloaders":"{\"size\":13140,\"mobile\":1192,\"satellite\":0,\"tor\":0,\"tor_exit_nodes\":0,\"vpn\":1312,\"relay\":2,\"proxy\":0,\"hosting\":1492,\"service\":1103}","uploaders":"{\"size\":96,\"mobile\":16,\"satellite\":0,\"tor\":0,\"tor_exit_nodes\":0,\"vpn\":42,\"relay\":0,\"proxy\":0,\"hosting\":68,\"service\":42}"},"geometry":{"type":"Point","coordinates":[135.50107,34.69379]}},{"type":"Feature","properties":{"country_code":"ZAF","city":"Johannesburg","geoname_id":"993800","downloaders":"{\"size\":13139,\"mobile\":2669,\"satellite\":3,\"tor\":0,\"tor_exit_nodes\":0,\"vpn\":864,\"relay\":0,\"proxy\":0,\"hosting\":4209,\"service\":713}","uploaders":"{\"size\":2483,\"mobile\":792,\"satellite\":0,\"tor\":0,\"tor_exit_nodes\":0,\"vpn\":140,\"relay\":0,\"proxy\":0,\"hosting\":595,\"service\":121}"},"geometry":{"type":"Point","coordinates":[28.04363,-26.20227]}},{"type":"Feature","properties":{"country_code":"MEX","city":"Guadalajara","geoname_id":"4005539","downloaders":"{\"size\":12905,\"mobile\":45,\"satellite\":0,\"tor\":0,\"tor_exit_nodes\":0,\"vpn\":11,\"relay\":0,\"proxy\":0,\"hosting\":0,\"service\":0}","uploaders":"{\"size\":41,\"mobile\":1,\"satellite\":0,\"tor\":0,\"tor_exit_nodes\":0,\"vpn\":0,\"relay\":0,\"proxy\":0,\"hosting\":0,\"service\":0}"},"geometry":{"type":"Point","coordinates":[-103.34749,20.67738]}},{"type":"Feature","properties":{"country_code":"PRT","city":"Porto","geoname_id":"2735943","downloaders":"{\"size\":12842,\"mobile\":1029,\"satellite\":0,\"tor\":0,\"tor_exit_nodes\":0,\"vpn\":134,\"relay\":0,\"proxy\":0,\"hosting\":51,\"service\":41}","uploaders":"{\"size\":2027,\"mobile\":260,\"satellite\":0,\"tor\":0,\"tor_exit_nodes\":0,\"vpn\":9,\"relay\":0,\"proxy\":0,\"hosting\":8,\"service\":5}"},"geometry":{"type":"Point","coordinates":[-8.61099,41.14961]}},{"type":"Feature","properties":{"country_code":"TUR","city":"Mersin","geoname_id":"304531","downloaders":"{\"size\":12778,\"mobile\":3393,\"satellite\":0,\"tor\":0,\"tor_exit_nodes\":0,\"vpn\":1,\"relay\":0,\"proxy\":0,\"hosting\":0,\"service\":0}","uploaders":"{\"size\":15,\"mobile\":1,\"satellite\":0,\"tor\":0,\"tor_exit_nodes\":0,\"vpn\":0,\"relay\":0,\"proxy\":0,\"hosting\":0,\"service\":0}"},"geometry":{"type":"Point","coordinates":[34.63886,36.81196]}},{"type":"Feature","properties":{"country_code":"SVK","city":"Bratislava","geoname_id":"3060972","downloaders":"{\"size\":12674,\"mobile\":567,\"satellite\":9,\"tor\":0,\"tor_exit_nodes\":0,\"vpn\":925,\"relay\":0,\"proxy\":0,\"hosting\":1099,\"service\":662}","uploaders":"{\"size\":188,\"mobile\":3,\"satellite\":0,\"tor\":0,\"tor_exit_nodes\":0,\"vpn\":50,\"relay\":0,\"proxy\":0,\"hosting\":66,\"service\":49}"},"geometry":{"type":"Point","coordinates":[17.10674,48.14816]}},{"type":"Feature","properties":{"country_code":"CHN","city":"Quanzhou","geoname_id":"1797353","downloaders":"{\"size\":12544,\"mobile\":0,\"satellite\":0,\"tor\":0,\"tor_exit_nodes\":0,\"vpn\":129,\"relay\":0,\"proxy\":0,\"hosting\":0,\"service\":0}","uploaders":"{\"size\":29,\"mobile\":0,\"satellite\":0,\"tor\":0,\"tor_exit_nodes\":0,\"vpn\":0,\"relay\":0,\"proxy\":0,\"hosting\":0,\"service\":0}"},"geometry":{"type":"Point","coordinates":[118.58583,24.91389]}},{"type":"Feature","properties":{"country_code":"BGR","city":"Plovdiv","geoname_id":"728193","downloaders":"{\"size\":12507,\"mobile\":257,\"satellite\":0,\"tor\":0,\"tor_exit_nodes\":0,\"vpn\":215,\"relay\":0,\"proxy\":0,\"hosting\":3435,\"service\":0}","uploaders":"{\"size\":86,\"mobile\":4,\"satellite\":0,\"tor\":0,\"tor_exit_nodes\":0,\"vpn\":2,\"relay\":0,\"proxy\":0,\"hosting\":16,\"service\":0}"},"geometry":{"type":"Point","coordinates":[24.75,42.15]}},{"type":"Feature","properties":{"country_code":"TUR","city":"İzmit","geoname_id":"745028","downloaders":"{\"size\":12411,\"mobile\":1393,\"satellite\":0,\"tor\":0,\"tor_exit_nodes\":0,\"vpn\":0,\"relay\":0,\"proxy\":0,\"hosting\":0,\"service\":0}","uploaders":"{\"size\":7,\"mobile\":0,\"satellite\":0,\"tor\":0,\"tor_exit_nodes\":0,\"vpn\":0,\"relay\":0,\"proxy\":0,\"hosting\":0,\"service\":0}"},"geometry":{"type":"Point","coordinates":[29.92928,40.76499]}},{"type":"Feature","properties":{"country_code":"RUS","city":"Tolyatti","geoname_id":"482283","downloaders":"{\"size\":12371,\"mobile\":0,\"satellite\":0,\"tor\":0,\"tor_exit_nodes\":0,\"vpn\":118,\"relay\":0,\"proxy\":0,\"hosting\":0,\"service\":0}","uploaders":"{\"size\":41,\"mobile\":0,\"satellite\":0,\"tor\":0,\"tor_exit_nodes\":0,\"vpn\":0,\"relay\":0,\"proxy\":0,\"hosting\":0,\"service\":0}"},"geometry":{"type":"Point","coordinates":[49.3461,53.5303]}},{"type":"Feature","properties":{"country_code":"RUS","city":"Vladimir","geoname_id":"473247","downloaders":"{\"size\":12058,\"mobile\":291,\"satellite\":0,\"tor\":0,\"tor_exit_nodes\":0,\"vpn\":145,\"relay\":0,\"proxy\":0,\"hosting\":0,\"service\":0}","uploaders":"{\"size\":20,\"mobile\":0,\"satellite\":0,\"tor\":0,\"tor_exit_nodes\":0,\"vpn\":0,\"relay\":0,\"proxy\":0,\"hosting\":0,\"service\":0}"},"geometry":{"type":"Point","coordinates":[40.39658,56.13655]}},{"type":"Feature","properties":{"country_code":"TWN","city":"Banqiao","geoname_id":"1670029","downloaders":"{\"size\":12001,\"mobile\":81,\"satellite\":0,\"tor\":0,\"tor_exit_nodes\":0,\"vpn\":836,\"relay\":0,\"proxy\":0,\"hosting\":203,\"service\":62}","uploaders":"{\"size\":70,\"mobile\":1,\"satellite\":0,\"tor\":0,\"tor_exit_nodes\":0,\"vpn\":16,\"relay\":0,\"proxy\":0,\"hosting\":5,\"service\":4}"},"geometry":{"type":"Point","coordinates":[121.46719,25.01427]}},{"type":"Feature","properties":{"country_code":"AUT","city":"Vienna","geoname_id":"2761369","downloaders":"{\"size\":11923,\"mobile\":1797,\"satellite\":41,\"tor\":0,\"tor_exit_nodes\":0,\"vpn\":2395,\"relay\":1,\"proxy\":28,\"hosting\":3070,\"service\":2248}","uploaders":"{\"size\":541,\"mobile\":109,\"satellite\":6,\"tor\":0,\"tor_exit_nodes\":0,\"vpn\":280,\"relay\":0,\"proxy\":0,\"hosting\":318,\"service\":277}"},"geometry":{"type":"Point","coordinates":[16.37208,48.20849]}},{"type":"Feature","properties":{"country_code":"SAU","city":"Riyadh","geoname_id":"108410","downloaders":"{\"size\":11913,\"mobile\":3327,\"satellite\":0,\"tor\":0,\"tor_exit_nodes\":0,\"vpn\":75,\"relay\":0,\"proxy\":0,\"hosting\":105,\"service\":57}","uploaders":"{\"size\":629,\"mobile\":276,\"satellite\":0,\"tor\":0,\"tor_exit_nodes\":0,\"vpn\":11,\"relay\":0,\"proxy\":0,\"hosting\":15,\"service\":10}"},"geometry":{"type":"Point","coordinates":[46.72185,24.68773]}},{"type":"Feature","properties":{"country_code":"","city":"","geoname_id":"","downloaders":"{\"size\":11873,\"mobile\":0,\"satellite\":0,\"tor\":0,\"tor_exit_nodes\":0,\"vpn\":3,\"relay\":0,\"proxy\":0,\"hosting\":12,\"service\":3}","uploaders":"{\"size\":27,\"mobile\":0,\"satellite\":0,\"tor\":0,\"tor_exit_nodes\":0,\"vpn\":0,\"relay\":0,\"proxy\":0,\"hosting\":0,\"service\":0}"},"geometry":{"type":"Point","coordinates":[0.0,0.0]}},{"type":"Feature","properties":{"country_code":"RUS","city":"Kaliningrad","geoname_id":"554234","downloaders":"{\"size\":11723,\"mobile\":52,\"satellite\":0,\"tor\":0,\"tor_exit_nodes\":0,\"vpn\":82,\"relay\":0,\"proxy\":0,\"hosting\":1,\"service\":0}","uploaders":"{\"size\":30,\"mobile\":0,\"satellite\":0,\"tor\":0,\"tor_exit_nodes\":0,\"vpn\":0,\"relay\":0,\"proxy\":0,\"hosting\":0,\"service\":0}"},"geometry":{"type":"Point","coordinates":[20.51095,54.70649]}},{"type":"Feature","properties":{"country_code":"USA","city":"Seattle","geoname_id":"5809844","downloaders":"{\"size\":11576,\"mobile\":216,\"satellite\":139,\"tor\":0,\"tor_exit_nodes\":0,\"vpn\":8142,\"relay\":5,\"proxy\":0,\"hosting\":8420,\"service\":6454}","uploaders":"{\"size\":1196,\"mobile\":9,\"satellite\":3,\"tor\":0,\"tor_exit_nodes\":0,\"vpn\":1102,\"relay\":0,\"proxy\":0,\"hosting\":1140,\"service\":1046}"},"geometry":{"type":"Point","coordinates":[-122.33207,47.60621]}},{"type":"Feature","properties":{"country_code":"NLD","city":"Rotterdam","geoname_id":"2747891","downloaders":"{\"size\":11361,\"mobile\":702,\"satellite\":0,\"tor\":0,\"tor_exit_nodes\":0,\"vpn\":676,\"relay\":1,\"proxy\":0,\"hosting\":670,\"service\":529}","uploaders":"{\"size\":384,\"mobile\":146,\"satellite\":0,\"tor\":0,\"tor_exit_nodes\":0,\"vpn\":76,\"relay\":1,\"proxy\":0,\"hosting\":77,\"service\":70}"},"geometry":{"type":"Point","coordinates":[4.47917,51.9225]}},{"type":"Feature","properties":{"country_code":"COL","city":"Bogotá","geoname_id":"3688689","downloaders":"{\"size\":11307,\"mobile\":4309,\"satellite\":78,\"tor\":0,\"tor_exit_nodes\":0,\"vpn\":549,\"relay\":0,\"proxy\":0,\"hosting\":838,\"service\":450}","uploaders":"{\"size\":488,\"mobile\":205,\"satellite\":9,\"tor\":0,\"tor_exit_nodes\":0,\"vpn\":57,\"relay\":0,\"proxy\":0,\"hosting\":65,\"service\":53}"},"geometry":{"type":"Point","coordinates":[-74.08175,4.60971]}},{"type":"Feature","properties":{"country_code":"TUR","city":"Samsun","geoname_id":"740264","downloaders":"{\"size\":11258,\"mobile\":2558,\"satellite\":0,\"tor\":0,\"tor_exit_nodes\":0,\"vpn\":0,\"relay\":0,\"proxy\":0,\"hosting\":0,\"service\":0}","uploaders":"{\"size\":12,\"mobile\":0,\"satellite\":0,\"tor\":0,\"tor_exit_nodes\":0,\"vpn\":0,\"relay\":0,\"proxy\":0,\"hosting\":0,\"service\":0}"},"geometry":{"type":"Point","coordinates":[36.3361,41.27976]}},{"type":"Feature","properties":{"country_code":"SWE","city":"Göteborg","geoname_id":"2711537","downloaders":"{\"size\":11239,\"mobile\":970,\"satellite\":0,\"tor\":0,\"tor_exit_nodes\":0,\"vpn\":2628,\"relay\":0,\"proxy\":0,\"hosting\":1927,\"service\":2479}","uploaders":"{\"size\":348,\"mobile\":35,\"satellite\":0,\"tor\":0,\"tor_exit_nodes\":0,\"vpn\":191,\"relay\":0,\"proxy\":0,\"hosting\":169,\"service\":191}"},"geometry":{"type":"Point","coordinates":[11.96679,57.70716]}},{"type":"Feature","properties":{"country_code":"THA","city":"Bangkok","geoname_id":"1609350","downloaders":"{\"size\":11235,\"mobile\":4094,\"satellite\":0,\"tor\":0,\"tor_exit_nodes\":0,\"vpn\":496,\"relay\":0,\"proxy\":0,\"hosting\":991,\"service\":337}","uploaders":"{\"size\":307,\"mobile\":131,\"satellite\":0,\"tor\":0,\"tor_exit_nodes\":0,\"vpn\":21,\"relay\":0,\"proxy\":0,\"hosting\":32,\"service\":21}"},"geometry":{"type":"Point","coordinates":[100.50144,13.75398]}},{"type":"Feature","properties":{"country_code":"KOR","city":"Uijeongbu-si","geoname_id":"1833788","downloaders":"{\"size\":11131,\"mobile\":0,\"satellite\":0,\"tor\":0,\"tor_exit_nodes\":0,\"vpn\":81,\"relay\":0,\"proxy\":0,\"hosting\":0,\"service\":24}","uploaders":"{\"size\":8,\"mobile\":0,\"satellite\":0,\"tor\":0,\"tor_exit_nodes\":0,\"vpn\":1,\"relay\":0,\"proxy\":0,\"hosting\":0,\"service\":0}"},"geometry":{"type":"Point","coordinates":[127.0474,37.7415]}},{"type":"Feature","properties":{"country_code":"RUS","city":"Smolensk","geoname_id":"491687","downloaders":"{\"size\":11127,\"mobile\":9,\"satellite\":0,\"tor\":0,\"tor_exit_nodes\":0,\"vpn\":105,\"relay\":0,\"proxy\":0,\"hosting\":0,\"service\":17}","uploaders":"{\"size\":9,\"mobile\":0,\"satellite\":0,\"tor\":0,\"tor_exit_nodes\":0,\"vpn\":0,\"relay\":0,\"proxy\":0,\"hosting\":0,\"service\":0}"},"geometry":{"type":"Point","coordinates":[32.04371,54.77944]}},{"type":"Feature","properties":{"country_code":"RUS","city":"Kaluga","geoname_id":"553915","downloaders":"{\"size\":11094,\"mobile\":123,\"satellite\":0,\"tor\":0,\"tor_exit_nodes\":0,\"vpn\":338,\"relay\":0,\"proxy\":0,\"hosting\":2,\"service\":3}","uploaders":"{\"size\":37,\"mobile\":0,\"satellite\":0,\"tor\":0,\"tor_exit_nodes\":0,\"vpn\":7,\"relay\":0,\"proxy\":0,\"hosting\":0,\"service\":0}"},"geometry":{"type":"Point","coordinates":[36.27542,54.5293]}},{"type":"Feature","properties":{"country_code":"MAR","city":"Casablanca","geoname_id":"2553604","downloaders":"{\"size\":11078,\"mobile\":4701,\"satellite\":0,\"tor\":0,\"tor_exit_nodes\":0,\"vpn\":10,\"relay\":0,\"proxy\":0,\"hosting\":7,\"service\":0}","uploaders":"{\"size\":1016,\"mobile\":413,\"satellite\":0,\"tor\":0,\"tor_exit_nodes\":0,\"vpn\":2,\"relay\":0,\"proxy\":0,\"hosting\":0,\"service\":0}"},"geometry":{"type":"Point","coordinates":[-7.61138,33.58831]}},{"type":"Feature","properties":{"country_code":"TUR","city":"Kayseri","geoname_id":"308464","downloaders":"{\"size\":11061,\"mobile\":2501,\"satellite\":0,\"tor\":0,\"tor_exit_nodes\":0,\"vpn\":2,\"relay\":0,\"proxy\":0,\"hosting\":0,\"service\":0}","uploaders":"{\"size\":9,\"mobile\":4,\"satellite\":0,\"tor\":0,\"tor_exit_nodes\":0,\"vpn\":0,\"relay\":0,\"proxy\":0,\"hosting\":0,\"service\":0}"},"geometry":{"type":"Point","coordinates":[35.48528,38.73222]}},{"type":"Feature","properties":{"country_code":"RUS","city":"Ivanovo","geoname_id":"555312","downloaders":"{\"size\":10884,\"mobile\":583,\"satellite\":0,\"tor\":0,\"tor_exit_nodes\":0,\"vpn\":348,\"relay\":0,\"proxy\":0,\"hosting\":0,\"service\":22}","uploaders":"{\"size\":24,\"mobile\":1,\"satellite\":0,\"tor\":0,\"tor_exit_nodes\":0,\"vpn\":0,\"relay\":0,\"proxy\":0,\"hosting\":0,\"service\":0}"},"geometry":{"type":"Point","coordinates":[40.97139,56.99719]}},{"type":"Feature","properties":{"country_code":"USA","city":"Phoenix","geoname_id":"5308655","downloaders":"{\"size\":10830,\"mobile\":108,\"satellite\":115,\"tor\":0,\"tor_exit_nodes\":0,\"vpn\":2751,\"relay\":9,\"proxy\":0,\"hosting\":4476,\"service\":2600}","uploaders":"{\"size\":482,\"mobile\":5,\"satellite\":10,\"tor\":0,\"tor_exit_nodes\":0,\"vpn\":354,\"relay\":0,\"proxy\":0,\"hosting\":422,\"service\":345}"},"geometry":{"type":"Point","coordinates":[-112.07404,33.44838]}},{"type":"Feature","properties":{"country_code":"EGY","city":"Cairo","geoname_id":"360630","downloaders":"{\"size\":10782,\"mobile\":1008,\"satellite\":0,\"tor\":0,\"tor_exit_nodes\":0,\"vpn\":39,\"relay\":0,\"proxy\":0,\"hosting\":49,\"service\":35}","uploaders":"{\"size\":379,\"mobile\":77,\"satellite\":0,\"tor\":0,\"tor_exit_nodes\":0,\"vpn\":6,\"relay\":0,\"proxy\":0,\"hosting\":6,\"service\":6}"},"geometry":{"type":"Point","coordinates":[31.24967,30.06263]}},{"type":"Feature","properties":{"country_code":"JPN","city":"Yokohama","geoname_id":"1848354","downloaders":"{\"size\":10667,\"mobile\":897,\"satellite\":0,\"tor\":0,\"tor_exit_nodes\":0,\"vpn\":720,\"relay\":0,\"proxy\":0,\"hosting\":273,\"service\":486}","uploaders":"{\"size\":17,\"mobile\":5,\"satellite\":0,\"tor\":0,\"tor_exit_nodes\":0,\"vpn\":0,\"relay\":0,\"proxy\":0,\"hosting\":0,\"service\":0}"},"geometry":{"type":"Point","coordinates":[139.65,35.43333]}},{"type":"Feature","properties":{"country_code":"RUS","city":"Stavropol’","geoname_id":"487846","downloaders":"{\"size\":10562,\"mobile\":2993,\"satellite\":0,\"tor\":0,\"tor_exit_nodes\":0,\"vpn\":71,\"relay\":0,\"proxy\":0,\"hosting\":0,\"service\":8}","uploaders":"{\"size\":59,\"mobile\":23,\"satellite\":0,\"tor\":0,\"tor_exit_nodes\":0,\"vpn\":0,\"relay\":0,\"proxy\":0,\"hosting\":0,\"service\":0}"},"geometry":{"type":"Point","coordinates":[41.9734,45.0428]}},{"type":"Feature","properties":{"country_code":"DNK","city":"Copenhagen","geoname_id":"2618425","downloaders":"{\"size\":10521,\"mobile\":1332,\"satellite\":0,\"tor\":0,\"tor_exit_nodes\":0,\"vpn\":2477,\"relay\":0,\"proxy\":0,\"hosting\":2482,\"service\":1901}","uploaders":"{\"size\":929,\"mobile\":289,\"satellite\":0,\"tor\":0,\"tor_exit_nodes\":0,\"vpn\":366,\"relay\":0,\"proxy\":0,\"hosting\":389,\"service\":364}"},"geometry":{"type":"Point","coordinates":[12.56553,55.67594]}},{"type":"Feature","properties":{"country_code":"RUS","city":"Korolev","geoname_id":"554233","downloaders":"{\"size\":10452,\"mobile\":10,\"satellite\":0,\"tor\":0,\"tor_exit_nodes\":0,\"vpn\":251,\"relay\":0,\"proxy\":0,\"hosting\":360,\"service\":2}","uploaders":"{\"size\":22,\"mobile\":0,\"satellite\":0,\"tor\":0,\"tor_exit_nodes\":0,\"vpn\":0,\"relay\":0,\"proxy\":0,\"hosting\":1,\"service\":0}"},"geometry":{"type":"Point","coordinates":[37.82556,55.91417]}},{"type":"Feature","properties":{"country_code":"RUS","city":"Kursk","geoname_id":"538560","downloaders":"{\"size\":10420,\"mobile\":15,\"satellite\":0,\"tor\":0,\"tor_exit_nodes\":0,\"vpn\":91,\"relay\":0,\"proxy\":3,\"hosting\":258,\"service\":2}","uploaders":"{\"size\":25,\"mobile\":1,\"satellite\":0,\"tor\":0,\"tor_exit_nodes\":0,\"vpn\":0,\"relay\":0,\"proxy\":0,\"hosting\":0,\"service\":0}"},"geometry":{"type":"Point","coordinates":[36.18712,51.73758]}},{"type":"Feature","properties":{"country_code":"PAK","city":"Lahore","geoname_id":"1172451","downloaders":"{\"size\":10293,\"mobile\":227,\"satellite\":1,\"tor\":0,\"tor_exit_nodes\":0,\"vpn\":32,\"relay\":0,\"proxy\":0,\"hosting\":8230,\"service\":0}","uploaders":"{\"size\":490,\"mobile\":50,\"satellite\":1,\"tor\":0,\"tor_exit_nodes\":0,\"vpn\":1,\"relay\":0,\"proxy\":0,\"hosting\":96,\"service\":0}"},"geometry":{"type":"Point","coordinates":[74.35071,31.558]}},{"type":"Feature","properties":{"country_code":"KOR","city":"Gumi","geoname_id":"1842225","downloaders":"{\"size\":10262,\"mobile\":2,\"satellite\":0,\"tor\":0,\"tor_exit_nodes\":0,\"vpn\":34,\"relay\":0,\"proxy\":0,\"hosting\":0,\"service\":25}","uploaders":"{\"size\":7,\"mobile\":0,\"satellite\":0,\"tor\":0,\"tor_exit_nodes\":0,\"vpn\":0,\"relay\":0,\"proxy\":0,\"hosting\":0,\"service\":0}"},"geometry":{"type":"Point","coordinates":[128.336,36.1136]}},{"type":"Feature","properties":{"country_code":"GRC","city":"Thessaloníki","geoname_id":"734077","downloaders":"{\"size\":10235,\"mobile\":2753,\"satellite\":0,\"tor\":0,\"tor_exit_nodes\":0,\"vpn\":21,\"relay\":0,\"proxy\":0,\"hosting\":363,\"service\":17}","uploaders":"{\"size\":1767,\"mobile\":772,\"satellite\":0,\"tor\":0,\"tor_exit_nodes\":0,\"vpn\":1,\"relay\":0,\"proxy\":0,\"hosting\":53,\"service\":0}"},"geometry":{"type":"Point","coordinates":[22.93086,40.64361]}},{"type":"Feature","properties":{"country_code":"SAU","city":"Jeddah","geoname_id":"105343","downloaders":"{\"size\":10164,\"mobile\":1767,\"satellite\":0,\"tor\":0,\"tor_exit_nodes\":0,\"vpn\":52,\"relay\":0,\"proxy\":0,\"hosting\":52,\"service\":33}","uploaders":"{\"size\":405,\"mobile\":176,\"satellite\":0,\"tor\":0,\"tor_exit_nodes\":0,\"vpn\":12,\"relay\":0,\"proxy\":0,\"hosting\":13,\"service\":11}"},"geometry":{"type":"Point","coordinates":[39.18624,21.49012]}},{"type":"Feature","properties":{"country_code":"KAZ","city":"Almaty","geoname_id":"1526384","downloaders":"{\"size\":10141,\"mobile\":1154,\"satellite\":0,\"tor\":0,\"tor_exit_nodes\":0,\"vpn\":84,\"relay\":0,\"proxy\":0,\"hosting\":1835,\"service\":5}","uploaders":"{\"size\":42,\"mobile\":9,\"satellite\":0,\"tor\":0,\"tor_exit_nodes\":0,\"vpn\":0,\"relay\":0,\"proxy\":0,\"hosting\":4,\"service\":0}"},"geometry":{"type":"Point","coordinates":[76.9115,43.25249]}},{"type":"Feature","properties":{"country_code":"RUS","city":"Podolsk","geoname_id":"508101","downloaders":"{\"size\":10109,\"mobile\":69,\"satellite\":0,\"tor\":0,\"tor_exit_nodes\":0,\"vpn\":298,\"relay\":0,\"proxy\":0,\"hosting\":262,\"service\":10}","uploaders":"{\"size\":11,\"mobile\":0,\"satellite\":0,\"tor\":0,\"tor_exit_nodes\":0,\"vpn\":0,\"relay\":0,\"proxy\":0,\"hosting\":0,\"service\":0}"},"geometry":{"type":"Point","coordinates":[37.55472,55.42419]}},{"type":"Feature","properties":{"country_code":"TUR","city":"Diyarbakır","geoname_id":"316541","downloaders":"{\"size\":10042,\"mobile\":2177,\"satellite\":0,\"tor\":0,\"tor_exit_nodes\":0,\"vpn\":1,\"relay\":0,\"proxy\":0,\"hosting\":0,\"service\":0}","uploaders":"{\"size\":5,\"mobile\":0,\"satellite\":0,\"tor\":0,\"tor_exit_nodes\":0,\"vpn\":0,\"relay\":0,\"proxy\":0,\"hosting\":0,\"service\":0}"},"geometry":{"type":"Point","coordinates":[40.21721,37.91363]}},{"type":"Feature","properties":{"country_code":"RUS","city":"Murmansk","geoname_id":"524305","downloaders":"{\"size\":10013,\"mobile\":592,\"satellite\":0,\"tor\":0,\"tor_exit_nodes\":0,\"vpn\":105,\"relay\":0,\"proxy\":0,\"hosting\":0,\"service\":9}","uploaders":"{\"size\":11,\"mobile\":0,\"satellite\":0,\"tor\":0,\"tor_exit_nodes\":0,\"vpn\":1,\"relay\":0,\"proxy\":0,\"hosting\":0,\"service\":0}"},"geometry":{"type":"Point","coordinates":[33.09747,68.97398]}},{"type":"Feature","properties":{"country_code":"ZAF","city":"Cape Town","geoname_id":"3369157","downloaders":"{\"size\":9890,\"mobile\":1429,\"satellite\":0,\"tor\":0,\"tor_exit_nodes\":0,\"vpn\":116,\"relay\":0,\"proxy\":0,\"hosting\":3483,\"service\":3}","uploaders":"{\"size\":2077,\"mobile\":513,\"satellite\":0,\"tor\":0,\"tor_exit_nodes\":0,\"vpn\":9,\"relay\":0,\"proxy\":0,\"hosting\":643,\"service\":0}"},"geometry":{"type":"Point","coordinates":[18.42322,-33.92584]}},{"type":"Feature","properties":{"country_code":"RUS","city":"Lyubertsy","geoname_id":"532615","downloaders":"{\"size\":9810,\"mobile\":82,\"satellite\":0,\"tor\":0,\"tor_exit_nodes\":0,\"vpn\":270,\"relay\":0,\"proxy\":0,\"hosting\":1219,\"service\":5}","uploaders":"{\"size\":15,\"mobile\":0,\"satellite\":0,\"tor\":0,\"tor_exit_nodes\":0,\"vpn\":1,\"relay\":0,\"proxy\":0,\"hosting\":1,\"service\":0}"},"geometry":{"type":"Point","coordinates":[37.89322,55.67719]}},{"type":"Feature","properties":{"country_code":"KOR","city":"Jeju City","geoname_id":"1846266","downloaders":"{\"size\":9707,\"mobile\":0,\"satellite\":0,\"tor\":0,\"tor_exit_nodes\":0,\"vpn\":46,\"relay\":0,\"proxy\":0,\"hosting\":0,\"service\":8}","uploaders":"{\"size\":10,\"mobile\":0,\"satellite\":0,\"tor\":0,\"tor_exit_nodes\":0,\"vpn\":0,\"relay\":0,\"proxy\":0,\"hosting\":0,\"service\":0}"},"geometry":{"type":"Point","coordinates":[126.52194,33.50972]}},{"type":"Feature","properties":{"country_code":"RUS","city":"Pushkino","geoname_id":"503977","downloaders":"{\"size\":9690,\"mobile\":12,\"satellite\":0,\"tor\":0,\"tor_exit_nodes\":0,\"vpn\":325,\"relay\":0,\"proxy\":0,\"hosting\":200,\"service\":0}","uploaders":"{\"size\":14,\"mobile\":0,\"satellite\":0,\"tor\":0,\"tor_exit_nodes\":0,\"vpn\":0,\"relay\":0,\"proxy\":0,\"hosting\":0,\"service\":0}"},"geometry":{"type":"Point","coordinates":[37.82897,55.99456]}},{"type":"Feature","properties":{"country_code":"KOR","city":"Kimhae","geoname_id":"1842943","downloaders":"{\"size\":9629,\"mobile\":11,\"satellite\":0,\"tor\":0,\"tor_exit_nodes\":0,\"vpn\":62,\"relay\":0,\"proxy\":0,\"hosting\":0,\"service\":2}","uploaders":"{\"size\":5,\"mobile\":0,\"satellite\":0,\"tor\":0,\"tor_exit_nodes\":0,\"vpn\":0,\"relay\":0,\"proxy\":0,\"hosting\":0,\"service\":0}"},"geometry":{"type":"Point","coordinates":[128.88111,35.23417]}},{"type":"Feature","properties":{"country_code":"AUS","city":"Perth","geoname_id":"2063523","downloaders":"{\"size\":9617,\"mobile\":466,\"satellite\":65,\"tor\":0,\"tor_exit_nodes\":0,\"vpn\":1912,\"relay\":0,\"proxy\":0,\"hosting\":2075,\"service\":1709}","uploaders":"{\"size\":858,\"mobile\":89,\"satellite\":16,\"tor\":0,\"tor_exit_nodes\":0,\"vpn\":220,\"relay\":0,\"proxy\":0,\"hosting\":248,\"service\":217}"},"geometry":{"type":"Point","coordinates":[115.8614,-31.95224]}},{"type":"Feature","properties":{"country_code":"POL","city":"Wrocław","geoname_id":"3081368","downloaders":"{\"size\":9483,\"mobile\":119,\"satellite\":0,\"tor\":0,\"tor_exit_nodes\":0,\"vpn\":84,\"relay\":0,\"proxy\":0,\"hosting\":33,\"service\":0}","uploaders":"{\"size\":42,\"mobile\":2,\"satellite\":0,\"tor\":0,\"tor_exit_nodes\":0,\"vpn\":1,\"relay\":0,\"proxy\":0,\"hosting\":1,\"service\":0}"},"geometry":{"type":"Point","coordinates":[17.03333,51.1]}},{"type":"Feature","properties":{"country_code":"UZB","city":"Tashkent","geoname_id":"1512569","downloaders":"{\"size\":9455,\"mobile\":207,\"satellite\":0,\"tor\":0,\"tor_exit_nodes\":0,\"vpn\":280,\"relay\":0,\"proxy\":0,\"hosting\":7570,\"service\":180}","uploaders":"{\"size\":53,\"mobile\":20,\"satellite\":0,\"tor\":0,\"tor_exit_nodes\":0,\"vpn\":1,\"relay\":0,\"proxy\":0,\"hosting\":29,\"service\":0}"},"geometry":{"type":"Point","coordinates":[69.21627,41.26465]}},{"type":"Feature","properties":{"country_code":"CHN","city":"Shaoxing","geoname_id":"1795855","downloaders":"{\"size\":9409,\"mobile\":0,\"satellite\":0,\"tor\":0,\"tor_exit_nodes\":0,\"vpn\":17,\"relay\":0,\"proxy\":0,\"hosting\":7810,\"service\":0}","uploaders":"{\"size\":5,\"mobile\":0,\"satellite\":0,\"tor\":0,\"tor_exit_nodes\":0,\"vpn\":0,\"relay\":0,\"proxy\":0,\"hosting\":1,\"service\":0}"},"geometry":{"type":"Point","coordinates":[120.57864,30.00237]}},{"type":"Feature","properties":{"country_code":"TWN","city":"Taichung","geoname_id":"1668399","downloaders":"{\"size\":9291,\"mobile\":212,\"satellite\":0,\"tor\":0,\"tor_exit_nodes\":0,\"vpn\":401,\"relay\":0,\"proxy\":0,\"hosting\":5,\"service\":0}","uploaders":"{\"size\":61,\"mobile\":0,\"satellite\":0,\"tor\":0,\"tor_exit_nodes\":0,\"vpn\":0,\"relay\":0,\"proxy\":0,\"hosting\":0,\"service\":0}"},"geometry":{"type":"Point","coordinates":[120.6839,24.1469]}},{"type":"Feature","properties":{"country_code":"RUS","city":"Mytishchi","geoname_id":"523812","downloaders":"{\"size\":9289,\"mobile\":15,\"satellite\":0,\"tor\":0,\"tor_exit_nodes\":0,\"vpn\":389,\"relay\":0,\"proxy\":0,\"hosting\":184,\"service\":5}","uploaders":"{\"size\":5,\"mobile\":0,\"satellite\":0,\"tor\":0,\"tor_exit_nodes\":0,\"vpn\":0,\"relay\":0,\"proxy\":0,\"hosting\":0,\"service\":0}"},"geometry":{"type":"Point","coordinates":[37.72964,55.91099]}},{"type":"Feature","properties":{"country_code":"KOR","city":"Chinju","geoname_id":"1846052","downloaders":"{\"size\":9238,\"mobile\":2,\"satellite\":0,\"tor\":0,\"tor_exit_nodes\":0,\"vpn\":88,\"relay\":0,\"proxy\":0,\"hosting\":0,\"service\":8}","uploaders":"{\"size\":8,\"mobile\":0,\"satellite\":0,\"tor\":0,\"tor_exit_nodes\":0,\"vpn\":1,\"relay\":0,\"proxy\":0,\"hosting\":0,\"service\":0}"},"geometry":{"type":"Point","coordinates":[128.08472,35.19278]}},{"type":"Feature","properties":{"country_code":"KOR","city":"Chuncheon","geoname_id":"1845136","downloaders":"{\"size\":9193,\"mobile\":3,\"satellite\":0,\"tor\":0,\"tor_exit_nodes\":0,\"vpn\":136,\"relay\":0,\"proxy\":0,\"hosting\":1829,\"service\":39}","uploaders":"{\"size\":6,\"mobile\":0,\"satellite\":0,\"tor\":0,\"tor_exit_nodes\":0,\"vpn\":0,\"relay\":0,\"proxy\":0,\"hosting\":2,\"service\":0}"},"geometry":{"type":"Point","coordinates":[127.73417,37.87472]}},{"type":"Feature","properties":{"country_code":"URY","city":"Montevideo","geoname_id":"3441575","downloaders":"{\"size\":9128,\"mobile\":246,\"satellite\":1,\"tor\":0,\"tor_exit_nodes\":0,\"vpn\":57,\"relay\":0,\"proxy\":0,\"hosting\":0,\"service\":0}","uploaders":"{\"size\":1258,\"mobile\":47,\"satellite\":0,\"tor\":0,\"tor_exit_nodes\":0,\"vpn\":18,\"relay\":0,\"proxy\":0,\"hosting\":0,\"service\":0}"},"geometry":{"type":"Point","coordinates":[-56.18816,-34.90328]}},{"type":"Feature","properties":{"country_code":"KOR","city":"Pohang","geoname_id":"1839071","downloaders":"{\"size\":9015,\"mobile\":1,\"satellite\":0,\"tor\":0,\"tor_exit_nodes\":0,\"vpn\":23,\"relay\":0,\"proxy\":0,\"hosting\":0,\"service\":1}","uploaders":"{\"size\":5,\"mobile\":0,\"satellite\":0,\"tor\":0,\"tor_exit_nodes\":0,\"vpn\":0,\"relay\":0,\"proxy\":0,\"hosting\":0,\"service\":0}"},"geometry":{"type":"Point","coordinates":[129.36481,36.02917]}},{"type":"Feature","properties":{"country_code":"USA","city":"San Jose","geoname_id":"5392171","downloaders":"{\"size\":9009,\"mobile\":10,\"satellite\":62,\"tor\":6,\"tor_exit_nodes\":4,\"vpn\":4824,\"relay\":2,\"proxy\":0,\"hosting\":7060,\"service\":4708}","uploaders":"{\"size\":788,\"mobile\":0,\"satellite\":0,\"tor\":2,\"tor_exit_nodes\":2,\"vpn\":539,\"relay\":0,\"proxy\":0,\"hosting\":746,\"service\":538}"},"geometry":{"type":"Point","coordinates":[-121.8896,37.2568]}},{"type":"Feature","properties":{"country_code":"RUS","city":"Tambov","geoname_id":"484646","downloaders":"{\"size\":9008,\"mobile\":143,\"satellite\":0,\"tor\":0,\"tor_exit_nodes\":0,\"vpn\":85,\"relay\":0,\"proxy\":0,\"hosting\":0,\"service\":0}","uploaders":"{\"size\":23,\"mobile\":0,\"satellite\":0,\"tor\":0,\"tor_exit_nodes\":0,\"vpn\":0,\"relay\":0,\"proxy\":0,\"hosting\":0,\"service\":0}"},"geometry":{"type":"Point","coordinates":[41.44326,52.73169]}},{"type":"Feature","properties":{"country_code":"KOR","city":"Osan","geoname_id":"1839652","downloaders":"{\"size\":8955,\"mobile\":0,\"satellite\":0,\"tor\":0,\"tor_exit_nodes\":0,\"vpn\":123,\"relay\":0,\"proxy\":0,\"hosting\":0,\"service\":11}","uploaders":"{\"size\":3,\"mobile\":0,\"satellite\":0,\"tor\":0,\"tor_exit_nodes\":0,\"vpn\":0,\"relay\":0,\"proxy\":0,\"hosting\":0,\"service\":0}"},"geometry":{"type":"Point","coordinates":[127.07056,37.15222]}},{"type":"Feature","properties":{"country_code":"DEU","city":"Düsseldorf","geoname_id":"2934246","downloaders":"{\"size\":8936,\"mobile\":4209,\"satellite\":0,\"tor\":0,\"tor_exit_nodes\":0,\"vpn\":382,\"relay\":0,\"proxy\":1,\"hosting\":989,\"service\":351}","uploaders":"{\"size\":69,\"mobile\":10,\"satellite\":0,\"tor\":0,\"tor_exit_nodes\":0,\"vpn\":26,\"relay\":0,\"proxy\":0,\"hosting\":39,\"service\":26}"},"geometry":{"type":"Point","coordinates":[6.77616,51.22172]}},{"type":"Feature","properties":{"country_code":"RUS","city":"Belgorod","geoname_id":"578072","downloaders":"{\"size\":8910,\"mobile\":1407,\"satellite\":0,\"tor\":0,\"tor_exit_nodes\":0,\"vpn\":134,\"relay\":0,\"proxy\":0,\"hosting\":9,\"service\":9}","uploaders":"{\"size\":12,\"mobile\":1,\"satellite\":0,\"tor\":0,\"tor_exit_nodes\":0,\"vpn\":0,\"relay\":0,\"proxy\":0,\"hosting\":0,\"service\":0}"},"geometry":{"type":"Point","coordinates":[36.58015,50.61074]}},{"type":"Feature","properties":{"country_code":"CHN","city":"Changsha","geoname_id":"1815577","downloaders":"{\"size\":8901,\"mobile\":0,\"satellite\":0,\"tor\":0,\"tor_exit_nodes\":0,\"vpn\":327,\"relay\":0,\"proxy\":0,\"hosting\":0,\"service\":0}","uploaders":"{\"size\":86,\"mobile\":0,\"satellite\":0,\"tor\":0,\"tor_exit_nodes\":0,\"vpn\":3,\"relay\":0,\"proxy\":0,\"hosting\":0,\"service\":0}"},"geometry":{"type":"Point","coordinates":[112.97087,28.19874]}},