{"type":"FeatureCollection","id":"Summer I turned pretty","swarm_features":117,"features":[{"type":"Feature","properties":{"country_code":"KOR","city":"Seoul","geoname_id":"1835848","downloaders":"{\"size\":839767,\"mobile\":3779,\"satellite\":0,\"tor\":0,\"tor_exit_nodes\":0,\"vpn\":18881,\"relay\":0,\"proxy\":119,\"hosting\":5590,\"service\":3085}","uploaders":"{\"size\":516,\"mobile\":3,\"satellite\":0,\"tor\":0,\"tor_exit_nodes\":0,\"vpn\":44,\"relay\":0,\"proxy\":0,\"hosting\":69,\"service\":23}"},"geometry":{"type":"Point","coordinates":[126.9784,37.566]}},{"type":"Feature","properties":{"country_code":"RUS","city":"Moscow","geoname_id":"524901","downloaders":"{\"size\":598000,\"mobile\":30178,\"satellite\":4,\"tor\":0,\"tor_exit_nodes\":0,\"vpn\":24511,\"relay\":0,\"proxy\":431,\"hosting\":35736,\"service\":3457}","uploaders":"{\"size\":1703,\"mobile\":159,\"satellite\":0,\"tor\":0,\"tor_exit_nodes\":0,\"vpn\":62,\"relay\":0,\"proxy\":0,\"hosting\":572,\"service\":6}"},"geometry":{"type":"Point","coordinates":[37.61781,55.75204]}},{"type":"Feature","properties":{"country_code":"CHN","city":"Shanghai","geoname_id":"1796236","downloaders":"{\"size\":505436,\"mobile\":809,\"satellite\":0,\"tor\":0,\"tor_exit_nodes\":0,\"vpn\":16227,\"relay\":0,\"proxy\":2,\"hosting\":56860,\"service\":22}","uploaders":"{\"size\":2352,\"mobile\":12,\"satellite\":0,\"tor\":0,\"tor_exit_nodes\":0,\"vpn\":47,\"relay\":0,\"proxy\":0,\"hosting\":129,\"service\":0}"},"geometry":{"type":"Point","coordinates":[121.45806,31.22222]}},{"type":"Feature","properties":{"country_code":"TUR","city":"Istanbul","geoname_id":"745044","downloaders":"{\"size\":460068,\"mobile\":40150,\"satellite\":0,\"tor\":0,\"tor_exit_nodes\":0,\"vpn\":692,\"relay\":0,\"proxy\":27,\"hosting\":992,\"service\":464}","uploaders":"{\"size\":605,\"mobile\":70,\"satellite\":0,\"tor\":0,\"tor_exit_nodes\":0,\"vpn\":69,\"relay\":0,\"proxy\":0,\"hosting\":74,\"service\":64}"},"geometry":{"type":"Point","coordinates":[28.94966,41.01384]}},{"type":"Feature","properties":{"country_code":"RUS","city":"Saint Petersburg","geoname_id":"498817","downloaders":"{\"size\":338569,\"mobile\":20116,\"satellite\":0,\"tor\":0,\"tor_exit_nodes\":0,\"vpn\":3151,\"relay\":0,\"proxy\":63,\"hosting\":9151,\"service\":872}","uploaders":"{\"size\":640,\"mobile\":45,\"satellite\":0,\"tor\":0,\"tor_exit_nodes\":0,\"vpn\":9,\"relay\":0,\"proxy\":0,\"hosting\":41,\"service\":6}"},"geometry":{"type":"Point","coordinates":[30.31413,59.93863]}},{"type":"Feature","properties":{"country_code":"NLD","city":"Amsterdam","geoname_id":"2759794","downloaders":"{\"size\":304793,\"mobile\":422,\"satellite\":38,\"tor\":4,\"tor_exit_nodes\":14,\"vpn\":118291,\"relay\":0,\"proxy\":950,\"hosting\":265563,\"service\":60559}","uploaders":"{\"size\":8990,\"mobile\":63,\"satellite\":9,\"tor\":2,\"tor_exit_nodes\":1,\"vpn\":6726,\"relay\":0,\"proxy\":85,\"hosting\":6951,\"service\":6186}"},"geometry":{"type":"Point","coordinates":[4.88969,52.37403]}},{"type":"Feature","properties":{"country_code":"CHN","city":"Nanjing","geoname_id":"1799962","downloaders":"{\"size\":247518,\"mobile\":21,\"satellite\":0,\"tor\":0,\"tor_exit_nodes\":0,\"vpn\":4601,\"relay\":0,\"proxy\":0,\"hosting\":771,\"service\":0}","uploaders":"{\"size\":914,\"mobile\":2,\"satellite\":0,\"tor\":0,\"tor_exit_nodes\":0,\"vpn\":25,\"relay\":0,\"proxy\":0,\"hosting\":24,\"service\":0}"},"geometry":{"type":"Point","coordinates":[118.77778,32.06167]}},{"type":"Feature","properties":{"country_code":"HUN","city":"Budapest","geoname_id":"3054643","downloaders":"{\"size\":210189,\"mobile\":10148,\"satellite\":17,\"tor\":0,\"tor_exit_nodes\":3,\"vpn\":7565,\"relay\":0,\"proxy\":8,\"hosting\":5722,\"service\":2372}","uploaders":"{\"size\":861,\"mobile\":98,\"satellite\":2,\"tor\":0,\"tor_exit_nodes\":0,\"vpn\":152,\"relay\":0,\"proxy\":0,\"hosting\":162,\"service\":144}"},"geometry":{"type":"Point","coordinates":[19.04045,47.49835]}},{"type":"Feature","properties":{"country_code":"USA","city":"Ashburn","geoname_id":"4744870","downloaders":"{\"size\":196003,\"mobile\":54,\"satellite\":108,\"tor\":1,\"tor_exit_nodes\":0,\"vpn\":8103,\"relay\":0,\"proxy\":56,\"hosting\":194550,\"service\":7621}","uploaders":"{\"size\":60101,\"mobile\":2,\"satellite\":15,\"tor\":0,\"tor_exit_nodes\":0,\"vpn\":554,\"relay\":0,\"proxy\":6,\"hosting\":60070,\"service\":523}"},"geometry":{"type":"Point","coordinates":[-77.48749,39.04372]}},{"type":"Feature","properties":{"country_code":"POL","city":"Warsaw","geoname_id":"756135","downloaders":"{\"size\":181361,\"mobile\":15998,\"satellite\":146,\"tor\":0,\"tor_exit_nodes\":1,\"vpn\":6419,\"relay\":0,\"proxy\":47,\"hosting\":8725,\"service\":4910}","uploaders":"{\"size\":1112,\"mobile\":165,\"satellite\":4,\"tor\":0,\"tor_exit_nodes\":0,\"vpn\":331,\"relay\":0,\"proxy\":0,\"hosting\":407,\"service\":312}"},"geometry":{"type":"Point","coordinates":[21.01178,52.22977]}},{"type":"Feature","properties":{"country_code":"KOR","city":"Incheon","geoname_id":"1843564","downloaders":"{\"size\":161166,\"mobile\":673,\"satellite\":0,\"tor\":0,\"tor_exit_nodes\":0,\"vpn\":2188,\"relay\":0,\"proxy\":31,\"hosting\":326,\"service\":417}","uploaders":"{\"size\":64,\"mobile\":1,\"satellite\":0,\"tor\":0,\"tor_exit_nodes\":0,\"vpn\":2,\"relay\":0,\"proxy\":0,\"hosting\":11,\"service\":0}"},"geometry":{"type":"Point","coordinates":[126.70515,37.45646]}},{"type":"Feature","properties":{"country_code":"RUS","city":"Yekaterinburg","geoname_id":"1486209","downloaders":"{\"size\":155606,\"mobile\":13292,\"satellite\":0,\"tor\":0,\"tor_exit_nodes\":0,\"vpn\":5451,\"relay\":0,\"proxy\":9,\"hosting\":239,\"service\":354}","uploaders":"{\"size\":217,\"mobile\":25,\"satellite\":0,\"tor\":0,\"tor_exit_nodes\":0,\"vpn\":8,\"relay\":0,\"proxy\":0,\"hosting\":1,\"service\":0}"},"geometry":{"type":"Point","coordinates":[60.61529,56.85733]}},{"type":"Feature","properties":{"country_code":"GBR","city":"London","geoname_id":"2643743","downloaders":"{\"size\":155357,\"mobile\":7363,\"satellite\":140,\"tor\":0,\"tor_exit_nodes\":0,\"vpn\":27902,\"relay\":18,\"proxy\":203,\"hosting\":34467,\"service\":25470}","uploaders":"{\"size\":5818,\"mobile\":649,\"satellite\":24,\"tor\":0,\"tor_exit_nodes\":0,\"vpn\":3144,\"relay\":0,\"proxy\":15,\"hosting\":2642,\"service\":2975}"},"geometry":{"type":"Point","coordinates":[-0.12574,51.50853]}},{"type":"Feature","properties":{"country_code":"CHN","city":"Shenzhen","geoname_id":"1795565","downloaders":"{\"size\":150699,\"mobile\":73,\"satellite\":0,\"tor\":0,\"tor_exit_nodes\":0,\"vpn\":7323,\"relay\":0,\"proxy\":0,\"hosting\":1996,\"service\":0}","uploaders":"{\"size\":758,\"mobile\":0,\"satellite\":0,\"tor\":0,\"tor_exit_nodes\":0,\"vpn\":21,\"relay\":0,\"proxy\":0,\"hosting\":19,\"service\":0}"},"geometry":{"type":"Point","coordinates":[114.0683,22.54554]}},{"type":"Feature","properties":{"country_code":"CHN","city":"Hangzhou","geoname_id":"1808926","downloaders":"{\"size\":148370,\"mobile\":0,\"satellite\":0,\"tor\":0,\"tor_exit_nodes\":0,\"vpn\":2236,\"relay\":0,\"proxy\":0,\"hosting\":4978,\"service\":0}","uploaders":"{\"size\":297,\"mobile\":0,\"satellite\":0,\"tor\":0,\"tor_exit_nodes\":0,\"vpn\":6,\"relay\":0,\"proxy\":0,\"hosting\":65,\"service\":0}"},"geometry":{"type":"Point","coordinates":[120.16142,30.29365]}},{"type":"Feature","properties":{"country_code":"RUS","city":"Novosibirsk","geoname_id":"1496747","downloaders":"{\"size\":136240,\"mobile\":12786,\"satellite\":1,\"tor\":0,\"tor_exit_nodes\":0,\"vpn\":1916,\"relay\":0,\"proxy\":57,\"hosting\":447,\"service\":209}","uploaders":"{\"size\":179,\"mobile\":35,\"satellite\":0,\"tor\":0,\"tor_exit_nodes\":0,\"vpn\":2,\"relay\":0,\"proxy\":0,\"hosting\":38,\"service\":0}"},"geometry":{"type":"Point","coordinates":[82.93175,55.02259]}},{"type":"Feature","properties":{"country_code":"FRA","city":"Paris","geoname_id":"2988507","downloaders":"{\"size\":134282,\"mobile\":19650,\"satellite\":230,\"tor\":5,\"tor_exit_nodes\":43,\"vpn\":29641,\"relay\":4,\"proxy\":72,\"hosting\":51906,\"service\":23184}","uploaders":"{\"size\":3391,\"mobile\":1045,\"satellite\":12,\"tor\":0,\"tor_exit_nodes\":3,\"vpn\":1164,\"relay\":4,\"proxy\":2,\"hosting\":1060,\"service\":1076}"},"geometry":{"type":"Point","coordinates":[2.3488,48.85341]}},{"type":"Feature","properties":{"country_code":"TUR","city":"Ankara","geoname_id":"323786","downloaders":"{\"size\":131752,\"mobile\":7901,\"satellite\":0,\"tor\":0,\"tor_exit_nodes\":0,\"vpn\":28,\"relay\":0,\"proxy\":0,\"hosting\":48,\"service\":0}","uploaders":"{\"size\":186,\"mobile\":25,\"satellite\":0,\"tor\":0,\"tor_exit_nodes\":0,\"vpn\":0,\"relay\":0,\"proxy\":0,\"hosting\":6,\"service\":0}"},"geometry":{"type":"Point","coordinates":[32.85427,39.91987]}},{"type":"Feature","properties":{"country_code":"RUS","city":"Nizhniy Novgorod","geoname_id":"520555","downloaders":"{\"size\":105408,\"mobile\":22630,\"satellite\":0,\"tor\":0,\"tor_exit_nodes\":0,\"vpn\":1429,\"relay\":0,\"proxy\":2,\"hosting\":68,\"service\":87}","uploaders":"{\"size\":144,\"mobile\":38,\"satellite\":0,\"tor\":0,\"tor_exit_nodes\":0,\"vpn\":2,\"relay\":0,\"proxy\":0,\"hosting\":0,\"service\":0}"},"geometry":{"type":"Point","coordinates":[44.00205,56.32867]}},{"type":"Feature","properties":{"country_code":"KOR","city":"Busan","geoname_id":"1838524","downloaders":"{\"size\":104480,\"mobile\":811,\"satellite\":0,\"tor\":0,\"tor_exit_nodes\":0,\"vpn\":761,\"relay\":0,\"proxy\":22,\"hosting\":1,\"service\":92}","uploaders":"{\"size\":46,\"mobile\":0,\"satellite\":0,\"tor\":0,\"tor_exit_nodes\":0,\"vpn\":0,\"relay\":0,\"proxy\":0,\"hosting\":0,\"service\":0}"},"geometry":{"type":"Point","coordinates":[129.03004,35.10168]}},{"type":"Feature","properties":{"country_code":"ESP","city":"Madrid","geoname_id":"3117735","downloaders":"{\"size\":100616,\"mobile\":36996,\"satellite\":849,\"tor\":0,\"tor_exit_nodes\":0,\"vpn\":9147,\"relay\":6,\"proxy\":8,\"hosting\":9298,\"service\":8133}","uploaders":"{\"size\":2486,\"mobile\":772,\"satellite\":228,\"tor\":0,\"tor_exit_nodes\":0,\"vpn\":646,\"relay\":0,\"proxy\":0,\"hosting\":675,\"service\":619}"},"geometry":{"type":"Point","coordinates":[-3.70256,40.4165]}},{"type":"Feature","properties":{"country_code":"BGR","city":"Sofia","geoname_id":"727011","downloaders":"{\"size\":98741,\"mobile\":16366,\"satellite\":141,\"tor\":0,\"tor_exit_nodes\":0,\"vpn\":6663,\"relay\":0,\"proxy\":4,\"hosting\":8094,\"service\":3787}","uploaders":"{\"size\":1250,\"mobile\":345,\"satellite\":3,\"tor\":0,\"tor_exit_nodes\":0,\"vpn\":280,\"relay\":0,\"proxy\":0,\"hosting\":286,\"service\":270}"},"geometry":{"type":"Point","coordinates":[23.32415,42.69751]}},{"type":"Feature","properties":{"country_code":"MEX","city":"Mexico City","geoname_id":"3530597","downloaders":"{\"size\":91936,\"mobile\":224,\"satellite\":464,\"tor\":0,\"tor_exit_nodes\":0,\"vpn\":283,\"relay\":1,\"proxy\":0,\"hosting\":380,\"service\":204}","uploaders":"{\"size\":1997,\"mobile\":2,\"satellite\":11,\"tor\":0,\"tor_exit_nodes\":0,\"vpn\":20,\"relay\":0,\"proxy\":0,\"hosting\":22,\"service\":20}"},"geometry":{"type":"Point","coordinates":[-99.12766,19.42847]}},{"type":"Feature","properties":{"country_code":"CAN","city":"Toronto","geoname_id":"6167865","downloaders":"{\"size\":89594,\"mobile\":7992,\"satellite\":239,\"tor\":71,\"tor_exit_nodes\":364,\"vpn\":43847,\"relay\":5,\"proxy\":147,\"hosting\":45420,\"service\":41120}","uploaders":"{\"size\":5464,\"mobile\":156,\"satellite\":10,\"tor\":12,\"tor_exit_nodes\":51,\"vpn\":4412,\"relay\":0,\"proxy\":3,\"hosting\":4370,\"service\":4123}"},"geometry":{"type":"Point","coordinates":[-79.39864,43.70643]}},{"type":"Feature","properties":{"country_code":"KOR","city":"Daegu","geoname_id":"1835329","downloaders":"{\"size\":88080,\"mobile\":217,\"satellite\":0,\"tor\":0,\"tor_exit_nodes\":0,\"vpn\":908,\"relay\":0,\"proxy\":10,\"hosting\":1492,\"service\":175}","uploaders":"{\"size\":43,\"mobile\":0,\"satellite\":0,\"tor\":0,\"tor_exit_nodes\":0,\"vpn\":0,\"relay\":0,\"proxy\":0,\"hosting\":1,\"service\":0}"},"geometry":{"type":"Point","coordinates":[128.59111,35.87028]}},{"type":"Feature","properties":{"country_code":"RUS","city":"Krasnodar","geoname_id":"542420","downloaders":"{\"size\":87337,\"mobile\":16671,\"satellite\":0,\"tor\":0,\"tor_exit_nodes\":0,\"vpn\":508,\"relay\":0,\"proxy\":12,\"hosting\":173,\"service\":19}","uploaders":"{\"size\":177,\"mobile\":33,\"satellite\":0,\"tor\":0,\"tor_exit_nodes\":0,\"vpn\":1,\"relay\":0,\"proxy\":0,\"hosting\":0,\"service\":1}"},"geometry":{"type":"Point","coordinates":[38.98178,45.04534]}},{"type":"Feature","properties":{"country_code":"TUR","city":"İzmir","geoname_id":"311046","downloaders":"{\"size\":85559,\"mobile\":15527,\"satellite\":0,\"tor\":0,\"tor_exit_nodes\":0,\"vpn\":11,\"relay\":0,\"proxy\":0,\"hosting\":10,\"service\":4}","uploaders":"{\"size\":71,\"mobile\":13,\"satellite\":0,\"tor\":0,\"tor_exit_nodes\":0,\"vpn\":0,\"relay\":0,\"proxy\":0,\"hosting\":0,\"service\":0}"},"geometry":{"type":"Point","coordinates":[27.13838,38.41273]}},{"type":"Feature","properties":{"country_code":"BRA","city":"São Paulo","geoname_id":"3448439","downloaders":"{\"size\":81415,\"mobile\":13153,\"satellite\":650,\"tor\":0,\"tor_exit_nodes\":0,\"vpn\":2653,\"relay\":0,\"proxy\":34,\"hosting\":6401,\"service\":2190}","uploaders":"{\"size\":1245,\"mobile\":303,\"satellite\":21,\"tor\":0,\"tor_exit_nodes\":0,\"vpn\":207,\"relay\":0,\"proxy\":0,\"hosting\":316,\"service\":193}"},"geometry":{"type":"Point","coordinates":[-46.63611,-23.5475]}},{"type":"Feature","properties":{"country_code":"RUS","city":"Samara","geoname_id":"499099","downloaders":"{\"size\":80829,\"mobile\":8816,\"satellite\":0,\"tor\":0,\"tor_exit_nodes\":0,\"vpn\":2435,\"relay\":0,\"proxy\":2,\"hosting\":95,\"service\":1593}","uploaders":"{\"size\":77,\"mobile\":15,\"satellite\":0,\"tor\":0,\"tor_exit_nodes\":0,\"vpn\":2,\"relay\":0,\"proxy\":0,\"hosting\":0,\"service\":2}"},"geometry":{"type":"Point","coordinates":[50.13553,53.20767]}},{"type":"Feature","properties":{"country_code":"RUS","city":"Voronezh","geoname_id":"472045","downloaders":"{\"size\":78613,\"mobile\":285,\"satellite\":1,\"tor\":0,\"tor_exit_nodes\":0,\"vpn\":645,\"relay\":0,\"proxy\":10,\"hosting\":1409,\"service\":2}","uploaders":"{\"size\":147,\"mobile\":1,\"satellite\":0,\"tor\":0,\"tor_exit_nodes\":0,\"vpn\":16,\"relay\":0,\"proxy\":0,\"hosting\":3,\"service\":0}"},"geometry":{"type":"Point","coordinates":[39.19204,51.66833]}},{"type":"Feature","properties":{"country_code":"BEL","city":"Brussels","geoname_id":"2800866","downloaders":"{\"size\":78572,\"mobile\":2011,\"satellite\":62,\"tor\":0,\"tor_exit_nodes\":14,\"vpn\":4739,\"relay\":0,\"proxy\":15,\"hosting\":3624,\"service\":4340}","uploaders":"{\"size\":4081,\"mobile\":553,\"satellite\":10,\"tor\":0,\"tor_exit_nodes\":0,\"vpn\":444,\"relay\":0,\"proxy\":0,\"hosting\":339,\"service\":425}"},"geometry":{"type":"Point","coordinates":[4.34878,50.85045]}},{"type":"Feature","properties":{"country_code":"USA","city":"New York City","geoname_id":"5128581","downloaders":"{\"size\":72852,\"mobile\":711,\"satellite\":72,\"tor\":0,\"tor_exit_nodes\":0,\"vpn\":33702,\"relay\":11,\"proxy\":25,\"hosting\":35763,\"service\":32237}","uploaders":"{\"size\":3641,\"mobile\":37,\"satellite\":2,\"tor\":0,\"tor_exit_nodes\":0,\"vpn\":3191,\"relay\":0,\"proxy\":2,\"hosting\":3150,\"service\":3037}"},"geometry":{"type":"Point","coordinates":[-74.00597,40.71427]}},{"type":"Feature","properties":{"country_code":"RUS","city":"Rostov-na-Donu","geoname_id":"501175","downloaders":"{\"size\":72788,\"mobile\":3980,\"satellite\":0,\"tor\":0,\"tor_exit_nodes\":0,\"vpn\":470,\"relay\":0,\"proxy\":0,\"hosting\":1697,\"service\":270}","uploaders":"{\"size\":123,\"mobile\":14,\"satellite\":0,\"tor\":0,\"tor_exit_nodes\":0,\"vpn\":1,\"relay\":0,\"proxy\":0,\"hosting\":4,\"service\":1}"},"geometry":{"type":"Point","coordinates":[39.70769,47.219970000000004]}},{"type":"Feature","properties":{"country_code":"CAN","city":"Montréal","geoname_id":"6077243","downloaders":"{\"size\":72203,\"mobile\":4731,\"satellite\":9,\"tor\":0,\"tor_exit_nodes\":64,\"vpn\":26591,\"relay\":2,\"proxy\":1217,\"hosting\":26204,\"service\":25376}","uploaders":"{\"size\":3058,\"mobile\":98,\"satellite\":0,\"tor\":0,\"tor_exit_nodes\":15,\"vpn\":2217,\"relay\":0,\"proxy\":119,\"hosting\":1952,\"service\":2169}"},"geometry":{"type":"Point","coordinates":[-73.58781,45.50884]}},{"type":"Feature","properties":{"country_code":"RUS","city":"Khimki","geoname_id":"550280","downloaders":"{\"size\":69615,\"mobile\":49,\"satellite\":6,\"tor\":0,\"tor_exit_nodes\":0,\"vpn\":4920,\"relay\":0,\"proxy\":90,\"hosting\":29640,\"service\":1258}","uploaders":"{\"size\":91,\"mobile\":0,\"satellite\":0,\"tor\":0,\"tor_exit_nodes\":0,\"vpn\":7,\"relay\":0,\"proxy\":0,\"hosting\":43,\"service\":4}"},"geometry":{"type":"Point","coordinates":[37.42848,55.9001]}},{"type":"Feature","properties":{"country_code":"TUR","city":"Bursa","geoname_id":"750269","downloaders":"{\"size\":69119,\"mobile\":6993,\"satellite\":0,\"tor\":0,\"tor_exit_nodes\":0,\"vpn\":19,\"relay\":0,\"proxy\":1,\"hosting\":275,\"service\":0}","uploaders":"{\"size\":58,\"mobile\":10,\"satellite\":0,\"tor\":0,\"tor_exit_nodes\":0,\"vpn\":0,\"relay\":0,\"proxy\":0,\"hosting\":0,\"service\":0}"},"geometry":{"type":"Point","coordinates":[29.06013,40.19559]}},{"type":"Feature","properties":{"country_code":"KOR","city":"Suwon","geoname_id":"1835553","downloaders":"{\"size\":68285,\"mobile\":89,\"satellite\":0,\"tor\":0,\"tor_exit_nodes\":0,\"vpn\":859,\"relay\":0,\"proxy\":36,\"hosting\":0,\"service\":37}","uploaders":"{\"size\":35,\"mobile\":0,\"satellite\":0,\"tor\":0,\"tor_exit_nodes\":0,\"vpn\":0,\"relay\":0,\"proxy\":0,\"hosting\":0,\"service\":0}"},"geometry":{"type":"Point","coordinates":[127.00889,37.29111]}},{"type":"Feature","properties":{"country_code":"RUS","city":"Perm","geoname_id":"511196","downloaders":"{\"size\":66928,\"mobile\":3290,\"satellite\":0,\"tor\":0,\"tor_exit_nodes\":0,\"vpn\":737,\"relay\":0,\"proxy\":17,\"hosting\":0,\"service\":8}","uploaders":"{\"size\":80,\"mobile\":11,\"satellite\":0,\"tor\":0,\"tor_exit_nodes\":0,\"vpn\":2,\"relay\":0,\"proxy\":0,\"hosting\":0,\"service\":0}"},"geometry":{"type":"Point","coordinates":[56.25017,58.01046]}},{"type":"Feature","properties":{"country_code":"RUS","city":"Chelyabinsk","geoname_id":"1508291","downloaders":"{\"size\":65593,\"mobile\":5330,\"satellite\":0,\"tor\":0,\"tor_exit_nodes\":0,\"vpn\":552,\"relay\":0,\"proxy\":11,\"hosting\":37,\"service\":34}","uploaders":"{\"size\":87,\"mobile\":10,\"satellite\":0,\"tor\":0,\"tor_exit_nodes\":0,\"vpn\":0,\"relay\":0,\"proxy\":0,\"hosting\":0,\"service\":0}"},"geometry":{"type":"Point","coordinates":[61.42877,55.1611]}},{"type":"Feature","properties":{"country_code":"RUS","city":"Krasnoyarsk","geoname_id":"1502026","downloaders":"{\"size\":63599,\"mobile\":5687,\"satellite\":1,\"tor\":0,\"tor_exit_nodes\":0,\"vpn\":1371,\"relay\":0,\"proxy\":21,\"hosting\":4,\"service\":660}","uploaders":"{\"size\":123,\"mobile\":15,\"satellite\":0,\"tor\":0,\"tor_exit_nodes\":0,\"vpn\":13,\"relay\":0,\"proxy\":0,\"hosting\":0,\"service\":2}"},"geometry":{"type":"Point","coordinates":[92.93136,56.03742]}},{"type":"Feature","properties":{"country_code":"RUS","city":"Ufa","geoname_id":"479561","downloaders":"{\"size\":62219,\"mobile\":1833,\"satellite\":0,\"tor\":0,\"tor_exit_nodes\":0,\"vpn\":551,\"relay\":0,\"proxy\":4,\"hosting\":0,\"service\":43}","uploaders":"{\"size\":84,\"mobile\":2,\"satellite\":0,\"tor\":0,\"tor_exit_nodes\":0,\"vpn\":1,\"relay\":0,\"proxy\":0,\"hosting\":0,\"service\":0}"},"geometry":{"type":"Point","coordinates":[55.96779,54.74306]}},{"type":"Feature","properties":{"country_code":"KOR","city":"Daejeon","geoname_id":"1835235","downloaders":"{\"size\":61105,\"mobile\":135,\"satellite\":0,\"tor\":0,\"tor_exit_nodes\":0,\"vpn\":688,\"relay\":0,\"proxy\":33,\"hosting\":0,\"service\":73}","uploaders":"{\"size\":27,\"mobile\":0,\"satellite\":0,\"tor\":0,\"tor_exit_nodes\":0,\"vpn\":0,\"relay\":0,\"proxy\":0,\"hosting\":0,\"service\":0}"},"geometry":{"type":"Point","coordinates":[127.38493,36.34913]}},{"type":"Feature","properties":{"country_code":"BLR","city":"Minsk","geoname_id":"625144","downloaders":"{\"size\":60072,\"mobile\":394,\"satellite\":0,\"tor\":0,\"tor_exit_nodes\":0,\"vpn\":1323,\"relay\":0,\"proxy\":37,\"hosting\":493,\"service\":40}","uploaders":"{\"size\":174,\"mobile\":7,\"satellite\":0,\"tor\":0,\"tor_exit_nodes\":0,\"vpn\":3,\"relay\":0,\"proxy\":0,\"hosting\":8,\"service\":0}"},"geometry":{"type":"Point","coordinates":[27.56653,53.90019]}},{"type":"Feature","properties":{"country_code":"KOR","city":"Goyang-si","geoname_id":"1842485","downloaders":"{\"size\":59682,\"mobile\":885,\"satellite\":0,\"tor\":0,\"tor_exit_nodes\":0,\"vpn\":991,\"relay\":0,\"proxy\":44,\"hosting\":0,\"service\":80}","uploaders":"{\"size\":29,\"mobile\":0,\"satellite\":0,\"tor\":0,\"tor_exit_nodes\":0,\"vpn\":0,\"relay\":0,\"proxy\":0,\"hosting\":0,\"service\":0}"},"geometry":{"type":"Point","coordinates":[126.835,37.65639]}},{"type":"Feature","properties":{"country_code":"RUS","city":"Tyumen","geoname_id":"1488754","downloaders":"{\"size\":58934,\"mobile\":7816,\"satellite\":0,\"tor\":0,\"tor_exit_nodes\":0,\"vpn\":667,\"relay\":0,\"proxy\":0,\"hosting\":0,\"service\":34}","uploaders":"{\"size\":45,\"mobile\":1,\"satellite\":0,\"tor\":0,\"tor_exit_nodes\":0,\"vpn\":1,\"relay\":0,\"proxy\":0,\"hosting\":0,\"service\":0}"},"geometry":{"type":"Point","coordinates":[65.52722,57.15222]}},{"type":"Feature","properties":{"country_code":"RUS","city":"Barnaul","geoname_id":"1510853","downloaders":"{\"size\":57046,\"mobile\":40,\"satellite\":0,\"tor\":0,\"tor_exit_nodes\":0,\"vpn\":336,\"relay\":0,\"proxy\":0,\"hosting\":0,\"service\":103}","uploaders":"{\"size\":64,\"mobile\":0,\"satellite\":0,\"tor\":0,\"tor_exit_nodes\":0,\"vpn\":0,\"relay\":0,\"proxy\":0,\"hosting\":0,\"service\":0}"},"geometry":{"type":"Point","coordinates":[83.72786,53.36199]}},{"type":"Feature","properties":{"country_code":"HKG","city":"Hong Kong","geoname_id":"1819729","downloaders":"{\"size\":56190,\"mobile\":679,\"satellite\":0,\"tor\":0,\"tor_exit_nodes\":0,\"vpn\":5143,\"relay\":0,\"proxy\":51,\"hosting\":10222,\"service\":2661}","uploaders":"{\"size\":768,\"mobile\":27,\"satellite\":0,\"tor\":0,\"tor_exit_nodes\":0,\"vpn\":197,\"relay\":0,\"proxy\":2,\"hosting\":459,\"service\":190}"},"geometry":{"type":"Point","coordinates":[114.17469,22.27832]}},{"type":"Feature","properties":{"country_code":"RUS","city":"Omsk","geoname_id":"1496153","downloaders":"{\"size\":56189,\"mobile\":3298,\"satellite\":0,\"tor\":0,\"tor_exit_nodes\":0,\"vpn\":458,\"relay\":0,\"proxy\":0,\"hosting\":18,\"service\":40}","uploaders":"{\"size\":62,\"mobile\":9,\"satellite\":0,\"tor\":0,\"tor_exit_nodes\":0,\"vpn\":0,\"relay\":0,\"proxy\":0,\"hosting\":0,\"service\":0}"},"geometry":{"type":"Point","coordinates":[73.36859,54.99244]}},{"type":"Feature","properties":{"country_code":"RUS","city":"Tomsk","geoname_id":"1489425","downloaders":"{\"size\":55223,\"mobile\":102,\"satellite\":0,\"tor\":0,\"tor_exit_nodes\":0,\"vpn\":587,\"relay\":0,\"proxy\":0,\"hosting\":188,\"service\":34}","uploaders":"{\"size\":63,\"mobile\":0,\"satellite\":0,\"tor\":0,\"tor_exit_nodes\":0,\"vpn\":1,\"relay\":0,\"proxy\":0,\"hosting\":0,\"service\":0}"},"geometry":{"type":"Point","coordinates":[84.98216,56.50049]}},{"type":"Feature","properties":{"country_code":"FIN","city":"Helsinki","geoname_id":"658225","downloaders":"{\"size\":54596,\"mobile\":833,\"satellite\":20,\"tor\":0,\"tor_exit_nodes\":0,\"vpn\":8144,\"relay\":0,\"proxy\":57,\"hosting\":45775,\"service\":4862}","uploaders":"{\"size\":474,\"mobile\":24,\"satellite\":0,\"tor\":0,\"tor_exit_nodes\":0,\"vpn\":224,\"relay\":0,\"proxy\":2,\"hosting\":393,\"service\":196}"},"geometry":{"type":"Point","coordinates":[24.93545,60.16952]}},{"type":"Feature","properties":{"country_code":"RUS","city":"Saratov","geoname_id":"498677","downloaders":"{\"size\":54493,\"mobile\":1409,\"satellite\":0,\"tor\":0,\"tor_exit_nodes\":0,\"vpn\":491,\"relay\":0,\"proxy\":0,\"hosting\":125,\"service\":25}","uploaders":"{\"size\":109,\"mobile\":39,\"satellite\":0,\"tor\":0,\"tor_exit_nodes\":0,\"vpn\":1,\"relay\":0,\"proxy\":0,\"hosting\":0,\"service\":0}"},"geometry":{"type":"Point","coordinates":[45.9901,51.54048]}},{"type":"Feature","properties":{"country_code":"AUS","city":"Sydney","geoname_id":"2147714","downloaders":"{\"size\":54143,\"mobile\":2152,\"satellite\":576,\"tor\":3,\"tor_exit_nodes\":0,\"vpn\":11476,\"relay\":27,\"proxy\":115,\"hosting\":15011,\"service\":9723}","uploaders":"{\"size\":3631,\"mobile\":230,\"satellite\":95,\"tor\":0,\"tor_exit_nodes\":0,\"vpn\":1226,\"relay\":0,\"proxy\":7,\"hosting\":1311,\"service\":1142}"},"geometry":{"type":"Point","coordinates":[151.1935,-33.926]}},{"type":"Feature","properties":{"country_code":"CHN","city":"Beijing","geoname_id":"1816670","downloaders":"{\"size\":53615,\"mobile\":0,\"satellite\":0,\"tor\":0,\"tor_exit_nodes\":0,\"vpn\":1320,\"relay\":0,\"proxy\":2,\"hosting\":5404,\"service\":0}","uploaders":"{\"size\":527,\"mobile\":0,\"satellite\":0,\"tor\":0,\"tor_exit_nodes\":0,\"vpn\":8,\"relay\":0,\"proxy\":0,\"hosting\":167,\"service\":0}"},"geometry":{"type":"Point","coordinates":[116.39723,39.9075]}},{"type":"Feature","properties":{"country_code":"JPN","city":"Tokyo","geoname_id":"1850147","downloaders":"{\"size\":52492,\"mobile\":3225,\"satellite\":31,\"tor\":0,\"tor_exit_nodes\":0,\"vpn\":10586,\"relay\":0,\"proxy\":34,\"hosting\":14040,\"service\":9133}","uploaders":"{\"size\":552,\"mobile\":21,\"satellite\":0,\"tor\":0,\"tor_exit_nodes\":0,\"vpn\":437,\"relay\":0,\"proxy\":1,\"hosting\":480,\"service\":433}"},"geometry":{"type":"Point","coordinates":[139.69171,35.6895]}},{"type":"Feature","properties":{"country_code":"KOR","city":"Seongnam-si","geoname_id":"1897000","downloaders":"{\"size\":52198,\"mobile\":452,\"satellite\":0,\"tor\":0,\"tor_exit_nodes\":0,\"vpn\":774,\"relay\":0,\"proxy\":15,\"hosting\":0,\"service\":50}","uploaders":"{\"size\":20,\"mobile\":0,\"satellite\":0,\"tor\":0,\"tor_exit_nodes\":0,\"vpn\":1,\"relay\":0,\"proxy\":0,\"hosting\":0,\"service\":0}"},"geometry":{"type":"Point","coordinates":[127.13778,37.43861]}},{"type":"Feature","properties":{"country_code":"DEU","city":"Frankfurt am Main","geoname_id":"2925533","downloaders":"{\"size\":51743,\"mobile\":1410,\"satellite\":0,\"tor\":0,\"tor_exit_nodes\":107,\"vpn\":19511,\"relay\":1,\"proxy\":77,\"hosting\":41316,\"service\":17692}","uploaders":"{\"size\":1816,\"mobile\":7,\"satellite\":0,\"tor\":0,\"tor_exit_nodes\":0,\"vpn\":1272,\"relay\":0,\"proxy\":0,\"hosting\":1616,\"service\":1230}"},"geometry":{"type":"Point","coordinates":[8.68417,50.11552]}},{"type":"Feature","properties":{"country_code":"KOR","city":"Gwangju","geoname_id":"1841811","downloaders":"{\"size\":51306,\"mobile\":78,\"satellite\":0,\"tor\":0,\"tor_exit_nodes\":0,\"vpn\":418,\"relay\":0,\"proxy\":7,\"hosting\":0,\"service\":170}","uploaders":"{\"size\":22,\"mobile\":0,\"satellite\":0,\"tor\":0,\"tor_exit_nodes\":0,\"vpn\":0,\"relay\":0,\"proxy\":0,\"hosting\":0,\"service\":0}"},"geometry":{"type":"Point","coordinates":[126.91556,35.15472]}},{"type":"Feature","properties":{"country_code":"KOR","city":"Hwaseong-si","geoname_id":"1843847","downloaders":"{\"size\":49949,\"mobile\":102,\"satellite\":0,\"tor\":0,\"tor_exit_nodes\":0,\"vpn\":622,\"relay\":0,\"proxy\":2,\"hosting\":0,\"service\":43}","uploaders":"{\"size\":21,\"mobile\":0,\"satellite\":0,\"tor\":0,\"tor_exit_nodes\":0,\"vpn\":1,\"relay\":0,\"proxy\":0,\"hosting\":0,\"service\":0}"},"geometry":{"type":"Point","coordinates":[126.8169,37.20682]}},{"type":"Feature","properties":{"country_code":"RUS","city":"Kemerovo","geoname_id":"1503901","downloaders":"{\"size\":49847,\"mobile\":116,\"satellite\":0,\"tor\":0,\"tor_exit_nodes\":0,\"vpn\":260,\"relay\":0,\"proxy\":4,\"hosting\":94,\"service\":15}","uploaders":"{\"size\":47,\"mobile\":0,\"satellite\":0,\"tor\":0,\"tor_exit_nodes\":0,\"vpn\":0,\"relay\":0,\"proxy\":0,\"hosting\":0,\"service\":0}"},"geometry":{"type":"Point","coordinates":[86.10435,55.35417]}},{"type":"Feature","properties":{"country_code":"SWE","city":"Stockholm","geoname_id":"2673730","downloaders":"{\"size\":49522,\"mobile\":3525,\"satellite\":11,\"tor\":17,\"tor_exit_nodes\":4,\"vpn\":22560,\"relay\":0,\"proxy\":110,\"hosting\":17857,\"service\":20098}","uploaders":"{\"size\":2592,\"mobile\":733,\"satellite\":0,\"tor\":10,\"tor_exit_nodes\":1,\"vpn\":1582,\"relay\":0,\"proxy\":2,\"hosting\":1282,\"service\":1523}"},"geometry":{"type":"Point","coordinates":[18.06871,59.32938]}},{"type":"Feature","properties":{"country_code":"CHE","city":"Zürich","geoname_id":"2657896","downloaders":"{\"size\":48771,\"mobile\":4321,\"satellite\":73,\"tor\":0,\"tor_exit_nodes\":0,\"vpn\":27890,\"relay\":4,\"proxy\":50,\"hosting\":28869,\"service\":26825}","uploaders":"{\"size\":4043,\"mobile\":530,\"satellite\":26,\"tor\":0,\"tor_exit_nodes\":0,\"vpn\":2703,\"relay\":1,\"proxy\":1,\"hosting\":2435,\"service\":2645}"},"geometry":{"type":"Point","coordinates":[8.55,47.36667]}},{"type":"Feature","properties":{"country_code":"UKR","city":"Kyiv","geoname_id":"703448","downloaders":"{\"size\":48732,\"mobile\":344,\"satellite\":503,\"tor\":0,\"tor_exit_nodes\":0,\"vpn\":2649,\"relay\":2,\"proxy\":1,\"hosting\":9061,\"service\":1204}","uploaders":"{\"size\":372,\"mobile\":8,\"satellite\":1,\"tor\":0,\"tor_exit_nodes\":0,\"vpn\":80,\"relay\":0,\"proxy\":0,\"hosting\":189,\"service\":75}"},"geometry":{"type":"Point","coordinates":[30.5238,50.45466]}},{"type":"Feature","properties":{"country_code":"AUS","city":"Melbourne","geoname_id":"2158177","downloaders":"{\"size\":48287,\"mobile\":2020,\"satellite\":291,\"tor\":0,\"tor_exit_nodes\":0,\"vpn\":8023,\"relay\":0,\"proxy\":14,\"hosting\":9516,\"service\":6477}","uploaders":"{\"size\":3721,\"mobile\":274,\"satellite\":69,\"tor\":0,\"tor_exit_nodes\":0,\"vpn\":892,\"relay\":0,\"proxy\":0,\"hosting\":1083,\"service\":837}"},"geometry":{"type":"Point","coordinates":[144.96332,-37.814]}},{"type":"Feature","properties":{"country_code":"USA","city":"Los Angeles","geoname_id":"5368361","downloaders":"{\"size\":46714,\"mobile\":635,\"satellite\":15,\"tor\":0,\"tor_exit_nodes\":0,\"vpn\":24293,\"relay\":3,\"proxy\":11,\"hosting\":34461,\"service\":22012}","uploaders":"{\"size\":3314,\"mobile\":28,\"satellite\":0,\"tor\":0,\"tor_exit_nodes\":0,\"vpn\":2159,\"relay\":0,\"proxy\":0,\"hosting\":3008,\"service\":1948}"},"geometry":{"type":"Point","coordinates":[-118.2666,34.0559]}},{"type":"Feature","properties":{"country_code":"ITA","city":"Milan","geoname_id":"3173435","downloaders":"{\"size\":45517,\"mobile\":9518,\"satellite\":228,\"tor\":1,\"tor_exit_nodes\":0,\"vpn\":5842,\"relay\":3,\"proxy\":7,\"hosting\":6004,\"service\":5232}","uploaders":"{\"size\":988,\"mobile\":161,\"satellite\":7,\"tor\":1,\"tor_exit_nodes\":0,\"vpn\":330,\"relay\":0,\"proxy\":0,\"hosting\":353,\"service\":327}"},"geometry":{"type":"Point","coordinates":[9.18951,45.46427]}},{"type":"Feature","properties":{"country_code":"NLD","city":"Lelystad","geoname_id":"2751738","downloaders":"{\"size\":45501,\"mobile\":147,\"satellite\":0,\"tor\":14,\"tor_exit_nodes\":34,\"vpn\":8295,\"relay\":0,\"proxy\":74,\"hosting\":43243,\"service\":1811}","uploaders":"{\"size\":369,\"mobile\":11,\"satellite\":0,\"tor\":8,\"tor_exit_nodes\":6,\"vpn\":98,\"relay\":0,\"proxy\":1,\"hosting\":280,\"service\":80}"},"geometry":{"type":"Point","coordinates":[5.475,52.50833]}},{"type":"Feature","properties":{"country_code":"POL","city":"Poznań","geoname_id":"3088171","downloaders":"{\"size\":45336,\"mobile\":1596,\"satellite\":0,\"tor\":1,\"tor_exit_nodes\":0,\"vpn\":262,\"relay\":0,\"proxy\":0,\"hosting\":112,\"service\":0}","uploaders":"{\"size\":109,\"mobile\":26,\"satellite\":0,\"tor\":1,\"tor_exit_nodes\":0,\"vpn\":1,\"relay\":0,\"proxy\":0,\"hosting\":2,\"service\":0}"},"geometry":{"type":"Point","coordinates":[16.92993,52.40692]}},{"type":"Feature","properties":{"country_code":"SVN","city":"Ljubljana","geoname_id":"3196359","downloaders":"{\"size\":44410,\"mobile\":1229,\"satellite\":15,\"tor\":0,\"tor_exit_nodes\":0,\"vpn\":1956,\"relay\":0,\"proxy\":0,\"hosting\":908,\"service\":867}","uploaders":"{\"size\":1180,\"mobile\":308,\"satellite\":2,\"tor\":0,\"tor_exit_nodes\":0,\"vpn\":104,\"relay\":0,\"proxy\":0,\"hosting\":91,\"service\":91}"},"geometry":{"type":"Point","coordinates":[14.50513,46.05108]}},{"type":"Feature","properties":{"country_code":"LVA","city":"Riga","geoname_id":"456172","downloaders":"{\"size\":44258,\"mobile\":1576,\"satellite\":30,\"tor\":0,\"tor_exit_nodes\":0,\"vpn\":2294,\"relay\":0,\"proxy\":6,\"hosting\":4509,\"service\":1586}","uploaders":"{\"size\":730,\"mobile\":148,\"satellite\":1,\"tor\":0,\"tor_exit_nodes\":0,\"vpn\":125,\"relay\":0,\"proxy\":0,\"hosting\":139,\"service\":120}"},"geometry":{"type":"Point","coordinates":[24.10589,56.946]}},{"type":"Feature","properties":{"country_code":"KOR","city":"Ansan-si","geoname_id":"1846918","downloaders":"{\"size\":43685,\"mobile\":83,\"satellite\":0,\"tor\":0,\"tor_exit_nodes\":0,\"vpn\":372,\"relay\":0,\"proxy\":12,\"hosting\":0,\"service\":32}","uploaders":"{\"size\":14,\"mobile\":0,\"satellite\":0,\"tor\":0,\"tor_exit_nodes\":0,\"vpn\":0,\"relay\":0,\"proxy\":0,\"hosting\":0,\"service\":0}"},"geometry":{"type":"Point","coordinates":[126.82194,37.32361]}},{"type":"Feature","properties":{"country_code":"RUS","city":"Tula","geoname_id":"480562","downloaders":"{\"size\":43500,\"mobile\":8556,\"satellite\":0,\"tor\":0,\"tor_exit_nodes\":0,\"vpn\":414,\"relay\":0,\"proxy\":1,\"hosting\":0,\"service\":0}","uploaders":"{\"size\":36,\"mobile\":2,\"satellite\":0,\"tor\":0,\"tor_exit_nodes\":0,\"vpn\":1,\"relay\":0,\"proxy\":0,\"hosting\":0,\"service\":0}"},"geometry":{"type":"Point","coordinates":[37.61822,54.19609]}},{"type":"Feature","properties":{"country_code":"ROU","city":"Bucharest","geoname_id":"683506","downloaders":"{\"size\":43448,\"mobile\":9401,\"satellite\":7,\"tor\":66,\"tor_exit_nodes\":1,\"vpn\":8237,\"relay\":0,\"proxy\":38,\"hosting\":8815,\"service\":6702}","uploaders":"{\"size\":1510,\"mobile\":224,\"satellite\":0,\"tor\":3,\"tor_exit_nodes\":0,\"vpn\":592,\"relay\":0,\"proxy\":5,\"hosting\":643,\"service\":543}"},"geometry":{"type":"Point","coordinates":[26.10626,44.43225]}},{"type":"Feature","properties":{"country_code":"RUS","city":"Lipetsk","geoname_id":"535121","downloaders":"{\"size\":42263,\"mobile\":6575,\"satellite\":0,\"tor\":0,\"tor_exit_nodes\":0,\"vpn\":243,\"relay\":0,\"proxy\":2,\"hosting\":0,\"service\":7}","uploaders":"{\"size\":35,\"mobile\":4,\"satellite\":0,\"tor\":0,\"tor_exit_nodes\":0,\"vpn\":0,\"relay\":0,\"proxy\":0,\"hosting\":0,\"service\":0}"},"geometry":{"type":"Point","coordinates":[39.55151,52.5876]}},{"type":"Feature","properties":{"country_code":"USA","city":"Chicago","geoname_id":"4887398","downloaders":"{\"size\":41700,\"mobile\":1018,\"satellite\":251,\"tor\":0,\"tor_exit_nodes\":0,\"vpn\":28897,\"relay\":7,\"proxy\":2,\"hosting\":27152,\"service\":24036}","uploaders":"{\"size\":1946,\"mobile\":36,\"satellite\":11,\"tor\":0,\"tor_exit_nodes\":0,\"vpn\":1780,\"relay\":0,\"proxy\":0,\"hosting\":1651,\"service\":1562}"},"geometry":{"type":"Point","coordinates":[-87.7069,41.7781]}},{"type":"Feature","properties":{"country_code":"KOR","city":"Cheongju-si","geoname_id":"1845604","downloaders":"{\"size\":41471,\"mobile\":36,\"satellite\":0,\"tor\":0,\"tor_exit_nodes\":0,\"vpn\":403,\"relay\":0,\"proxy\":7,\"hosting\":0,\"service\":63}","uploaders":"{\"size\":16,\"mobile\":0,\"satellite\":0,\"tor\":0,\"tor_exit_nodes\":0,\"vpn\":1,\"relay\":0,\"proxy\":0,\"hosting\":0,\"service\":0}"},"geometry":{"type":"Point","coordinates":[127.48972,36.63722]}},{"type":"Feature","properties":{"country_code":"CHN","city":"Zhengzhou","geoname_id":"1784658","downloaders":"{\"size\":41050,\"mobile\":0,\"satellite\":0,\"tor\":0,\"tor_exit_nodes\":0,\"vpn\":611,\"relay\":0,\"proxy\":0,\"hosting\":29,\"service\":0}","uploaders":"{\"size\":177,\"mobile\":0,\"satellite\":0,\"tor\":0,\"tor_exit_nodes\":0,\"vpn\":0,\"relay\":0,\"proxy\":0,\"hosting\":0,\"service\":0}"},"geometry":{"type":"Point","coordinates":[113.64861,34.75778]}},{"type":"Feature","properties":{"country_code":"RUS","city":"Volgograd","geoname_id":"472757","downloaders":"{\"size\":40739,\"mobile\":4615,\"satellite\":0,\"tor\":0,\"tor_exit_nodes\":0,\"vpn\":178,\"relay\":0,\"proxy\":0,\"hosting\":0,\"service\":56}","uploaders":"{\"size\":53,\"mobile\":3,\"satellite\":0,\"tor\":0,\"tor_exit_nodes\":0,\"vpn\":0,\"relay\":0,\"proxy\":0,\"hosting\":0,\"service\":0}"},"geometry":{"type":"Point","coordinates":[44.4976,48.71378]}},{"type":"Feature","properties":{"country_code":"RUS","city":"Irkutsk","geoname_id":"2023469","downloaders":"{\"size\":40560,\"mobile\":5927,\"satellite\":1,\"tor\":0,\"tor_exit_nodes\":0,\"vpn\":342,\"relay\":0,\"proxy\":1,\"hosting\":20,\"service\":6}","uploaders":"{\"size\":30,\"mobile\":4,\"satellite\":0,\"tor\":0,\"tor_exit_nodes\":0,\"vpn\":0,\"relay\":0,\"proxy\":0,\"hosting\":1,\"service\":0}"},"geometry":{"type":"Point","coordinates":[104.29076,52.29566]}},{"type":"Feature","properties":{"country_code":"RUS","city":"Balashikha","geoname_id":"579464","downloaders":"{\"size\":40481,\"mobile\":428,\"satellite\":0,\"tor\":0,\"tor_exit_nodes\":0,\"vpn\":2539,\"relay\":0,\"proxy\":20,\"hosting\":1803,\"service\":269}","uploaders":"{\"size\":35,\"mobile\":2,\"satellite\":0,\"tor\":0,\"tor_exit_nodes\":0,\"vpn\":4,\"relay\":0,\"proxy\":0,\"hosting\":4,\"service\":1}"},"geometry":{"type":"Point","coordinates":[37.94794,55.79479]}},{"type":"Feature","properties":{"country_code":"CHN","city":"Jiaxing","geoname_id":"1805953","downloaders":"{\"size\":38006,\"mobile\":0,\"satellite\":0,\"tor\":0,\"tor_exit_nodes\":0,\"vpn\":2561,\"relay\":0,\"proxy\":0,\"hosting\":161,\"service\":0}","uploaders":"{\"size\":72,\"mobile\":0,\"satellite\":0,\"tor\":0,\"tor_exit_nodes\":0,\"vpn\":4,\"relay\":0,\"proxy\":0,\"hosting\":0,\"service\":0}"},"geometry":{"type":"Point","coordinates":[120.75,30.7522]}},{"type":"Feature","properties":{"country_code":"KOR","city":"Haegok","geoname_id":"6398843","downloaders":"{\"size\":37871,\"mobile\":61,\"satellite\":0,\"tor\":0,\"tor_exit_nodes\":0,\"vpn\":610,\"relay\":0,\"proxy\":7,\"hosting\":0,\"service\":40}","uploaders":"{\"size\":8,\"mobile\":0,\"satellite\":0,\"tor\":0,\"tor_exit_nodes\":0,\"vpn\":0,\"relay\":0,\"proxy\":0,\"hosting\":0,\"service\":0}"},"geometry":{"type":"Point","coordinates":[127.27880999999999,37.19251]}},{"type":"Feature","properties":{"country_code":"KOR","city":"Anyang-si","geoname_id":"1846898","downloaders":"{\"size\":37328,\"mobile\":34,\"satellite\":0,\"tor\":0,\"tor_exit_nodes\":0,\"vpn\":719,\"relay\":0,\"proxy\":17,\"hosting\":0,\"service\":116}","uploaders":"{\"size\":23,\"mobile\":0,\"satellite\":0,\"tor\":0,\"tor_exit_nodes\":0,\"vpn\":0,\"relay\":0,\"proxy\":0,\"hosting\":0,\"service\":0}"},"geometry":{"type":"Point","coordinates":[126.92694,37.3925]}},{"type":"Feature","properties":{"country_code":"KOR","city":"Ulsan","geoname_id":"1833747","downloaders":"{\"size\":37258,\"mobile\":47,\"satellite\":0,\"tor\":0,\"tor_exit_nodes\":0,\"vpn\":381,\"relay\":0,\"proxy\":3,\"hosting\":0,\"service\":110}","uploaders":"{\"size\":12,\"mobile\":0,\"satellite\":0,\"tor\":0,\"tor_exit_nodes\":0,\"vpn\":0,\"relay\":0,\"proxy\":0,\"hosting\":0,\"service\":0}"},"geometry":{"type":"Point","coordinates":[129.31667,35.53722]}},{"type":"Feature","properties":{"country_code":"CZE","city":"Prague","geoname_id":"3067696","downloaders":"{\"size\":37058,\"mobile\":3966,\"satellite\":42,\"tor\":0,\"tor_exit_nodes\":0,\"vpn\":6875,\"relay\":36,\"proxy\":8,\"hosting\":7836,\"service\":4816}","uploaders":"{\"size\":784,\"mobile\":143,\"satellite\":0,\"tor\":0,\"tor_exit_nodes\":0,\"vpn\":336,\"relay\":4,\"proxy\":0,\"hosting\":354,\"service\":312}"},"geometry":{"type":"Point","coordinates":[14.42076,50.08804]}},{"type":"Feature","properties":{"country_code":"RUS","city":"Kazan","geoname_id":"551487","downloaders":"{\"size\":36975,\"mobile\":7128,\"satellite\":0,\"tor\":0,\"tor_exit_nodes\":0,\"vpn\":561,\"relay\":0,\"proxy\":2,\"hosting\":58,\"service\":12}","uploaders":"{\"size\":71,\"mobile\":16,\"satellite\":0,\"tor\":0,\"tor_exit_nodes\":0,\"vpn\":1,\"relay\":0,\"proxy\":0,\"hosting\":1,\"service\":0}"},"geometry":{"type":"Point","coordinates":[49.12214,55.78874]}},{"type":"Feature","properties":{"country_code":"ITA","city":"Rome","geoname_id":"3169070","downloaders":"{\"size\":36395,\"mobile\":11810,\"satellite\":16,\"tor\":0,\"tor_exit_nodes\":0,\"vpn\":675,\"relay\":0,\"proxy\":0,\"hosting\":502,\"service\":465}","uploaders":"{\"size\":329,\"mobile\":173,\"satellite\":4,\"tor\":0,\"tor_exit_nodes\":0,\"vpn\":54,\"relay\":0,\"proxy\":0,\"hosting\":54,\"service\":52}"},"geometry":{"type":"Point","coordinates":[12.51133,41.89193]}},{"type":"Feature","properties":{"country_code":"TUR","city":"Antalya","geoname_id":"323777","downloaders":"{\"size\":36180,\"mobile\":19567,\"satellite\":0,\"tor\":0,\"tor_exit_nodes\":0,\"vpn\":5,\"relay\":0,\"proxy\":0,\"hosting\":0,\"service\":0}","uploaders":"{\"size\":17,\"mobile\":6,\"satellite\":0,\"tor\":0,\"tor_exit_nodes\":0,\"vpn\":0,\"relay\":0,\"proxy\":0,\"hosting\":0,\"service\":0}"},"geometry":{"type":"Point","coordinates":[30.69556,36.90812]}},{"type":"Feature","properties":{"country_code":"KOR","city":"Bucheon-si","geoname_id":"1838716","downloaders":"{\"size\":35439,\"mobile\":25,\"satellite\":0,\"tor\":0,\"tor_exit_nodes\":0,\"vpn\":497,\"relay\":0,\"proxy\":1,\"hosting\":0,\"service\":39}","uploaders":"{\"size\":8,\"mobile\":0,\"satellite\":0,\"tor\":0,\"tor_exit_nodes\":0,\"vpn\":0,\"relay\":0,\"proxy\":0,\"hosting\":0,\"service\":0}"},"geometry":{"type":"Point","coordinates":[126.78306,37.49889]}},{"type":"Feature","properties":{"country_code":"TUR","city":"Gaziantep","geoname_id":"314830","downloaders":"{\"size\":35409,\"mobile\":2592,\"satellite\":0,\"tor\":0,\"tor_exit_nodes\":0,\"vpn\":0,\"relay\":0,\"proxy\":0,\"hosting\":0,\"service\":0}","uploaders":"{\"size\":15,\"mobile\":1,\"satellite\":0,\"tor\":0,\"tor_exit_nodes\":0,\"vpn\":0,\"relay\":0,\"proxy\":0,\"hosting\":0,\"service\":0}"},"geometry":{"type":"Point","coordinates":[37.3825,37.05944]}},{"type":"Feature","properties":{"country_code":"CHN","city":"Qingdao","geoname_id":"1797929","downloaders":"{\"size\":35257,\"mobile\":0,\"satellite\":0,\"tor\":0,\"tor_exit_nodes\":0,\"vpn\":876,\"relay\":0,\"proxy\":0,\"hosting\":242,\"service\":0}","uploaders":"{\"size\":249,\"mobile\":0,\"satellite\":0,\"tor\":0,\"tor_exit_nodes\":0,\"vpn\":2,\"relay\":0,\"proxy\":0,\"hosting\":0,\"service\":0}"},"geometry":{"type":"Point","coordinates":[120.38042,36.06488]}},{"type":"Feature","properties":{"country_code":"RUS","city":"Kirov","geoname_id":"548408","downloaders":"{\"size\":33184,\"mobile\":3435,\"satellite\":0,\"tor\":0,\"tor_exit_nodes\":0,\"vpn\":1081,\"relay\":0,\"proxy\":1,\"hosting\":0,\"service\":821}","uploaders":"{\"size\":54,\"mobile\":3,\"satellite\":0,\"tor\":0,\"tor_exit_nodes\":0,\"vpn\":3,\"relay\":0,\"proxy\":0,\"hosting\":0,\"service\":2}"},"geometry":{"type":"Point","coordinates":[49.65783,58.59809]}},{"type":"Feature","properties":{"country_code":"CAN","city":"Vancouver","geoname_id":"6173331","downloaders":"{\"size\":32932,\"mobile\":2322,\"satellite\":46,\"tor\":0,\"tor_exit_nodes\":0,\"vpn\":20336,\"relay\":0,\"proxy\":39,\"hosting\":12498,\"service\":18753}","uploaders":"{\"size\":1790,\"mobile\":48,\"satellite\":1,\"tor\":0,\"tor_exit_nodes\":0,\"vpn\":1541,\"relay\":0,\"proxy\":0,\"hosting\":1086,\"service\":1475}"},"geometry":{"type":"Point","coordinates":[-123.11934,49.24966]}},{"type":"Feature","properties":{"country_code":"RUS","city":"Yaroslavl","geoname_id":"468902","downloaders":"{\"size\":32743,\"mobile\":3616,\"satellite\":0,\"tor\":0,\"tor_exit_nodes\":0,\"vpn\":461,\"relay\":0,\"proxy\":16,\"hosting\":31,\"service\":5}","uploaders":"{\"size\":45,\"mobile\":13,\"satellite\":0,\"tor\":0,\"tor_exit_nodes\":0,\"vpn\":2,\"relay\":0,\"proxy\":0,\"hosting\":0,\"service\":0}"},"geometry":{"type":"Point","coordinates":[39.87368,57.62987]}},{"type":"Feature","properties":{"country_code":"KOR","city":"Changwon","geoname_id":"1846326","downloaders":"{\"size\":32421,\"mobile\":121,\"satellite\":0,\"tor\":0,\"tor_exit_nodes\":0,\"vpn\":181,\"relay\":0,\"proxy\":0,\"hosting\":0,\"service\":13}","uploaders":"{\"size\":14,\"mobile\":0,\"satellite\":0,\"tor\":0,\"tor_exit_nodes\":0,\"vpn\":0,\"relay\":0,\"proxy\":0,\"hosting\":0,\"service\":0}"},"geometry":{"type":"Point","coordinates":[128.68111,35.22806]}},{"type":"Feature","properties":{"country_code":"SGP","city":"Singapore","geoname_id":"1880252","downloaders":"{\"size\":32076,\"mobile\":238,\"satellite\":1,\"tor\":0,\"tor_exit_nodes\":0,\"vpn\":11777,\"relay\":2,\"proxy\":78,\"hosting\":19680,\"service\":11456}","uploaders":"{\"size\":1411,\"mobile\":27,\"satellite\":0,\"tor\":0,\"tor_exit_nodes\":0,\"vpn\":890,\"relay\":0,\"proxy\":19,\"hosting\":1251,\"service\":884}"},"geometry":{"type":"Point","coordinates":[103.85007,1.28967]}},{"type":"Feature","properties":{"country_code":"IRQ","city":"Baghdad","geoname_id":"98182","downloaders":"{\"size\":31837,\"mobile\":298,\"satellite\":0,\"tor\":0,\"tor_exit_nodes\":0,\"vpn\":79,\"relay\":0,\"proxy\":0,\"hosting\":58,\"service\":1}","uploaders":"{\"size\":29,\"mobile\":1,\"satellite\":0,\"tor\":0,\"tor_exit_nodes\":0,\"vpn\":0,\"relay\":0,\"proxy\":0,\"hosting\":1,\"service\":0}"},"geometry":{"type":"Point","coordinates":[44.40088,33.34058]}},{"type":"Feature","properties":{"country_code":"PRT","city":"Lisbon","geoname_id":"2267057","downloaders":"{\"size\":31083,\"mobile\":11119,\"satellite\":86,\"tor\":0,\"tor_exit_nodes\":0,\"vpn\":1597,\"relay\":0,\"proxy\":1,\"hosting\":1575,\"service\":1312}","uploaders":"{\"size\":5809,\"mobile\":3062,\"satellite\":25,\"tor\":0,\"tor_exit_nodes\":0,\"vpn\":143,\"relay\":0,\"proxy\":0,\"hosting\":134,\"service\":126}"},"geometry":{"type":"Point","coordinates":[-9.1498,38.72509]}},{"type":"Feature","properties":{"country_code":"LTU","city":"Vilnius","geoname_id":"593116","downloaders":"{\"size\":31053,\"mobile\":3152,\"satellite\":8,\"tor\":0,\"tor_exit_nodes\":0,\"vpn\":1381,\"relay\":3,\"proxy\":22,\"hosting\":2021,\"service\":940}","uploaders":"{\"size\":1060,\"mobile\":276,\"satellite\":1,\"tor\":0,\"tor_exit_nodes\":0,\"vpn\":157,\"relay\":0,\"proxy\":0,\"hosting\":155,\"service\":142}"},"geometry":{"type":"Point","coordinates":[25.2798,54.68916]}},{"type":"Feature","properties":{"country_code":"ARG","city":"Buenos Aires","geoname_id":"3435910","downloaders":"{\"size\":30735,\"mobile\":3293,\"satellite\":721,\"tor\":0,\"tor_exit_nodes\":0,\"vpn\":411,\"relay\":0,\"proxy\":0,\"hosting\":529,\"service\":237}","uploaders":"{\"size\":2321,\"mobile\":219,\"satellite\":86,\"tor\":0,\"tor_exit_nodes\":0,\"vpn\":50,\"relay\":0,\"proxy\":0,\"hosting\":89,\"service\":40}"},"geometry":{"type":"Point","coordinates":[-58.37723,-34.61315]}},{"type":"Feature","properties":{"country_code":"RUS","city":"Cheboksary","geoname_id":"569696","downloaders":"{\"size\":30171,\"mobile\":5190,\"satellite\":0,\"tor\":0,\"tor_exit_nodes\":0,\"vpn\":197,\"relay\":0,\"proxy\":0,\"hosting\":0,\"service\":2}","uploaders":"{\"size\":25,\"mobile\":5,\"satellite\":0,\"tor\":0,\"tor_exit_nodes\":0,\"vpn\":0,\"relay\":0,\"proxy\":0,\"hosting\":0,\"service\":0}"},"geometry":{"type":"Point","coordinates":[47.246,56.13218]}},{"type":"Feature","properties":{"country_code":"CHN","city":"Shenyang","geoname_id":"2034937","downloaders":"{\"size\":29974,\"mobile\":0,\"satellite\":0,\"tor\":0,\"tor_exit_nodes\":0,\"vpn\":290,\"relay\":0,\"proxy\":0,\"hosting\":2,\"service\":0}","uploaders":"{\"size\":131,\"mobile\":0,\"satellite\":0,\"tor\":0,\"tor_exit_nodes\":0,\"vpn\":5,\"relay\":0,\"proxy\":0,\"hosting\":0,\"service\":0}"},"geometry":{"type":"Point","coordinates":[123.43278,41.79222]}},{"type":"Feature","properties":{"country_code":"DEU","city":"Falkenstein","geoname_id":"2927913","downloaders":"{\"size\":29483,\"mobile\":4,\"satellite\":0,\"tor\":0,\"tor_exit_nodes\":0,\"vpn\":25,\"relay\":0,\"proxy\":0,\"hosting\":29435,\"service\":25}","uploaders":"{\"size\":277,\"mobile\":0,\"satellite\":0,\"tor\":0,\"tor_exit_nodes\":0,\"vpn\":0,\"relay\":0,\"proxy\":0,\"hosting\":277,\"service\":0}"},"geometry":{"type":"Point","coordinates":[12.37129,50.47788]}},{"type":"Feature","properties":{"country_code":"CHN","city":"Ningbo","geoname_id":"1799397","downloaders":"{\"size\":29443,\"mobile\":0,\"satellite\":0,\"tor\":0,\"tor_exit_nodes\":0,\"vpn\":478,\"relay\":0,\"proxy\":0,\"hosting\":1216,\"service\":0}","uploaders":"{\"size\":240,\"mobile\":0,\"satellite\":0,\"tor\":0,\"tor_exit_nodes\":0,\"vpn\":0,\"relay\":0,\"proxy\":0,\"hosting\":1,\"service\":0}"},"geometry":{"type":"Point","coordinates":[121.54945,29.87819]}},{"type":"Feature","properties":{"country_code":"POL","city":"Ursynów","geoname_id":"6545326","downloaders":"{\"size\":29315,\"mobile\":0,\"satellite\":0,\"tor\":0,\"tor_exit_nodes\":0,\"vpn\":877,\"relay\":0,\"proxy\":0,\"hosting\":881,\"service\":877}","uploaders":"{\"size\":191,\"mobile\":0,\"satellite\":0,\"tor\":0,\"tor_exit_nodes\":0,\"vpn\":57,\"relay\":0,\"proxy\":0,\"hosting\":57,\"service\":57}"},"geometry":{"type":"Point","coordinates":[21.0068,52.1552]}},{"type":"Feature","properties":{"country_code":"DEU","city":"Berlin","geoname_id":"2950159","downloaders":"{\"size\":29306,\"mobile\":10774,\"satellite\":425,\"tor\":28,\"tor_exit_nodes\":31,\"vpn\":3472,\"relay\":1,\"proxy\":0,\"hosting\":4854,\"service\":2528}","uploaders":"{\"size\":530,\"mobile\":47,\"satellite\":29,\"tor\":10,\"tor_exit_nodes\":10,\"vpn\":290,\"relay\":0,\"proxy\":0,\"hosting\":293,\"service\":203}"},"geometry":{"type":"Point","coordinates":[13.41053,52.52437]}},{"type":"Feature","properties":{"country_code":"BRA","city":"Rio de Janeiro","geoname_id":"3451190","downloaders":"{\"size\":29082,\"mobile\":2223,\"satellite\":0,\"tor\":0,\"tor_exit_nodes\":0,\"vpn\":66,\"relay\":0,\"proxy\":1,\"hosting\":290,\"service\":4}","uploaders":"{\"size\":487,\"mobile\":103,\"satellite\":0,\"tor\":0,\"tor_exit_nodes\":0,\"vpn\":0,\"relay\":0,\"proxy\":0,\"hosting\":0,\"service\":0}"},"geometry":{"type":"Point","coordinates":[-43.18223,-22.90642]}},{"type":"Feature","properties":{"country_code":"RUS","city":"Surgut","geoname_id":"1490624","downloaders":"{\"size\":28490,\"mobile\":3189,\"satellite\":0,\"tor\":0,\"tor_exit_nodes\":0,\"vpn\":228,\"relay\":0,\"proxy\":0,\"hosting\":33,\"service\":57}","uploaders":"{\"size\":38,\"mobile\":0,\"satellite\":0,\"tor\":0,\"tor_exit_nodes\":0,\"vpn\":3,\"relay\":0,\"proxy\":0,\"hosting\":0,\"service\":0}"},"geometry":{"type":"Point","coordinates":[73.41775,61.25757]}},{"type":"Feature","properties":{"country_code":"RUS","city":"Bryansk","geoname_id":"571476","downloaders":"{\"size\":28328,\"mobile\":54,\"satellite\":0,\"tor\":0,\"tor_exit_nodes\":0,\"vpn\":189,\"relay\":0,\"proxy\":0,\"hosting\":0,\"service\":16}","uploaders":"{\"size\":33,\"mobile\":1,\"satellite\":0,\"tor\":0,\"tor_exit_nodes\":0,\"vpn\":0,\"relay\":0,\"proxy\":0,\"hosting\":0,\"service\":0}"},"geometry":{"type":"Point","coordinates":[34.32143,53.27096]}},{"type":"Feature","properties":{"country_code":"USA","city":"Atlanta","geoname_id":"4180439","downloaders":"{\"size\":28298,\"mobile\":709,\"satellite\":78,\"tor\":0,\"tor_exit_nodes\":0,\"vpn\":14380,\"relay\":1,\"proxy\":2,\"hosting\":17056,\"service\":14013}","uploaders":"{\"size\":1371,\"mobile\":14,\"satellite\":2,\"tor\":0,\"tor_exit_nodes\":0,\"vpn\":1168,\"relay\":0,\"proxy\":0,\"hosting\":1179,\"service\":1159}"},"geometry":{"type":"Point","coordinates":[-84.38798,33.749]}},{"type":"Feature","properties":{"country_code":"RUS","city":"Ulyanovsk","geoname_id":"479123","downloaders":"{\"size\":27863,\"mobile\":1827,\"satellite\":0,\"tor\":0,\"tor_exit_nodes\":0,\"vpn\":198,\"relay\":0,\"proxy\":0,\"hosting\":1,\"service\":2}","uploaders":"{\"size\":27,\"mobile\":7,\"satellite\":0,\"tor\":0,\"tor_exit_nodes\":0,\"vpn\":0,\"relay\":0,\"proxy\":0,\"hosting\":0,\"service\":0}"},"geometry":{"type":"Point","coordinates":[48.38657,54.32824]}},{"type":"Feature","properties":{"country_code":"RUS","city":"Orenburg","geoname_id":"515003","downloaders":"{\"size\":27853,\"mobile\":31,\"satellite\":0,\"tor\":0,\"tor_exit_nodes\":0,\"vpn\":169,\"relay\":0,\"proxy\":0,\"hosting\":28,\"service\":32}","uploaders":"{\"size\":44,\"mobile\":0,\"satellite\":0,\"tor\":0,\"tor_exit_nodes\":0,\"vpn\":1,\"relay\":0,\"proxy\":0,\"hosting\":0,\"service\":0}"},"geometry":{"type":"Point","coordinates":[55.09883,51.76712]}},{"type":"Feature","properties":{"country_code":"RUS","city":"Tver","geoname_id":"480060","downloaders":"{\"size\":27820,\"mobile\":665,\"satellite\":0,\"tor\":0,\"tor_exit_nodes\":0,\"vpn\":319,\"relay\":0,\"proxy\":0,\"hosting\":28,\"service\":1}","uploaders":"{\"size\":62,\"mobile\":0,\"satellite\":0,\"tor\":0,\"tor_exit_nodes\":0,\"vpn\":0,\"relay\":0,\"proxy\":0,\"hosting\":0,\"service\":0}"},"geometry":{"type":"Point","coordinates":[35.90057,56.85836]}},{"type":"Feature","properties":{"country_code":"KOR","city":"Hwado","geoname_id":"1897118","downloaders":"{\"size\":27727,\"mobile\":22,\"satellite\":0,\"tor\":0,\"tor_exit_nodes\":0,\"vpn\":363,\"relay\":0,\"proxy\":25,\"hosting\":0,\"service\":22}","uploaders":"{\"size\":11,\"mobile\":0,\"satellite\":0,\"tor\":0,\"tor_exit_nodes\":0,\"vpn\":0,\"relay\":0,\"proxy\":0,\"hosting\":0,\"service\":0}"},"geometry":{"type":"Point","coordinates":[127.3075,37.6525]}},{"type":"Feature","properties":{"country_code":"TWN","city":"Taipei","geoname_id":"1668341","downloaders":"{\"size\":27220,\"mobile\":1271,\"satellite\":0,\"tor\":30,\"tor_exit_nodes\":30,\"vpn\":2268,\"relay\":1,\"proxy\":12,\"hosting\":936,\"service\":708}","uploaders":"{\"size\":141,\"mobile\":10,\"satellite\":0,\"tor\":1,\"tor_exit_nodes\":1,\"vpn\":51,\"relay\":0,\"proxy\":0,\"hosting\":52,\"service\":49}"},"geometry":{"type":"Point","coordinates":[121.52639,25.05306]}},{"type":"Feature","properties":{"country_code":"ESP","city":"Barcelona","geoname_id":"3128760","downloaders":"{\"size\":26981,\"mobile\":10049,\"satellite\":0,\"tor\":0,\"tor_exit_nodes\":0,\"vpn\":1823,\"relay\":1,\"proxy\":10,\"hosting\":1724,\"service\":1667}","uploaders":"{\"size\":660,\"mobile\":157,\"satellite\":0,\"tor\":0,\"tor_exit_nodes\":0,\"vpn\":186,\"relay\":0,\"proxy\":0,\"hosting\":185,\"service\":178}"},"geometry":{"type":"Point","coordinates":[2.15899,41.38879]}},{"type":"Feature","properties":{"country_code":"HRV","city":"Zagreb","geoname_id":"3186886","downloaders":"{\"size\":26851,\"mobile\":2996,\"satellite\":23,\"tor\":0,\"tor_exit_nodes\":0,\"vpn\":1284,\"relay\":0,\"proxy\":1,\"hosting\":1347,\"service\":1066}","uploaders":"{\"size\":3144,\"mobile\":701,\"satellite\":3,\"tor\":0,\"tor_exit_nodes\":0,\"vpn\":150,\"relay\":0,\"proxy\":0,\"hosting\":170,\"service\":115}"},"geometry":{"type":"Point","coordinates":[15.97798,45.81444]}},{"type":"Feature","properties":{"country_code":"FRA","city":"Dunkerque","geoname_id":"3020686","downloaders":"{\"size\":26627,\"mobile\":329,\"satellite\":0,\"tor\":0,\"tor_exit_nodes\":0,\"vpn\":748,\"relay\":0,\"proxy\":68,\"hosting\":25444,\"service\":83}","uploaders":"{\"size\":492,\"mobile\":1,\"satellite\":0,\"tor\":0,\"tor_exit_nodes\":0,\"vpn\":0,\"relay\":0,\"proxy\":0,\"hosting\":488,\"service\":0}"},"geometry":{"type":"Point","coordinates":[2.37681,51.0344]}},{"type":"Feature","properties":{"country_code":"AUS","city":"Brisbane","geoname_id":"2174003","downloaders":"{\"size\":26534,\"mobile\":1214,\"satellite\":158,\"tor\":0,\"tor_exit_nodes\":0,\"vpn\":4189,\"relay\":0,\"proxy\":0,\"hosting\":4524,\"service\":3577}","uploaders":"{\"size\":2555,\"mobile\":185,\"satellite\":15,\"tor\":0,\"tor_exit_nodes\":0,\"vpn\":500,\"relay\":0,\"proxy\":0,\"hosting\":513,\"service\":469}"},"geometry":{"type":"Point","coordinates":[153.02809,-27.46794]}},{"type":"Feature","properties":{"country_code":"RUS","city":"Odintsovo","geoname_id":"516215","downloaders":"{\"size\":26492,\"mobile\":161,\"satellite\":0,\"tor\":0,\"tor_exit_nodes\":0,\"vpn\":867,\"relay\":0,\"proxy\":1,\"hosting\":403,\"service\":0}","uploaders":"{\"size\":29,\"mobile\":0,\"satellite\":0,\"tor\":0,\"tor_exit_nodes\":0,\"vpn\":1,\"relay\":0,\"proxy\":0,\"hosting\":0,\"service\":0}"},"geometry":{"type":"Point","coordinates":[37.27716,55.66977]}},{"type":"Feature","properties":{"country_code":"TUR","city":"Adana","geoname_id":"325363","downloaders":"{\"size\":26394,\"mobile\":2852,\"satellite\":0,\"tor\":0,\"tor_exit_nodes\":0,\"vpn\":7,\"relay\":0,\"proxy\":0,\"hosting\":0,\"service\":0}","uploaders":"{\"size\":21,\"mobile\":3,\"satellite\":0,\"tor\":0,\"tor_exit_nodes\":0,\"vpn\":0,\"relay\":0,\"proxy\":0,\"hosting\":0,\"service\":0}"},"geometry":{"type":"Point","coordinates":[35.32531,36.98615]}},{"type":"Feature","properties":{"country_code":"RUS","city":"Penza","geoname_id":"511565","downloaders":"{\"size\":26338,\"mobile\":3246,\"satellite\":0,\"tor\":0,\"tor_exit_nodes\":0,\"vpn\":247,\"relay\":0,\"proxy\":0,\"hosting\":0,\"service\":18}","uploaders":"{\"size\":54,\"mobile\":8,\"satellite\":0,\"tor\":0,\"tor_exit_nodes\":0,\"vpn\":0,\"relay\":0,\"proxy\":0,\"hosting\":0,\"service\":0}"},"geometry":{"type":"Point","coordinates":[45.01075,53.19568]}},{"type":"Feature","properties":{"country_code":"FRA","city":"Amiens","geoname_id":"3037854","downloaders":"{\"size\":26092,\"mobile\":829,\"satellite\":0,\"tor\":0,\"tor_exit_nodes\":0,\"vpn\":816,\"relay\":0,\"proxy\":0,\"hosting\":23649,\"service\":189}","uploaders":"{\"size\":563,\"mobile\":1,\"satellite\":0,\"tor\":0,\"tor_exit_nodes\":0,\"vpn\":32,\"relay\":0,\"proxy\":0,\"hosting\":556,\"service\":29}"},"geometry":{"type":"Point","coordinates":[2.3,49.9]}},{"type":"Feature","properties":{"country_code":"TUR","city":"Kayseri","geoname_id":"308464","downloaders":"{\"size\":25975,\"mobile\":4369,\"satellite\":0,\"tor\":0,\"tor_exit_nodes\":0,\"vpn\":4,\"relay\":0,\"proxy\":0,\"hosting\":0,\"service\":0}","uploaders":"{\"size\":10,\"mobile\":4,\"satellite\":0,\"tor\":0,\"tor_exit_nodes\":0,\"vpn\":0,\"relay\":0,\"proxy\":0,\"hosting\":0,\"service\":0}"},"geometry":{"type":"Point","coordinates":[35.48528,38.73222]}},{"type":"Feature","properties":{"country_code":"IRL","city":"Dublin","geoname_id":"2964574","downloaders":"{\"size\":25906,\"mobile\":4419,\"satellite\":56,\"tor\":0,\"tor_exit_nodes\":0,\"vpn\":4956,\"relay\":0,\"proxy\":1,\"hosting\":7293,\"service\":4441}","uploaders":"{\"size\":1474,\"mobile\":494,\"satellite\":10,\"tor\":0,\"tor_exit_nodes\":0,\"vpn\":462,\"relay\":0,\"proxy\":0,\"hosting\":493,\"service\":442}"},"geometry":{"type":"Point","coordinates":[-6.24889,53.33306]}},{"type":"Feature","properties":{"country_code":"NZL","city":"Auckland","geoname_id":"2193733","downloaders":"{\"size\":25869,\"mobile\":8947,\"satellite\":334,\"tor\":0,\"tor_exit_nodes\":0,\"vpn\":4249,\"relay\":0,\"proxy\":1,\"hosting\":4219,\"service\":3860}","uploaders":"{\"size\":1803,\"mobile\":463,\"satellite\":69,\"tor\":0,\"tor_exit_nodes\":0,\"vpn\":540,\"relay\":0,\"proxy\":0,\"hosting\":566,\"service\":526}"},"geometry":{"type":"Point","coordinates":[174.76349,-36.84853]}},{"type":"Feature","properties":{"country_code":"RUS","city":"Khabarovsk","geoname_id":"2022890","downloaders":"{\"size\":25693,\"mobile\":1649,\"satellite\":26,\"tor\":0,\"tor_exit_nodes\":0,\"vpn\":430,\"relay\":0,\"proxy\":0,\"hosting\":92,\"service\":205}","uploaders":"{\"size\":55,\"mobile\":7,\"satellite\":1,\"tor\":0,\"tor_exit_nodes\":0,\"vpn\":3,\"relay\":0,\"proxy\":0,\"hosting\":0,\"service\":2}"},"geometry":{"type":"Point","coordinates":[135.0971,48.46204]}},{"type":"Feature","properties":{"country_code":"RUS","city":"Ryazan’","geoname_id":"500096","downloaders":"{\"size\":25371,\"mobile\":738,\"satellite\":0,\"tor\":0,\"tor_exit_nodes\":0,\"vpn\":610,\"relay\":0,\"proxy\":0,\"hosting\":0,\"service\":169}","uploaders":"{\"size\":42,\"mobile\":2,\"satellite\":0,\"tor\":0,\"tor_exit_nodes\":0,\"vpn\":3,\"relay\":0,\"proxy\":0,\"hosting\":0,\"service\":1}"},"geometry":{"type":"Point","coordinates":[39.70415,54.62696]}},{"type":"Feature","properties":{"country_code":"RUS","city":"Kaliningrad","geoname_id":"554234","downloaders":"{\"size\":25291,\"mobile\":104,\"satellite\":0,\"tor\":0,\"tor_exit_nodes\":0,\"vpn\":21,\"relay\":0,\"proxy\":1,\"hosting\":6,\"service\":1}","uploaders":"{\"size\":42,\"mobile\":0,\"satellite\":0,\"tor\":0,\"tor_exit_nodes\":0,\"vpn\":0,\"relay\":0,\"proxy\":0,\"hosting\":0,\"service\":0}"},"geometry":{"type":"Point","coordinates":[20.51102,54.70639]}},{"type":"Feature","properties":{"country_code":"TUR","city":"Mersin","geoname_id":"304531","downloaders":"{\"size\":25023,\"mobile\":7452,\"satellite\":0,\"tor\":0,\"tor_exit_nodes\":0,\"vpn\":3,\"relay\":0,\"proxy\":0,\"hosting\":0,\"service\":0}","uploaders":"{\"size\":21,\"mobile\":1,\"satellite\":0,\"tor\":0,\"tor_exit_nodes\":0,\"vpn\":0,\"relay\":0,\"proxy\":0,\"hosting\":0,\"service\":0}"},"geometry":{"type":"Point","coordinates":[34.63886,36.81196]}},{"type":"Feature","properties":{"country_code":"USA","city":"Dallas","geoname_id":"4684888","downloaders":"{\"size\":24941,\"mobile\":616,\"satellite\":133,\"tor\":0,\"tor_exit_nodes\":0,\"vpn\":17622,\"relay\":2,\"proxy\":0,\"hosting\":20203,\"service\":15982}","uploaders":"{\"size\":1512,\"mobile\":25,\"satellite\":1,\"tor\":0,\"tor_exit_nodes\":0,\"vpn\":1303,\"relay\":0,\"proxy\":0,\"hosting\":1425,\"service\":1262}"},"geometry":{"type":"Point","coordinates":[-96.6972,32.8463]}},{"type":"Feature","properties":{"country_code":"KOR","city":"Jeonju","geoname_id":"1845457","downloaders":"{\"size\":24729,\"mobile\":58,\"satellite\":0,\"tor\":0,\"tor_exit_nodes\":0,\"vpn\":249,\"relay\":0,\"proxy\":5,\"hosting\":0,\"service\":7}","uploaders":"{\"size\":8,\"mobile\":0,\"satellite\":0,\"tor\":0,\"tor_exit_nodes\":0,\"vpn\":0,\"relay\":0,\"proxy\":0,\"hosting\":0,\"service\":0}"},"geometry":{"type":"Point","coordinates":[127.14889,35.82194]}},{"type":"Feature","properties":{"country_code":"KOR","city":"Pyeongtaek","geoname_id":"1838343","downloaders":"{\"size\":24100,\"mobile\":34,\"satellite\":0,\"tor\":0,\"tor_exit_nodes\":0,\"vpn\":181,\"relay\":0,\"proxy\":3,\"hosting\":0,\"service\":24}","uploaders":"{\"size\":12,\"mobile\":0,\"satellite\":0,\"tor\":0,\"tor_exit_nodes\":0,\"vpn\":0,\"relay\":0,\"proxy\":0,\"hosting\":0,\"service\":0}"},"geometry":{"type":"Point","coordinates":[127.08889,36.99472]}},{"type":"Feature","properties":{"country_code":"EST","city":"Tallinn","geoname_id":"588409","downloaders":"{\"size\":23478,\"mobile\":1242,\"satellite\":21,\"tor\":0,\"tor_exit_nodes\":0,\"vpn\":1890,\"relay\":0,\"proxy\":0,\"hosting\":6651,\"service\":1538}","uploaders":"{\"size\":676,\"mobile\":202,\"satellite\":3,\"tor\":0,\"tor_exit_nodes\":0,\"vpn\":106,\"relay\":0,\"proxy\":0,\"hosting\":115,\"service\":99}"},"geometry":{"type":"Point","coordinates":[24.75353,59.43696]}},{"type":"Feature","properties":{"country_code":"RUS","city":"Novokuznetsk","geoname_id":"1496990","downloaders":"{\"size\":23427,\"mobile\":19,\"satellite\":0,\"tor\":0,\"tor_exit_nodes\":0,\"vpn\":136,\"relay\":0,\"proxy\":7,\"hosting\":0,\"service\":0}","uploaders":"{\"size\":33,\"mobile\":0,\"satellite\":0,\"tor\":0,\"tor_exit_nodes\":0,\"vpn\":0,\"relay\":0,\"proxy\":0,\"hosting\":0,\"service\":0}"},"geometry":{"type":"Point","coordinates":[87.13599,53.75752]}},{"type":"Feature","properties":{"country_code":"KOR","city":"Wŏnju","geoname_id":"1833105","downloaders":"{\"size\":23391,\"mobile\":11,\"satellite\":0,\"tor\":0,\"tor_exit_nodes\":0,\"vpn\":323,\"relay\":0,\"proxy\":2,\"hosting\":0,\"service\":125}","uploaders":"{\"size\":18,\"mobile\":0,\"satellite\":0,\"tor\":0,\"tor_exit_nodes\":0,\"vpn\":0,\"relay\":0,\"proxy\":0,\"hosting\":0,\"service\":0}"},"geometry":{"type":"Point","coordinates":[127.94528,37.35139]}},{"type":"Feature","properties":{"country_code":"RUS","city":"Tolyatti","geoname_id":"482283","downloaders":"{\"size\":23212,\"mobile\":1,\"satellite\":0,\"tor\":0,\"tor_exit_nodes\":0,\"vpn\":146,\"relay\":0,\"proxy\":2,\"hosting\":0,\"service\":15}","uploaders":"{\"size\":55,\"mobile\":0,\"satellite\":0,\"tor\":0,\"tor_exit_nodes\":0,\"vpn\":0,\"relay\":0,\"proxy\":0,\"hosting\":0,\"service\":0}"},"geometry":{"type":"Point","coordinates":[49.3461,53.5303]}},{"type":"Feature","properties":{"country_code":"CHL","city":"Santiago","geoname_id":"3871336","downloaders":"{\"size\":23119,\"mobile\":4769,\"satellite\":153,\"tor\":0,\"tor_exit_nodes\":0,\"vpn\":255,\"relay\":0,\"proxy\":0,\"hosting\":1487,\"service\":210}","uploaders":"{\"size\":1326,\"mobile\":625,\"satellite\":23,\"tor\":0,\"tor_exit_nodes\":0,\"vpn\":20,\"relay\":0,\"proxy\":0,\"hosting\":48,\"service\":18}"},"geometry":{"type":"Point","coordinates":[-70.64827,-33.45694]}},{"type":"Feature","properties":{"country_code":"RUS","city":"Izhevsk","geoname_id":"554840","downloaders":"{\"size\":23098,\"mobile\":3303,\"satellite\":0,\"tor\":0,\"tor_exit_nodes\":0,\"vpn\":179,\"relay\":0,\"proxy\":0,\"hosting\":1,\"service\":11}","uploaders":"{\"size\":34,\"mobile\":10,\"satellite\":0,\"tor\":0,\"tor_exit_nodes\":0,\"vpn\":0,\"relay\":0,\"proxy\":0,\"hosting\":0,\"service\":0}"},"geometry":{"type":"Point","coordinates":[53.19862,56.85225]}},{"type":"Feature","properties":{"country_code":"RUS","city":"Lyubertsy","geoname_id":"532615","downloaders":"{\"size\":23070,\"mobile\":57,\"satellite\":0,\"tor\":0,\"tor_exit_nodes\":0,\"vpn\":475,\"relay\":0,\"proxy\":0,\"hosting\":2030,\"service\":18}","uploaders":"{\"size\":22,\"mobile\":0,\"satellite\":0,\"tor\":0,\"tor_exit_nodes\":0,\"vpn\":0,\"relay\":0,\"proxy\":0,\"hosting\":0,\"service\":0}"},"geometry":{"type":"Point","coordinates":[37.89322,55.67719]}},{"type":"Feature","properties":{"country_code":"JPN","city":"Osaka","geoname_id":"1853909","downloaders":"{\"size\":23057,\"mobile\":1700,\"satellite\":0,\"tor\":0,\"tor_exit_nodes\":0,\"vpn\":2300,\"relay\":3,\"proxy\":2,\"hosting\":2415,\"service\":1948}","uploaders":"{\"size\":117,\"mobile\":11,\"satellite\":0,\"tor\":0,\"tor_exit_nodes\":0,\"vpn\":59,\"relay\":0,\"proxy\":0,\"hosting\":90,\"service\":59}"},"geometry":{"type":"Point","coordinates":[135.50107,34.69379]}},{"type":"Feature","properties":{"country_code":"CHN","city":"Chengdu","geoname_id":"1815286","downloaders":"{\"size\":22939,\"mobile\":23,\"satellite\":0,\"tor\":0,\"tor_exit_nodes\":0,\"vpn\":1329,\"relay\":0,\"proxy\":0,\"hosting\":970,\"service\":0}","uploaders":"{\"size\":302,\"mobile\":0,\"satellite\":0,\"tor\":0,\"tor_exit_nodes\":0,\"vpn\":18,\"relay\":0,\"proxy\":0,\"hosting\":1,\"service\":0}"},"geometry":{"type":"Point","coordinates":[104.06667,30.66667]}},{"type":"Feature","properties":{"country_code":"RUS","city":"Kaluga","geoname_id":"553915","downloaders":"{\"size\":22876,\"mobile\":244,\"satellite\":0,\"tor\":0,\"tor_exit_nodes\":0,\"vpn\":520,\"relay\":0,\"proxy\":0,\"hosting\":2,\"service\":2}","uploaders":"{\"size\":56,\"mobile\":0,\"satellite\":0,\"tor\":0,\"tor_exit_nodes\":0,\"vpn\":7,\"relay\":0,\"proxy\":0,\"hosting\":0,\"service\":0}"},"geometry":{"type":"Point","coordinates":[36.27,54.53063]}},{"type":"Feature","properties":{"country_code":"MEX","city":"Guadalajara","geoname_id":"4005539","downloaders":"{\"size\":22810,\"mobile\":68,\"satellite\":0,\"tor\":0,\"tor_exit_nodes\":0,\"vpn\":15,\"relay\":0,\"proxy\":0,\"hosting\":0,\"service\":0}","uploaders":"{\"size\":59,\"mobile\":2,\"satellite\":0,\"tor\":0,\"tor_exit_nodes\":0,\"vpn\":0,\"relay\":0,\"proxy\":0,\"hosting\":0,\"service\":0}"},"geometry":{"type":"Point","coordinates":[-103.34749,20.67738]}},{"type":"Feature","properties":{"country_code":"NOR","city":"Oslo","geoname_id":"3143244","downloaders":"{\"size\":22665,\"mobile\":1588,\"satellite\":390,\"tor\":10,\"tor_exit_nodes\":15,\"vpn\":6627,\"relay\":0,\"proxy\":56,\"hosting\":5848,\"service\":6128}","uploaders":"{\"size\":822,\"mobile\":66,\"satellite\":26,\"tor\":0,\"tor_exit_nodes\":0,\"vpn\":413,\"relay\":0,\"proxy\":3,\"hosting\":398,\"service\":405}"},"geometry":{"type":"Point","coordinates":[10.74609,59.91273]}},{"type":"Feature","properties":{"country_code":"SVK","city":"Bratislava","geoname_id":"3060972","downloaders":"{\"size\":22368,\"mobile\":1646,\"satellite\":9,\"tor\":0,\"tor_exit_nodes\":0,\"vpn\":1670,\"relay\":0,\"proxy\":18,\"hosting\":1942,\"service\":1300}","uploaders":"{\"size\":243,\"mobile\":7,\"satellite\":0,\"tor\":0,\"tor_exit_nodes\":0,\"vpn\":85,\"relay\":0,\"proxy\":0,\"hosting\":101,\"service\":84}"},"geometry":{"type":"Point","coordinates":[17.10674,48.14816]}},{"type":"Feature","properties":{"country_code":"KOR","city":"Cheonan","geoname_id":"1845759","downloaders":"{\"size\":22365,\"mobile\":0,\"satellite\":0,\"tor\":0,\"tor_exit_nodes\":0,\"vpn\":139,\"relay\":0,\"proxy\":1,\"hosting\":0,\"service\":0}","uploaders":"{\"size\":9,\"mobile\":0,\"satellite\":0,\"tor\":0,\"tor_exit_nodes\":0,\"vpn\":0,\"relay\":0,\"proxy\":0,\"hosting\":0,\"service\":0}"},"geometry":{"type":"Point","coordinates":[127.1522,36.8065]}},{"type":"Feature","properties":{"country_code":"KOR","city":"Munsan","geoname_id":"1840862","downloaders":"{\"size\":22290,\"mobile\":11,\"satellite\":0,\"tor\":0,\"tor_exit_nodes\":0,\"vpn\":164,\"relay\":0,\"proxy\":1,\"hosting\":0,\"service\":6}","uploaders":"{\"size\":9,\"mobile\":0,\"satellite\":0,\"tor\":0,\"tor_exit_nodes\":0,\"vpn\":0,\"relay\":0,\"proxy\":0,\"hosting\":0,\"service\":0}"},"geometry":{"type":"Point","coordinates":[126.785,37.85944]}},{"type":"Feature","properties":{"country_code":"RUS","city":"Vladimir","geoname_id":"473247","downloaders":"{\"size\":22164,\"mobile\":851,\"satellite\":0,\"tor\":0,\"tor_exit_nodes\":0,\"vpn\":341,\"relay\":0,\"proxy\":1,\"hosting\":6,\"service\":50}","uploaders":"{\"size\":27,\"mobile\":0,\"satellite\":0,\"tor\":0,\"tor_exit_nodes\":0,\"vpn\":0,\"relay\":0,\"proxy\":0,\"hosting\":0,\"service\":0}"},"geometry":{"type":"Point","coordinates":[40.39976,56.13854]}},{"type":"Feature","properties":{"country_code":"FRA","city":"Marseille","geoname_id":"2995469","downloaders":"{\"size\":22051,\"mobile\":3893,\"satellite\":0,\"tor\":0,\"tor_exit_nodes\":0,\"vpn\":6493,\"relay\":0,\"proxy\":0,\"hosting\":7108,\"service\":6486}","uploaders":"{\"size\":959,\"mobile\":106,\"satellite\":0,\"tor\":0,\"tor_exit_nodes\":0,\"vpn\":750,\"relay\":0,\"proxy\":0,\"hosting\":754,\"service\":750}"},"geometry":{"type":"Point","coordinates":[5.38107,43.29695]}},{"type":"Feature","properties":{"country_code":"RUS","city":"Vladivostok","geoname_id":"2013348","downloaders":"{\"size\":21999,\"mobile\":278,\"satellite\":1,\"tor\":0,\"tor_exit_nodes\":0,\"vpn\":5551,\"relay\":0,\"proxy\":0,\"hosting\":128,\"service\":3593}","uploaders":"{\"size\":66,\"mobile\":1,\"satellite\":0,\"tor\":0,\"tor_exit_nodes\":0,\"vpn\":13,\"relay\":0,\"proxy\":0,\"hosting\":0,\"service\":6}"},"geometry":{"type":"Point","coordinates":[131.87353,43.10562]}},{"type":"Feature","properties":{"country_code":"TUR","city":"İzmit","geoname_id":"745028","downloaders":"{\"size\":21938,\"mobile\":1510,\"satellite\":0,\"tor\":0,\"tor_exit_nodes\":0,\"vpn\":1,\"relay\":0,\"proxy\":0,\"hosting\":0,\"service\":0}","uploaders":"{\"size\":8,\"mobile\":3,\"satellite\":0,\"tor\":0,\"tor_exit_nodes\":0,\"vpn\":0,\"relay\":0,\"proxy\":0,\"hosting\":0,\"service\":0}"},"geometry":{"type":"Point","coordinates":[29.92928,40.76499]}},{"type":"Feature","properties":{"country_code":"TUR","city":"Çankaya","geoname_id":"6955677","downloaders":"{\"size\":21580,\"mobile\":165,\"satellite\":0,\"tor\":0,\"tor_exit_nodes\":0,\"vpn\":8,\"relay\":0,\"proxy\":0,\"hosting\":8,\"service\":8}","uploaders":"{\"size\":13,\"mobile\":0,\"satellite\":0,\"tor\":0,\"tor_exit_nodes\":0,\"vpn\":0,\"relay\":0,\"proxy\":0,\"hosting\":0,\"service\":0}"},"geometry":{"type":"Point","coordinates":[32.86268,39.9179]}},{"type":"Feature","properties":{"country_code":"USA","city":"Miami","geoname_id":"4164138","downloaders":"{\"size\":21330,\"mobile\":680,\"satellite\":270,\"tor\":0,\"tor_exit_nodes\":0,\"vpn\":16068,\"relay\":0,\"proxy\":0,\"hosting\":18099,\"service\":15575}","uploaders":"{\"size\":1571,\"mobile\":26,\"satellite\":19,\"tor\":0,\"tor_exit_nodes\":0,\"vpn\":1494,\"relay\":0,\"proxy\":0,\"hosting\":1395,\"service\":1466}"},"geometry":{"type":"Point","coordinates":[-80.1821,25.8521]}},{"type":"Feature","properties":{"country_code":"TUR","city":"Samsun","geoname_id":"740264","downloaders":"{\"size\":21290,\"mobile\":4061,\"satellite\":0,\"tor\":0,\"tor_exit_nodes\":0,\"vpn\":2,\"relay\":0,\"proxy\":0,\"hosting\":0,\"service\":0}","uploaders":"{\"size\":14,\"mobile\":0,\"satellite\":0,\"tor\":0,\"tor_exit_nodes\":0,\"vpn\":0,\"relay\":0,\"proxy\":0,\"hosting\":0,\"service\":0}"},"geometry":{"type":"Point","coordinates":[36.3361,41.27976]}},{"type":"Feature","properties":{"country_code":"KOR","city":"Asan","geoname_id":"1839726","downloaders":"{\"size\":20703,\"mobile\":46,\"satellite\":0,\"tor\":0,\"tor_exit_nodes\":0,\"vpn\":138,\"relay\":0,\"proxy\":0,\"hosting\":0,\"service\":19}","uploaders":"{\"size\":6,\"mobile\":0,\"satellite\":0,\"tor\":0,\"tor_exit_nodes\":0,\"vpn\":0,\"relay\":0,\"proxy\":0,\"hosting\":0,\"service\":0}"},"geometry":{"type":"Point","coordinates":[127.00417,36.78361]}},{"type":"Feature","properties":{"country_code":"RUS","city":"Ivanovo","geoname_id":"555312","downloaders":"{\"size\":20690,\"mobile\":1917,\"satellite\":0,\"tor\":0,\"tor_exit_nodes\":0,\"vpn\":590,\"relay\":0,\"proxy\":0,\"hosting\":7,\"service\":34}","uploaders":"{\"size\":32,\"mobile\":2,\"satellite\":0,\"tor\":0,\"tor_exit_nodes\":0,\"vpn\":0,\"relay\":0,\"proxy\":0,\"hosting\":0,\"service\":0}"},"geometry":{"type":"Point","coordinates":[40.97257,56.99988]}},{"type":"Feature","properties":{"country_code":"AUT","city":"Vienna","geoname_id":"2761369","downloaders":"{\"size\":20591,\"mobile\":3303,\"satellite\":70,\"tor\":0,\"tor_exit_nodes\":0,\"vpn\":3863,\"relay\":1,\"proxy\":63,\"hosting\":4540,\"service\":3576}","uploaders":"{\"size\":691,\"mobile\":135,\"satellite\":6,\"tor\":0,\"tor_exit_nodes\":0,\"vpn\":352,\"relay\":0,\"proxy\":3,\"hosting\":386,\"service\":347}"},"geometry":{"type":"Point","coordinates":[16.37208,48.20849]}},{"type":"Feature","properties":{"country_code":"","city":"","geoname_id":"","downloaders":"{\"size\":20583,\"mobile\":0,\"satellite\":0,\"tor\":0,\"tor_exit_nodes\":0,\"vpn\":7,\"relay\":0,\"proxy\":0,\"hosting\":16,\"service\":7}","uploaders":"{\"size\":29,\"mobile\":0,\"satellite\":0,\"tor\":0,\"tor_exit_nodes\":0,\"vpn\":0,\"relay\":0,\"proxy\":0,\"hosting\":0,\"service\":0}"},"geometry":{"type":"Point","coordinates":[0.0,0.0]}},{"type":"Feature","properties":{"country_code":"TWN","city":"Banqiao","geoname_id":"1670029","downloaders":"{\"size\":20435,\"mobile\":99,\"satellite\":0,\"tor\":0,\"tor_exit_nodes\":0,\"vpn\":1244,\"relay\":0,\"proxy\":2,\"hosting\":44,\"service\":0}","uploaders":"{\"size\":71,\"mobile\":0,\"satellite\":0,\"tor\":0,\"tor_exit_nodes\":0,\"vpn\":12,\"relay\":0,\"proxy\":0,\"hosting\":1,\"service\":0}"},"geometry":{"type":"Point","coordinates":[121.46719,25.01427]}},{"type":"Feature","properties":{"country_code":"RUS","city":"Stavropol’","geoname_id":"487846","downloaders":"{\"size\":20326,\"mobile\":6257,\"satellite\":0,\"tor\":0,\"tor_exit_nodes\":0,\"vpn\":92,\"relay\":0,\"proxy\":0,\"hosting\":0,\"service\":12}","uploaders":"{\"size\":66,\"mobile\":25,\"satellite\":0,\"tor\":0,\"tor_exit_nodes\":0,\"vpn\":0,\"relay\":0,\"proxy\":0,\"hosting\":0,\"service\":0}"},"geometry":{"type":"Point","coordinates":[41.9642,45.03442]}},{"type":"Feature","properties":{"country_code":"MAR","city":"Casablanca","geoname_id":"2553604","downloaders":"{\"size\":20179,\"mobile\":10176,\"satellite\":0,\"tor\":0,\"tor_exit_nodes\":0,\"vpn\":23,\"relay\":0,\"proxy\":0,\"hosting\":10,\"service\":0}","uploaders":"{\"size\":1273,\"mobile\":564,\"satellite\":0,\"tor\":0,\"tor_exit_nodes\":0,\"vpn\":6,\"relay\":0,\"proxy\":0,\"hosting\":0,\"service\":0}"},"geometry":{"type":"Point","coordinates":[-7.61138,33.58831]}},{"type":"Feature","properties":{"country_code":"JPN","city":"Yokohama","geoname_id":"1848354","downloaders":"{\"size\":20116,\"mobile\":1059,\"satellite\":0,\"tor\":0,\"tor_exit_nodes\":0,\"vpn\":1037,\"relay\":0,\"proxy\":13,\"hosting\":179,\"service\":626}","uploaders":"{\"size\":24,\"mobile\":4,\"satellite\":0,\"tor\":0,\"tor_exit_nodes\":0,\"vpn\":1,\"relay\":0,\"proxy\":0,\"hosting\":0,\"service\":1}"},"geometry":{"type":"Point","coordinates":[139.65,35.43333]}},{"type":"Feature","properties":{"country_code":"TUR","city":"Sille","geoname_id":"300799","downloaders":"{\"size\":19999,\"mobile\":6805,\"satellite\":0,\"tor\":0,\"tor_exit_nodes\":0,\"vpn\":0,\"relay\":0,\"proxy\":0,\"hosting\":0,\"service\":0}","uploaders":"{\"size\":4,\"mobile\":3,\"satellite\":0,\"tor\":0,\"tor_exit_nodes\":0,\"vpn\":0,\"relay\":0,\"proxy\":0,\"hosting\":0,\"service\":0}"},"geometry":{"type":"Point","coordinates":[32.41995,37.92731]}},{"type":"Feature","properties":{"country_code":"RUS","city":"Korolev","geoname_id":"554233","downloaders":"{\"size\":19945,\"mobile\":3,\"satellite\":0,\"tor\":0,\"tor_exit_nodes\":0,\"vpn\":502,\"relay\":0,\"proxy\":2,\"hosting\":1099,\"service\":25}","uploaders":"{\"size\":29,\"mobile\":0,\"satellite\":0,\"tor\":0,\"tor_exit_nodes\":0,\"vpn\":0,\"relay\":0,\"proxy\":0,\"hosting\":1,\"service\":0}"},"geometry":{"type":"Point","coordinates":[37.82556,55.91417]}},{"type":"Feature","properties":{"country_code":"COL","city":"Bogotá","geoname_id":"3688689","downloaders":"{\"size\":19723,\"mobile\":7944,\"satellite\":117,\"tor\":0,\"tor_exit_nodes\":0,\"vpn\":729,\"relay\":0,\"proxy\":1,\"hosting\":977,\"service\":589}","uploaders":"{\"size\":555,\"mobile\":222,\"satellite\":9,\"tor\":0,\"tor_exit_nodes\":0,\"vpn\":70,\"relay\":0,\"proxy\":0,\"hosting\":68,\"service\":63}"},"geometry":{"type":"Point","coordinates":[-74.08175,4.60971]}},{"type":"Feature","properties":{"country_code":"RUS","city":"Domodedovo","geoname_id":"565381","downloaders":"{\"size\":19688,\"mobile\":39,\"satellite\":0,\"tor\":0,\"tor_exit_nodes\":0,\"vpn\":238,\"relay\":0,\"proxy\":2,\"hosting\":382,\"service\":6}","uploaders":"{\"size\":39,\"mobile\":0,\"satellite\":0,\"tor\":0,\"tor_exit_nodes\":0,\"vpn\":0,\"relay\":0,\"proxy\":0,\"hosting\":3,\"service\":0}"},"geometry":{"type":"Point","coordinates":[37.75372,55.44223]}},{"type":"Feature","properties":{"country_code":"NLD","city":"Haarlem","geoname_id":"2755003","downloaders":"{\"size\":19540,\"mobile\":1,\"satellite\":0,\"tor\":0,\"tor_exit_nodes\":0,\"vpn\":14801,\"relay\":0,\"proxy\":2,\"hosting\":16922,\"service\":2842}","uploaders":"{\"size\":392,\"mobile\":0,\"satellite\":0,\"tor\":0,\"tor_exit_nodes\":0,\"vpn\":371,\"relay\":0,\"proxy\":0,\"hosting\":362,\"service\":344}"},"geometry":{"type":"Point","coordinates":[4.63683,52.38084]}},{"type":"Feature","properties":{"country_code":"SAU","city":"Riyadh","geoname_id":"108410","downloaders":"{\"size\":19436,\"mobile\":4908,\"satellite\":0,\"tor\":0,\"tor_exit_nodes\":0,\"vpn\":107,\"relay\":0,\"proxy\":1,\"hosting\":109,\"service\":58}","uploaders":"{\"size\":743,\"mobile\":298,\"satellite\":0,\"tor\":0,\"tor_exit_nodes\":0,\"vpn\":13,\"relay\":0,\"proxy\":0,\"hosting\":15,\"service\":10}"},"geometry":{"type":"Point","coordinates":[46.72185,24.68773]}},{"type":"Feature","properties":{"country_code":"CHN","city":"Wuhan","geoname_id":"1791247","downloaders":"{\"size\":19402,\"mobile\":24,\"satellite\":0,\"tor\":0,\"tor_exit_nodes\":0,\"vpn\":997,\"relay\":0,\"proxy\":0,\"hosting\":286,\"service\":0}","uploaders":"{\"size\":192,\"mobile\":0,\"satellite\":0,\"tor\":0,\"tor_exit_nodes\":0,\"vpn\":13,\"relay\":0,\"proxy\":0,\"hosting\":1,\"service\":0}"},"geometry":{"type":"Point","coordinates":[114.26667,30.58333]}},{"type":"Feature","properties":{"country_code":"RUS","city":"Murmansk","geoname_id":"524305","downloaders":"{\"size\":19218,\"mobile\":1072,\"satellite\":0,\"tor\":0,\"tor_exit_nodes\":0,\"vpn\":15,\"relay\":0,\"proxy\":0,\"hosting\":0,\"service\":8}","uploaders":"{\"size\":15,\"mobile\":1,\"satellite\":0,\"tor\":0,\"tor_exit_nodes\":0,\"vpn\":0,\"relay\":0,\"proxy\":0,\"hosting\":0,\"service\":0}"},"geometry":{"type":"Point","coordinates":[33.09922,68.96778]}},{"type":"Feature","properties":{"country_code":"TUR","city":"Adapazarı","geoname_id":"752850","downloaders":"{\"size\":18921,\"mobile\":3045,\"satellite\":0,\"tor\":0,\"tor_exit_nodes\":0,\"vpn\":4,\"relay\":0,\"proxy\":0,\"hosting\":0,\"service\":0}","uploaders":"{\"size\":8,\"mobile\":2,\"satellite\":0,\"tor\":0,\"tor_exit_nodes\":0,\"vpn\":0,\"relay\":0,\"proxy\":0,\"hosting\":0,\"service\":0}"},"geometry":{"type":"Point","coordinates":[30.40333,40.78056]}},{"type":"Feature","properties":{"country_code":"RUS","city":"Smolensk","geoname_id":"491687","downloaders":"{\"size\":18887,\"mobile\":99,\"satellite\":0,\"tor\":0,\"tor_exit_nodes\":0,\"vpn\":177,\"relay\":0,\"proxy\":0,\"hosting\":0,\"service\":11}","uploaders":"{\"size\":15,\"mobile\":0,\"satellite\":0,\"tor\":0,\"tor_exit_nodes\":0,\"vpn\":0,\"relay\":0,\"proxy\":0,\"hosting\":0,\"service\":0}"},"geometry":{"type":"Point","coordinates":[32.05088,54.77826]}},{"type":"Feature","properties":{"country_code":"POL","city":"Gdańsk","geoname_id":"3099434","downloaders":"{\"size\":18830,\"mobile\":623,\"satellite\":0,\"tor\":0,\"tor_exit_nodes\":0,\"vpn\":193,\"relay\":0,\"proxy\":13,\"hosting\":141,\"service\":62}","uploaders":"{\"size\":57,\"mobile\":2,\"satellite\":0,\"tor\":0,\"tor_exit_nodes\":0,\"vpn\":6,\"relay\":0,\"proxy\":0,\"hosting\":6,\"service\":6}"},"geometry":{"type":"Point","coordinates":[18.64912,54.35227]}},{"type":"Feature","properties":{"country_code":"RUS","city":"Kursk","geoname_id":"538560","downloaders":"{\"size\":18727,\"mobile\":218,\"satellite\":0,\"tor\":0,\"tor_exit_nodes\":0,\"vpn\":129,\"relay\":0,\"proxy\":3,\"hosting\":2,\"service\":3}","uploaders":"{\"size\":33,\"mobile\":3,\"satellite\":0,\"tor\":0,\"tor_exit_nodes\":0,\"vpn\":0,\"relay\":0,\"proxy\":0,\"hosting\":0,\"service\":0}"},"geometry":{"type":"Point","coordinates":[36.18457,51.72689]}},{"type":"Feature","properties":{"country_code":"USA","city":"Seattle","geoname_id":"5809844","downloaders":"{\"size\":18620,\"mobile\":403,\"satellite\":261,\"tor\":0,\"tor_exit_nodes\":0,\"vpn\":13926,\"relay\":5,\"proxy\":0,\"hosting\":13963,\"service\":13217}","uploaders":"{\"size\":1418,\"mobile\":12,\"satellite\":3,\"tor\":0,\"tor_exit_nodes\":0,\"vpn\":1327,\"relay\":0,\"proxy\":0,\"hosting\":1332,\"service\":1309}"},"geometry":{"type":"Point","coordinates":[-122.33207,47.60621]}},{"type":"Feature","properties":{"country_code":"THA","city":"Bangkok","geoname_id":"1609350","downloaders":"{\"size\":18583,\"mobile\":5644,\"satellite\":0,\"tor\":0,\"tor_exit_nodes\":0,\"vpn\":787,\"relay\":0,\"proxy\":44,\"hosting\":1537,\"service\":506}","uploaders":"{\"size\":386,\"mobile\":142,\"satellite\":0,\"tor\":0,\"tor_exit_nodes\":0,\"vpn\":60,\"relay\":0,\"proxy\":0,\"hosting\":50,\"service\":56}"},"geometry":{"type":"Point","coordinates":[100.50144,13.75398]}},{"type":"Feature","properties":{"country_code":"TUR","city":"Havutlu","geoname_id":"312344","downloaders":"{\"size\":18527,\"mobile\":4508,\"satellite\":0,\"tor\":0,\"tor_exit_nodes\":0,\"vpn\":0,\"relay\":0,\"proxy\":0,\"hosting\":0,\"service\":0}","uploaders":"{\"size\":5,\"mobile\":0,\"satellite\":0,\"tor\":0,\"tor_exit_nodes\":0,\"vpn\":0,\"relay\":0,\"proxy\":0,\"hosting\":0,\"service\":0}"},"geometry":{"type":"Point","coordinates":[35.3567,36.92484]}},{"type":"Feature","properties":{"country_code":"SWE","city":"Göteborg","geoname_id":"2711537","downloaders":"{\"size\":18493,\"mobile\":1599,\"satellite\":0,\"tor\":0,\"tor_exit_nodes\":0,\"vpn\":4039,\"relay\":0,\"proxy\":0,\"hosting\":3003,\"service\":3837}","uploaders":"{\"size\":462,\"mobile\":39,\"satellite\":0,\"tor\":0,\"tor_exit_nodes\":0,\"vpn\":277,\"relay\":0,\"proxy\":0,\"hosting\":262,\"service\":271}"},"geometry":{"type":"Point","coordinates":[11.96679,57.70716]}},{"type":"Feature","properties":{"country_code":"KOR","city":"Gumi","geoname_id":"1842225","downloaders":"{\"size\":18396,\"mobile\":78,\"satellite\":0,\"tor\":0,\"tor_exit_nodes\":0,\"vpn\":55,\"relay\":0,\"proxy\":6,\"hosting\":0,\"service\":32}","uploaders":"{\"size\":10,\"mobile\":0,\"satellite\":0,\"tor\":0,\"tor_exit_nodes\":0,\"vpn\":0,\"relay\":0,\"proxy\":0,\"hosting\":0,\"service\":0}"},"geometry":{"type":"Point","coordinates":[128.336,36.1136]}},{"type":"Feature","properties":{"country_code":"KOR","city":"Uijeongbu-si","geoname_id":"1833788","downloaders":"{\"size\":18271,\"mobile\":50,\"satellite\":0,\"tor\":0,\"tor_exit_nodes\":0,\"vpn\":143,\"relay\":0,\"proxy\":0,\"hosting\":0,\"service\":41}","uploaders":"{\"size\":7,\"mobile\":0,\"satellite\":0,\"tor\":0,\"tor_exit_nodes\":0,\"vpn\":0,\"relay\":0,\"proxy\":0,\"hosting\":0,\"service\":0}"},"geometry":{"type":"Point","coordinates":[127.0474,37.7415]}},{"type":"Feature","properties":{"country_code":"KOR","city":"Gwangju","geoname_id":"1841810","downloaders":"{\"size\":18061,\"mobile\":15,\"satellite\":0,\"tor\":0,\"tor_exit_nodes\":0,\"vpn\":190,\"relay\":0,\"proxy\":49,\"hosting\":0,\"service\":47}","uploaders":"{\"size\":5,\"mobile\":0,\"satellite\":0,\"tor\":0,\"tor_exit_nodes\":0,\"vpn\":0,\"relay\":0,\"proxy\":0,\"hosting\":0,\"service\":0}"},"geometry":{"type":"Point","coordinates":[127.25722,37.41]}},{"type":"Feature","properties":{"country_code":"NLD","city":"Rotterdam","geoname_id":"2747891","downloaders":"{\"size\":17994,\"mobile\":925,\"satellite\":0,\"tor\":0,\"tor_exit_nodes\":0,\"vpn\":982,\"relay\":1,\"proxy\":0,\"hosting\":1163,\"service\":715}","uploaders":"{\"size\":505,\"mobile\":172,\"satellite\":0,\"tor\":0,\"tor_exit_nodes\":0,\"vpn\":109,\"relay\":1,\"proxy\":0,\"hosting\":104,\"service\":104}"},"geometry":{"type":"Point","coordinates":[4.47917,51.9225]}},{"type":"Feature","properties":{"country_code":"ZAF","city":"Johannesburg","geoname_id":"993800","downloaders":"{\"size\":17847,\"mobile\":4407,\"satellite\":5,\"tor\":0,\"tor_exit_nodes\":0,\"vpn\":1175,\"relay\":0,\"proxy\":3,\"hosting\":5774,\"service\":989}","uploaders":"{\"size\":2474,\"mobile\":942,\"satellite\":0,\"tor\":0,\"tor_exit_nodes\":0,\"vpn\":150,\"relay\":0,\"proxy\":0,\"hosting\":618,\"service\":130}"},"geometry":{"type":"Point","coordinates":[28.04363,-26.20227]}},{"type":"Feature","properties":{"country_code":"RUS","city":"Podolsk","geoname_id":"508101","downloaders":"{\"size\":17810,\"mobile\":116,\"satellite\":0,\"tor\":0,\"tor_exit_nodes\":0,\"vpn\":844,\"relay\":0,\"proxy\":9,\"hosting\":359,\"service\":212}","uploaders":"{\"size\":10,\"mobile\":0,\"satellite\":0,\"tor\":0,\"tor_exit_nodes\":0,\"vpn\":0,\"relay\":0,\"proxy\":0,\"hosting\":0,\"service\":0}"},"geometry":{"type":"Point","coordinates":[37.55472,55.42419]}},{"type":"Feature","properties":{"country_code":"PRT","city":"Almada","geoname_id":"2271961","downloaders":"{\"size\":17589,\"mobile\":1138,\"satellite\":0,\"tor\":0,\"tor_exit_nodes\":0,\"vpn\":103,\"relay\":0,\"proxy\":0,\"hosting\":1,\"service\":1}","uploaders":"{\"size\":2002,\"mobile\":107,\"satellite\":0,\"tor\":0,\"tor_exit_nodes\":0,\"vpn\":3,\"relay\":0,\"proxy\":0,\"hosting\":0,\"service\":0}"},"geometry":{"type":"Point","coordinates":[-9.1569,38.67902]}},{"type":"Feature","properties":{"country_code":"CHN","city":"Quanzhou","geoname_id":"1797353","downloaders":"{\"size\":17426,\"mobile\":0,\"satellite\":0,\"tor\":0,\"tor_exit_nodes\":0,\"vpn\":271,\"relay\":0,\"proxy\":0,\"hosting\":0,\"service\":0}","uploaders":"{\"size\":40,\"mobile\":0,\"satellite\":0,\"tor\":0,\"tor_exit_nodes\":0,\"vpn\":3,\"relay\":0,\"proxy\":0,\"hosting\":0,\"service\":0}"},"geometry":{"type":"Point","coordinates":[118.58583,24.91389]}},{"type":"Feature","properties":{"country_code":"PAK","city":"Lahore","geoname_id":"1172451","downloaders":"{\"size\":17328,\"mobile\":344,\"satellite\":1,\"tor\":0,\"tor_exit_nodes\":0,\"vpn\":48,\"relay\":0,\"proxy\":0,\"hosting\":38,\"service\":0}","uploaders":"{\"size\":520,\"mobile\":59,\"satellite\":1,\"tor\":0,\"tor_exit_nodes\":0,\"vpn\":1,\"relay\":0,\"proxy\":0,\"hosting\":4,\"service\":0}"},"geometry":{"type":"Point","coordinates":[74.35071,31.558]}},{"type":"Feature","properties":{"country_code":"UZB","city":"Tashkent","geoname_id":"1512569","downloaders":"{\"size\":17297,\"mobile\":319,\"satellite\":0,\"tor\":0,\"tor_exit_nodes\":0,\"vpn\":1609,\"relay\":0,\"proxy\":3,\"hosting\":13456,\"service\":1436}","uploaders":"{\"size\":65,\"mobile\":20,\"satellite\":0,\"tor\":0,\"tor_exit_nodes\":0,\"vpn\":6,\"relay\":0,\"proxy\":0,\"hosting\":39,\"service\":5}"},"geometry":{"type":"Point","coordinates":[69.21627,41.26465]}},{"type":"Feature","properties":{"country_code":"EGY","city":"Cairo","geoname_id":"360630","downloaders":"{\"size\":17233,\"mobile\":1188,\"satellite\":0,\"tor\":0,\"tor_exit_nodes\":0,\"vpn\":42,\"relay\":0,\"proxy\":0,\"hosting\":62,\"service\":38}","uploaders":"{\"size\":460,\"mobile\":104,\"satellite\":0,\"tor\":0,\"tor_exit_nodes\":0,\"vpn\":6,\"relay\":0,\"proxy\":0,\"hosting\":6,\"service\":6}"},"geometry":{"type":"Point","coordinates":[31.24967,30.06263]}},{"type":"Feature","properties":{"country_code":"USA","city":"Phoenix","geoname_id":"5308655","downloaders":"{\"size\":17056,\"mobile\":196,\"satellite\":156,\"tor\":0,\"tor_exit_nodes\":0,\"vpn\":3366,\"relay\":11,\"proxy\":16,\"hosting\":5975,\"service\":3117}","uploaders":"{\"size\":516,\"mobile\":6,\"satellite\":10,\"tor\":0,\"tor_exit_nodes\":0,\"vpn\":349,\"relay\":0,\"proxy\":0,\"hosting\":429,\"service\":333}"},"geometry":{"type":"Point","coordinates":[-112.07404,33.44838]}},{"type":"Feature","properties":{"country_code":"KOR","city":"Jeju City","geoname_id":"1846266","downloaders":"{\"size\":17041,\"mobile\":10,\"satellite\":0,\"tor\":0,\"tor_exit_nodes\":0,\"vpn\":84,\"relay\":0,\"proxy\":5,\"hosting\":0,\"service\":10}","uploaders":"{\"size\":11,\"mobile\":0,\"satellite\":0,\"tor\":0,\"tor_exit_nodes\":0,\"vpn\":0,\"relay\":0,\"proxy\":0,\"hosting\":0,\"service\":0}"},"geometry":{"type":"Point","coordinates":[126.52194,33.50972]}},{"type":"Feature","properties":{"country_code":"DNK","city":"Copenhagen","geoname_id":"2618425","downloaders":"{\"size\":17008,\"mobile\":1682,\"satellite\":0,\"tor\":0,\"tor_exit_nodes\":0,\"vpn\":3651,\"relay\":0,\"proxy\":1,\"hosting\":3735,\"service\":2591}","uploaders":"{\"size\":956,\"mobile\":309,\"satellite\":0,\"tor\":0,\"tor_exit_nodes\":0,\"vpn\":381,\"relay\":0,\"proxy\":0,\"hosting\":405,\"service\":378}"},"geometry":{"type":"Point","coordinates":[12.56553,55.67594]}},{"type":"Feature","properties":{"country_code":"KOR","city":"Kimhae","geoname_id":"1842943","downloaders":"{\"size\":16814,\"mobile\":15,\"satellite\":0,\"tor\":0,\"tor_exit_nodes\":0,\"vpn\":96,\"relay\":0,\"proxy\":2,\"hosting\":0,\"service\":7}","uploaders":"{\"size\":7,\"mobile\":0,\"satellite\":0,\"tor\":0,\"tor_exit_nodes\":0,\"vpn\":0,\"relay\":0,\"proxy\":0,\"hosting\":0,\"service\":0}"},"geometry":{"type":"Point","coordinates":[128.88111,35.23417]}},{"type":"Feature","properties":{"country_code":"KAZ","city":"Almaty","geoname_id":"1526384","downloaders":"{\"size\":16771,\"mobile\":1920,\"satellite\":0,\"tor\":0,\"tor_exit_nodes\":0,\"vpn\":163,\"relay\":0,\"proxy\":1,\"hosting\":3084,\"service\":10}","uploaders":"{\"size\":48,\"mobile\":11,\"satellite\":0,\"tor\":0,\"tor_exit_nodes\":0,\"vpn\":1,\"relay\":0,\"proxy\":0,\"hosting\":5,\"service\":1}"},"geometry":{"type":"Point","coordinates":[76.9115,43.25249]}},{"type":"Feature","properties":{"country_code":"GRC","city":"Athens","geoname_id":"264371","downloaders":"{\"size\":16659,\"mobile\":5722,\"satellite\":170,\"tor\":0,\"tor_exit_nodes\":0,\"vpn\":1428,\"relay\":0,\"proxy\":0,\"hosting\":1908,\"service\":1342}","uploaders":"{\"size\":2578,\"mobile\":1192,\"satellite\":56,\"tor\":0,\"tor_exit_nodes\":0,\"vpn\":223,\"relay\":0,\"proxy\":0,\"hosting\":315,\"service\":220}"},"geometry":{"type":"Point","coordinates":[23.72784,37.98376]}},{"type":"Feature","properties":{"country_code":"SAU","city":"Jeddah","geoname_id":"105343","downloaders":"{\"size\":16583,\"mobile\":2818,\"satellite\":0,\"tor\":0,\"tor_exit_nodes\":0,\"vpn\":52,\"relay\":0,\"proxy\":0,\"hosting\":59,\"service\":33}","uploaders":"{\"size\":437,\"mobile\":182,\"satellite\":0,\"tor\":0,\"tor_exit_nodes\":0,\"vpn\":13,\"relay\":0,\"proxy\":0,\"hosting\":13,\"service\":11}"},"geometry":{"type":"Point","coordinates":[39.18624,21.49012]}},{"type":"Feature","properties":{"country_code":"RUS","city":"Belgorod","geoname_id":"578072","downloaders":"{\"size\":16445,\"mobile\":2821,\"satellite\":0,\"tor\":0,\"tor_exit_nodes\":0,\"vpn\":213,\"relay\":0,\"proxy\":0,\"hosting\":0,\"service\":6}","uploaders":"{\"size\":16,\"mobile\":1,\"satellite\":0,\"tor\":0,\"tor_exit_nodes\":0,\"vpn\":0,\"relay\":0,\"proxy\":0,\"hosting\":0,\"service\":0}"},"geometry":{"type":"Point","coordinates":[36.58091,50.60343]}},{"type":"Feature","properties":{"country_code":"POL","city":"Katowice","geoname_id":"3096472","downloaders":"{\"size\":16365,\"mobile\":515,\"satellite\":0,\"tor\":0,\"tor_exit_nodes\":0,\"vpn\":62,\"relay\":0,\"proxy\":0,\"hosting\":345,\"service\":0}","uploaders":"{\"size\":44,\"mobile\":24,\"satellite\":0,\"tor\":0,\"tor_exit_nodes\":0,\"vpn\":0,\"relay\":0,\"proxy\":0,\"hosting\":1,\"service\":0}"},"geometry":{"type":"Point","coordinates":[19.02173,50.2597]}},{"type":"Feature","properties":{"country_code":"RUS","city":"Kostroma","geoname_id":"543878","downloaders":"{\"size\":16313,\"mobile\":3,\"satellite\":0,\"tor\":0,\"tor_exit_nodes\":0,\"vpn\":664,\"relay\":0,\"proxy\":0,\"hosting\":0,\"service\":536}","uploaders":"{\"size\":27,\"mobile\":0,\"satellite\":0,\"tor\":0,\"tor_exit_nodes\":0,\"vpn\":1,\"relay\":0,\"proxy\":0,\"hosting\":0,\"service\":0}"},"geometry":{"type":"Point","coordinates":[40.92828,57.76638]}},{"type":"Feature","properties":{"country_code":"RUS","city":"Pushkino","geoname_id":"503977","downloaders":"{\"size\":16302,\"mobile\":37,\"satellite\":0,\"tor\":0,\"tor_exit_nodes\":0,\"vpn\":625,\"relay\":0,\"proxy\":0,\"hosting\":271,\"service\":0}","uploaders":"{\"size\":16,\"mobile\":0,\"satellite\":0,\"tor\":0,\"tor_exit_nodes\":0,\"vpn\":0,\"relay\":0,\"proxy\":0,\"hosting\":1,\"service\":0}"},"geometry":{"type":"Point","coordinates":[37.82897,55.99456]}},{"type":"Feature","properties":{"country_code":"BGR","city":"Plovdiv","geoname_id":"728193","downloaders":"{\"size\":16284,\"mobile\":397,\"satellite\":0,\"tor\":0,\"tor_exit_nodes\":0,\"vpn\":344,\"relay\":0,\"proxy\":0,\"hosting\":293,\"service\":0}","uploaders":"{\"size\":95,\"mobile\":2,\"satellite\":0,\"tor\":0,\"tor_exit_nodes\":0,\"vpn\":4,\"relay\":0,\"proxy\":0,\"hosting\":0,\"service\":0}"},"geometry":{"type":"Point","coordinates":[24.75001,42.15387]}},{"type":"Feature","properties":{"country_code":"KOR","city":"Chinju","geoname_id":"1846052","downloaders":"{\"size\":16242,\"mobile\":3,\"satellite\":0,\"tor\":0,\"tor_exit_nodes\":0,\"vpn\":119,\"relay\":0,\"proxy\":8,\"hosting\":0,\"service\":1}","uploaders":"{\"size\":12,\"mobile\":0,\"satellite\":0,\"tor\":0,\"tor_exit_nodes\":0,\"vpn\":1,\"relay\":0,\"proxy\":0,\"hosting\":0,\"service\":0}"},"geometry":{"type":"Point","coordinates":[128.08472,35.19278]}},{"type":"Feature","properties":{"country_code":"UKR","city":"Lviv","geoname_id":"702550","downloaders":"{\"size\":16235,\"mobile\":443,\"satellite\":0,\"tor\":0,\"tor_exit_nodes\":0,\"vpn\":240,\"relay\":0,\"proxy\":0,\"hosting\":32,\"service\":1}","uploaders":"{\"size\":70,\"mobile\":14,\"satellite\":0,\"tor\":0,\"tor_exit_nodes\":0,\"vpn\":0,\"relay\":0,\"proxy\":0,\"hosting\":0,\"service\":0}"},"geometry":{"type":"Point","coordinates":[24.02324,49.83826]}},{"type":"Feature","properties":{"country_code":"USA","city":"San Jose","geoname_id":"5392171","downloaders":"{\"size\":16058,\"mobile\":163,\"satellite\":122,\"tor\":6,\"tor_exit_nodes\":4,\"vpn\":8209,\"relay\":2,\"proxy\":3,\"hosting\":11260,\"service\":7982}","uploaders":"{\"size\":1002,\"mobile\":0,\"satellite\":4,\"tor\":2,\"tor_exit_nodes\":2,\"vpn\":735,\"relay\":0,\"proxy\":0,\"hosting\":925,\"service\":733}"},"geometry":{"type":"Point","coordinates":[-121.8896,37.2568]}},{"type":"Feature","properties":{"country_code":"RUS","city":"Tambov","geoname_id":"484646","downloaders":"{\"size\":16012,\"mobile\":4,\"satellite\":0,\"tor\":0,\"tor_exit_nodes\":0,\"vpn\":123,\"relay\":0,\"proxy\":0,\"hosting\":0,\"service\":0}","uploaders":"{\"size\":30,\"mobile\":0,\"satellite\":0,\"tor\":0,\"tor_exit_nodes\":0,\"vpn\":0,\"relay\":0,\"proxy\":0,\"hosting\":0,\"service\":0}"},"geometry":{"type":"Point","coordinates":[41.44102,52.73632]}},{"type":"Feature","properties":{"country_code":"AUS","city":"Perth","geoname_id":"2063523","downloaders":"{\"size\":15970,\"mobile\":629,\"satellite\":94,\"tor\":0,\"tor_exit_nodes\":0,\"vpn\":3181,\"relay\":0,\"proxy\":5,\"hosting\":3503,\"service\":2777}","uploaders":"{\"size\":1108,\"mobile\":109,\"satellite\":18,\"tor\":0,\"tor_exit_nodes\":0,\"vpn\":329,\"relay\":0,\"proxy\":0,\"hosting\":372,\"service\":323}"},"geometry":{"type":"Point","coordinates":[115.8614,-31.95224]}},{"type":"Feature","properties":{"country_code":"MEX","city":"Ciudad Apodaca","geoname_id":"4018390","downloaders":"{\"size\":15903,\"mobile\":0,\"satellite\":0,\"tor\":0,\"tor_exit_nodes\":0,\"vpn\":18,\"relay\":0,\"proxy\":0,\"hosting\":0,\"service\":0}","uploaders":"{\"size\":28,\"mobile\":0,\"satellite\":0,\"tor\":0,\"tor_exit_nodes\":0,\"vpn\":0,\"relay\":0,\"proxy\":0,\"hosting\":0,\"service\":0}"},"geometry":{"type":"Point","coordinates":[-100.18839,25.78195]}},{"type":"Feature","properties":{"country_code":"RUS","city":"Orël","geoname_id":"515012","downloaders":"{\"size\":15799,\"mobile\":403,\"satellite\":0,\"tor\":0,\"tor_exit_nodes\":0,\"vpn\":72,\"relay\":0,\"proxy\":0,\"hosting\":1,\"service\":1}","uploaders":"{\"size\":18,\"mobile\":2,\"satellite\":0,\"tor\":0,\"tor_exit_nodes\":0,\"vpn\":0,\"relay\":0,\"proxy\":0,\"hosting\":0,\"service\":0}"},"geometry":{"type":"Point","coordinates":[36.0791,52.96879]}},{"type":"Feature","properties":{"country_code":"NLD","city":"Soest","geoname_id":"2747034","downloaders":"{\"size\":15764,\"mobile\":0,\"satellite\":0,\"tor\":0,\"tor_exit_nodes\":0,\"vpn\":1647,\"relay\":0,\"proxy\":19,\"hosting\":15443,\"service\":1354}","uploaders":"{\"size\":46,\"mobile\":0,\"satellite\":0,\"tor\":0,\"tor_exit_nodes\":0,\"vpn\":17,\"relay\":0,\"proxy\":0,\"hosting\":43,\"service\":17}"},"geometry":{"type":"Point","coordinates":[5.29167,52.17333]}},{"type":"Feature","properties":{"country_code":"KOR","city":"Pohang","geoname_id":"1839071","downloaders":"{\"size\":15627,\"mobile\":72,\"satellite\":0,\"tor\":0,\"tor_exit_nodes\":0,\"vpn\":43,\"relay\":0,\"proxy\":0,\"hosting\":0,\"service\":1}","uploaders":"{\"size\":7,\"mobile\":0,\"satellite\":0,\"tor\":0,\"tor_exit_nodes\":0,\"vpn\":0,\"relay\":0,\"proxy\":0,\"hosting\":0,\"service\":0}"},"geometry":{"type":"Point","coordinates":[129.36481,36.02917]}},