{"type":"FeatureCollection","id":"Star Wars: Tales of the Jedi","swarm_features":120,"features":[{"type":"Feature","properties":{"country_code":"RUS","city":"Moscow","geoname_id":"524901","downloaders":"{\"size\":54790,\"mobile\":3354,\"satellite\":14,\"tor\":0,\"tor_exit_nodes\":0,\"vpn\":1993,\"relay\":0,\"proxy\":3,\"hosting\":6286,\"service\":362}","uploaders":"{\"size\":5183,\"mobile\":537,\"satellite\":2,\"tor\":0,\"tor_exit_nodes\":0,\"vpn\":71,\"relay\":0,\"proxy\":0,\"hosting\":533,\"service\":19}"},"geometry":{"type":"Point","coordinates":[37.61556,55.75222]}},{"type":"Feature","properties":{"country_code":"NLD","city":"Amsterdam","geoname_id":"2759794","downloaders":"{\"size\":35435,\"mobile\":158,\"satellite\":2,\"tor\":4,\"tor_exit_nodes\":6,\"vpn\":12850,\"relay\":7,\"proxy\":47,\"hosting\":30713,\"service\":10528}","uploaders":"{\"size\":6228,\"mobile\":34,\"satellite\":0,\"tor\":1,\"tor_exit_nodes\":1,\"vpn\":2750,\"relay\":0,\"proxy\":1,\"hosting\":4665,\"service\":2323}"},"geometry":{"type":"Point","coordinates":[4.88969,52.37403]}},{"type":"Feature","properties":{"country_code":"KOR","city":"Seoul","geoname_id":"1835848","downloaders":"{\"size\":33618,\"mobile\":410,\"satellite\":0,\"tor\":0,\"tor_exit_nodes\":0,\"vpn\":594,\"relay\":0,\"proxy\":0,\"hosting\":479,\"service\":263}","uploaders":"{\"size\":1270,\"mobile\":48,\"satellite\":0,\"tor\":0,\"tor_exit_nodes\":0,\"vpn\":36,\"relay\":0,\"proxy\":0,\"hosting\":102,\"service\":29}"},"geometry":{"type":"Point","coordinates":[126.9784,37.566]}},{"type":"Feature","properties":{"country_code":"GBR","city":"London","geoname_id":"2643743","downloaders":"{\"size\":30928,\"mobile\":2092,\"satellite\":44,\"tor\":0,\"tor_exit_nodes\":0,\"vpn\":9254,\"relay\":0,\"proxy\":4,\"hosting\":14670,\"service\":7747}","uploaders":"{\"size\":7330,\"mobile\":479,\"satellite\":17,\"tor\":0,\"tor_exit_nodes\":0,\"vpn\":2297,\"relay\":0,\"proxy\":0,\"hosting\":3350,\"service\":1837}"},"geometry":{"type":"Point","coordinates":[-0.12574,51.50853]}},{"type":"Feature","properties":{"country_code":"USA","city":"Ashburn","geoname_id":"4744870","downloaders":"{\"size\":22577,\"mobile\":304,\"satellite\":6,\"tor\":0,\"tor_exit_nodes\":0,\"vpn\":2174,\"relay\":0,\"proxy\":0,\"hosting\":21835,\"service\":1961}","uploaders":"{\"size\":12279,\"mobile\":42,\"satellite\":5,\"tor\":0,\"tor_exit_nodes\":0,\"vpn\":698,\"relay\":0,\"proxy\":0,\"hosting\":12119,\"service\":666}"},"geometry":{"type":"Point","coordinates":[-77.48749,39.04372]}},{"type":"Feature","properties":{"country_code":"RUS","city":"Saint Petersburg","geoname_id":"498817","downloaders":"{\"size\":20646,\"mobile\":1375,\"satellite\":0,\"tor\":0,\"tor_exit_nodes\":0,\"vpn\":355,\"relay\":0,\"proxy\":0,\"hosting\":1123,\"service\":31}","uploaders":"{\"size\":1822,\"mobile\":285,\"satellite\":0,\"tor\":0,\"tor_exit_nodes\":0,\"vpn\":21,\"relay\":0,\"proxy\":0,\"hosting\":145,\"service\":2}"},"geometry":{"type":"Point","coordinates":[30.31413,59.93863]}},{"type":"Feature","properties":{"country_code":"DEU","city":"Frankfurt am Main","geoname_id":"2925533","downloaders":"{\"size\":20422,\"mobile\":113,\"satellite\":0,\"tor\":1,\"tor_exit_nodes\":3,\"vpn\":4331,\"relay\":0,\"proxy\":88,\"hosting\":19152,\"service\":4138}","uploaders":"{\"size\":5371,\"mobile\":10,\"satellite\":0,\"tor\":1,\"tor_exit_nodes\":1,\"vpn\":798,\"relay\":0,\"proxy\":1,\"hosting\":5199,\"service\":758}"},"geometry":{"type":"Point","coordinates":[8.68417,50.11552]}},{"type":"Feature","properties":{"country_code":"USA","city":"New York City","geoname_id":"5128581","downloaders":"{\"size\":18884,\"mobile\":908,\"satellite\":75,\"tor\":0,\"tor_exit_nodes\":2,\"vpn\":10605,\"relay\":4,\"proxy\":2,\"hosting\":13121,\"service\":9790}","uploaders":"{\"size\":4026,\"mobile\":159,\"satellite\":6,\"tor\":0,\"tor_exit_nodes\":0,\"vpn\":2628,\"relay\":0,\"proxy\":0,\"hosting\":3130,\"service\":2467}"},"geometry":{"type":"Point","coordinates":[-74.00597,40.71427]}},{"type":"Feature","properties":{"country_code":"CHN","city":"Shanghai","geoname_id":"1796236","downloaders":"{\"size\":16713,\"mobile\":141,\"satellite\":0,\"tor\":0,\"tor_exit_nodes\":0,\"vpn\":149,\"relay\":0,\"proxy\":0,\"hosting\":982,\"service\":0}","uploaders":"{\"size\":1685,\"mobile\":8,\"satellite\":0,\"tor\":0,\"tor_exit_nodes\":0,\"vpn\":44,\"relay\":0,\"proxy\":0,\"hosting\":212,\"service\":0}"},"geometry":{"type":"Point","coordinates":[121.45806,31.22222]}},{"type":"Feature","properties":{"country_code":"AUS","city":"Melbourne","geoname_id":"2158177","downloaders":"{\"size\":15421,\"mobile\":949,\"satellite\":11,\"tor\":0,\"tor_exit_nodes\":0,\"vpn\":3824,\"relay\":0,\"proxy\":0,\"hosting\":4756,\"service\":3461}","uploaders":"{\"size\":5211,\"mobile\":214,\"satellite\":6,\"tor\":0,\"tor_exit_nodes\":0,\"vpn\":1295,\"relay\":0,\"proxy\":0,\"hosting\":1539,\"service\":1190}"},"geometry":{"type":"Point","coordinates":[144.96332,-37.814]}},{"type":"Feature","properties":{"country_code":"CAN","city":"Toronto","geoname_id":"6167865","downloaders":"{\"size\":15252,\"mobile\":577,\"satellite\":26,\"tor\":17,\"tor_exit_nodes\":104,\"vpn\":7090,\"relay\":5,\"proxy\":12,\"hosting\":10595,\"service\":6938}","uploaders":"{\"size\":4809,\"mobile\":225,\"satellite\":6,\"tor\":12,\"tor_exit_nodes\":57,\"vpn\":2322,\"relay\":2,\"proxy\":0,\"hosting\":3411,\"service\":2267}"},"geometry":{"type":"Point","coordinates":[-79.39864,43.70643]}},{"type":"Feature","properties":{"country_code":"FRA","city":"Paris","geoname_id":"2988507","downloaders":"{\"size\":15182,\"mobile\":2355,\"satellite\":4,\"tor\":2,\"tor_exit_nodes\":10,\"vpn\":2655,\"relay\":0,\"proxy\":0,\"hosting\":5875,\"service\":2025}","uploaders":"{\"size\":1780,\"mobile\":293,\"satellite\":2,\"tor\":0,\"tor_exit_nodes\":3,\"vpn\":532,\"relay\":0,\"proxy\":0,\"hosting\":651,\"service\":444}"},"geometry":{"type":"Point","coordinates":[2.3488,48.85341]}},{"type":"Feature","properties":{"country_code":"AUS","city":"Sydney","geoname_id":"2147714","downloaders":"{\"size\":14984,\"mobile\":2315,\"satellite\":78,\"tor\":0,\"tor_exit_nodes\":0,\"vpn\":6231,\"relay\":183,\"proxy\":0,\"hosting\":7149,\"service\":6021}","uploaders":"{\"size\":4721,\"mobile\":870,\"satellite\":37,\"tor\":0,\"tor_exit_nodes\":0,\"vpn\":1285,\"relay\":0,\"proxy\":0,\"hosting\":1518,\"service\":1225}"},"geometry":{"type":"Point","coordinates":[151.20732,-33.86785]}},{"type":"Feature","properties":{"country_code":"USA","city":"Los Angeles","geoname_id":"5368361","downloaders":"{\"size\":14546,\"mobile\":378,\"satellite\":36,\"tor\":0,\"tor_exit_nodes\":0,\"vpn\":9733,\"relay\":3,\"proxy\":115,\"hosting\":10468,\"service\":8022}","uploaders":"{\"size\":2898,\"mobile\":76,\"satellite\":8,\"tor\":0,\"tor_exit_nodes\":0,\"vpn\":1824,\"relay\":1,\"proxy\":41,\"hosting\":2103,\"service\":1572}"},"geometry":{"type":"Point","coordinates":[-118.24368,34.05223]}},{"type":"Feature","properties":{"country_code":"USA","city":"Dallas","geoname_id":"4684888","downloaders":"{\"size\":12927,\"mobile\":222,\"satellite\":48,\"tor\":0,\"tor_exit_nodes\":0,\"vpn\":5215,\"relay\":6,\"proxy\":0,\"hosting\":10566,\"service\":5042}","uploaders":"{\"size\":4290,\"mobile\":42,\"satellite\":13,\"tor\":0,\"tor_exit_nodes\":0,\"vpn\":1298,\"relay\":3,\"proxy\":0,\"hosting\":3775,\"service\":1267}"},"geometry":{"type":"Point","coordinates":[-96.80667,32.78306]}},{"type":"Feature","properties":{"country_code":"HUN","city":"Budapest","geoname_id":"3054643","downloaders":"{\"size\":12382,\"mobile\":883,\"satellite\":0,\"tor\":1,\"tor_exit_nodes\":1,\"vpn\":434,\"relay\":0,\"proxy\":0,\"hosting\":481,\"service\":206}","uploaders":"{\"size\":2089,\"mobile\":214,\"satellite\":0,\"tor\":0,\"tor_exit_nodes\":0,\"vpn\":41,\"relay\":0,\"proxy\":0,\"hosting\":40,\"service\":29}"},"geometry":{"type":"Point","coordinates":[19.04045,47.49835]}},{"type":"Feature","properties":{"country_code":"BGR","city":"Sofia","geoname_id":"727011","downloaders":"{\"size\":12163,\"mobile\":2540,\"satellite\":0,\"tor\":0,\"tor_exit_nodes\":0,\"vpn\":696,\"relay\":0,\"proxy\":0,\"hosting\":1407,\"service\":504}","uploaders":"{\"size\":2763,\"mobile\":536,\"satellite\":0,\"tor\":0,\"tor_exit_nodes\":0,\"vpn\":123,\"relay\":0,\"proxy\":0,\"hosting\":254,\"service\":99}"},"geometry":{"type":"Point","coordinates":[23.32415,42.69751]}},{"type":"Feature","properties":{"country_code":"USA","city":"Seattle","geoname_id":"5809844","downloaders":"{\"size\":12134,\"mobile\":277,\"satellite\":58,\"tor\":0,\"tor_exit_nodes\":0,\"vpn\":8364,\"relay\":0,\"proxy\":0,\"hosting\":10479,\"service\":8211}","uploaders":"{\"size\":2624,\"mobile\":76,\"satellite\":21,\"tor\":0,\"tor_exit_nodes\":0,\"vpn\":1568,\"relay\":0,\"proxy\":0,\"hosting\":2253,\"service\":1558}"},"geometry":{"type":"Point","coordinates":[-122.3129,47.5413]}},{"type":"Feature","properties":{"country_code":"USA","city":"Miami","geoname_id":"4164138","downloaders":"{\"size\":11660,\"mobile\":42,\"satellite\":23,\"tor\":0,\"tor_exit_nodes\":0,\"vpn\":9562,\"relay\":0,\"proxy\":0,\"hosting\":10361,\"service\":9534}","uploaders":"{\"size\":1452,\"mobile\":7,\"satellite\":4,\"tor\":0,\"tor_exit_nodes\":0,\"vpn\":1111,\"relay\":0,\"proxy\":0,\"hosting\":1282,\"service\":1107}"},"geometry":{"type":"Point","coordinates":[-80.19366,25.77427]}},{"type":"Feature","properties":{"country_code":"CAN","city":"Montréal","geoname_id":"6077243","downloaders":"{\"size\":11114,\"mobile\":425,\"satellite\":0,\"tor\":0,\"tor_exit_nodes\":0,\"vpn\":5774,\"relay\":0,\"proxy\":0,\"hosting\":6422,\"service\":5740}","uploaders":"{\"size\":3037,\"mobile\":53,\"satellite\":0,\"tor\":0,\"tor_exit_nodes\":0,\"vpn\":1917,\"relay\":0,\"proxy\":0,\"hosting\":1733,\"service\":1912}"},"geometry":{"type":"Point","coordinates":[-73.58781,45.50884]}},{"type":"Feature","properties":{"country_code":"USA","city":"Chicago","geoname_id":"4887398","downloaders":"{\"size\":10598,\"mobile\":649,\"satellite\":19,\"tor\":0,\"tor_exit_nodes\":0,\"vpn\":6087,\"relay\":13,\"proxy\":0,\"hosting\":5801,\"service\":4781}","uploaders":"{\"size\":2090,\"mobile\":85,\"satellite\":5,\"tor\":0,\"tor_exit_nodes\":0,\"vpn\":1366,\"relay\":1,\"proxy\":0,\"hosting\":1390,\"service\":1197}"},"geometry":{"type":"Point","coordinates":[-87.65005,41.85003]}},{"type":"Feature","properties":{"country_code":"ZAF","city":"Johannesburg","geoname_id":"993800","downloaders":"{\"size\":10044,\"mobile\":4067,\"satellite\":2,\"tor\":0,\"tor_exit_nodes\":0,\"vpn\":498,\"relay\":0,\"proxy\":0,\"hosting\":1586,\"service\":444}","uploaders":"{\"size\":3151,\"mobile\":1047,\"satellite\":1,\"tor\":0,\"tor_exit_nodes\":0,\"vpn\":117,\"relay\":0,\"proxy\":0,\"hosting\":512,\"service\":96}"},"geometry":{"type":"Point","coordinates":[28.04363,-26.20227]}},{"type":"Feature","properties":{"country_code":"TUR","city":"Istanbul","geoname_id":"745044","downloaders":"{\"size\":9967,\"mobile\":873,\"satellite\":0,\"tor\":0,\"tor_exit_nodes\":0,\"vpn\":113,\"relay\":0,\"proxy\":0,\"hosting\":314,\"service\":102}","uploaders":"{\"size\":950,\"mobile\":137,\"satellite\":0,\"tor\":0,\"tor_exit_nodes\":0,\"vpn\":34,\"relay\":0,\"proxy\":0,\"hosting\":77,\"service\":29}"},"geometry":{"type":"Point","coordinates":[28.94966,41.01384]}},{"type":"Feature","properties":{"country_code":"IRL","city":"Dublin","geoname_id":"2964574","downloaders":"{\"size\":9417,\"mobile\":715,\"satellite\":0,\"tor\":0,\"tor_exit_nodes\":0,\"vpn\":686,\"relay\":0,\"proxy\":0,\"hosting\":6580,\"service\":633}","uploaders":"{\"size\":3967,\"mobile\":144,\"satellite\":0,\"tor\":0,\"tor_exit_nodes\":0,\"vpn\":218,\"relay\":0,\"proxy\":0,\"hosting\":3176,\"service\":202}"},"geometry":{"type":"Point","coordinates":[-6.24889,53.33306]}},{"type":"Feature","properties":{"country_code":"RUS","city":"Yekaterinburg","geoname_id":"1486209","downloaders":"{\"size\":9011,\"mobile\":824,\"satellite\":0,\"tor\":0,\"tor_exit_nodes\":0,\"vpn\":224,\"relay\":0,\"proxy\":0,\"hosting\":498,\"service\":8}","uploaders":"{\"size\":693,\"mobile\":103,\"satellite\":0,\"tor\":0,\"tor_exit_nodes\":0,\"vpn\":4,\"relay\":0,\"proxy\":0,\"hosting\":24,\"service\":1}"},"geometry":{"type":"Point","coordinates":[60.6122,56.8519]}},{"type":"Feature","properties":{"country_code":"POL","city":"Warsaw","geoname_id":"756135","downloaders":"{\"size\":8763,\"mobile\":597,\"satellite\":36,\"tor\":1,\"tor_exit_nodes\":1,\"vpn\":790,\"relay\":0,\"proxy\":0,\"hosting\":1339,\"service\":709}","uploaders":"{\"size\":1736,\"mobile\":126,\"satellite\":15,\"tor\":1,\"tor_exit_nodes\":1,\"vpn\":175,\"relay\":0,\"proxy\":0,\"hosting\":255,\"service\":162}"},"geometry":{"type":"Point","coordinates":[21.01178,52.22977]}},{"type":"Feature","properties":{"country_code":"BRA","city":"São Paulo","geoname_id":"3448439","downloaders":"{\"size\":8291,\"mobile\":830,\"satellite\":1,\"tor\":0,\"tor_exit_nodes\":0,\"vpn\":790,\"relay\":0,\"proxy\":0,\"hosting\":1449,\"service\":762}","uploaders":"{\"size\":1544,\"mobile\":126,\"satellite\":0,\"tor\":0,\"tor_exit_nodes\":0,\"vpn\":310,\"relay\":0,\"proxy\":0,\"hosting\":509,\"service\":302}"},"geometry":{"type":"Point","coordinates":[-46.63611,-23.5475]}},{"type":"Feature","properties":{"country_code":"HRV","city":"Zagreb","geoname_id":"3186886","downloaders":"{\"size\":8165,\"mobile\":2331,\"satellite\":0,\"tor\":0,\"tor_exit_nodes\":0,\"vpn\":56,\"relay\":5,\"proxy\":0,\"hosting\":40,\"service\":46}","uploaders":"{\"size\":3043,\"mobile\":828,\"satellite\":0,\"tor\":0,\"tor_exit_nodes\":0,\"vpn\":16,\"relay\":0,\"proxy\":0,\"hosting\":6,\"service\":12}"},"geometry":{"type":"Point","coordinates":[15.97798,45.81444]}},{"type":"Feature","properties":{"country_code":"SGP","city":"Singapore","geoname_id":"1880252","downloaders":"{\"size\":7835,\"mobile\":485,\"satellite\":0,\"tor\":0,\"tor_exit_nodes\":0,\"vpn\":4139,\"relay\":0,\"proxy\":0,\"hosting\":5768,\"service\":4121}","uploaders":"{\"size\":2114,\"mobile\":131,\"satellite\":0,\"tor\":0,\"tor_exit_nodes\":0,\"vpn\":1192,\"relay\":0,\"proxy\":0,\"hosting\":1483,\"service\":1191}"},"geometry":{"type":"Point","coordinates":[103.85007,1.28967]}},{"type":"Feature","properties":{"country_code":"KEN","city":"Nairobi","geoname_id":"184745","downloaders":"{\"size\":7817,\"mobile\":3293,\"satellite\":24,\"tor\":0,\"tor_exit_nodes\":0,\"vpn\":67,\"relay\":0,\"proxy\":0,\"hosting\":118,\"service\":25}","uploaders":"{\"size\":2674,\"mobile\":1120,\"satellite\":10,\"tor\":0,\"tor_exit_nodes\":0,\"vpn\":8,\"relay\":0,\"proxy\":0,\"hosting\":28,\"service\":1}"},"geometry":{"type":"Point","coordinates":[36.81667,-1.28333]}},{"type":"Feature","properties":{"country_code":"","city":"","geoname_id":"","downloaders":"{\"size\":7431,\"mobile\":0,\"satellite\":0,\"tor\":0,\"tor_exit_nodes\":0,\"vpn\":0,\"relay\":0,\"proxy\":0,\"hosting\":6,\"service\":0}","uploaders":"{\"size\":104,\"mobile\":0,\"satellite\":0,\"tor\":0,\"tor_exit_nodes\":0,\"vpn\":0,\"relay\":0,\"proxy\":0,\"hosting\":0,\"service\":0}"},"geometry":{"type":"Point","coordinates":[0.0,0.0]}},{"type":"Feature","properties":{"country_code":"ESP","city":"Madrid","geoname_id":"3117735","downloaders":"{\"size\":7107,\"mobile\":2350,\"satellite\":10,\"tor\":0,\"tor_exit_nodes\":0,\"vpn\":1349,\"relay\":0,\"proxy\":10,\"hosting\":1817,\"service\":1256}","uploaders":"{\"size\":1337,\"mobile\":355,\"satellite\":5,\"tor\":0,\"tor_exit_nodes\":0,\"vpn\":360,\"relay\":0,\"proxy\":0,\"hosting\":442,\"service\":326}"},"geometry":{"type":"Point","coordinates":[-3.70256,40.4165]}},{"type":"Feature","properties":{"country_code":"CAN","city":"Vancouver","geoname_id":"6173331","downloaders":"{\"size\":7083,\"mobile\":376,\"satellite\":7,\"tor\":0,\"tor_exit_nodes\":0,\"vpn\":4627,\"relay\":0,\"proxy\":0,\"hosting\":4237,\"service\":4308}","uploaders":"{\"size\":2631,\"mobile\":90,\"satellite\":1,\"tor\":0,\"tor_exit_nodes\":0,\"vpn\":1819,\"relay\":0,\"proxy\":0,\"hosting\":1654,\"service\":1701}"},"geometry":{"type":"Point","coordinates":[-123.11934,49.24966]}},{"type":"Feature","properties":{"country_code":"HKG","city":"Hong Kong","geoname_id":"1819729","downloaders":"{\"size\":6896,\"mobile\":75,\"satellite\":0,\"tor\":0,\"tor_exit_nodes\":0,\"vpn\":1871,\"relay\":0,\"proxy\":0,\"hosting\":3179,\"service\":1794}","uploaders":"{\"size\":1138,\"mobile\":12,\"satellite\":0,\"tor\":0,\"tor_exit_nodes\":0,\"vpn\":318,\"relay\":0,\"proxy\":0,\"hosting\":735,\"service\":305}"},"geometry":{"type":"Point","coordinates":[114.17469,22.27832]}},{"type":"Feature","properties":{"country_code":"USA","city":"Atlanta","geoname_id":"4180439","downloaders":"{\"size\":6804,\"mobile\":463,\"satellite\":4,\"tor\":0,\"tor_exit_nodes\":0,\"vpn\":4343,\"relay\":27,\"proxy\":0,\"hosting\":5305,\"service\":4226}","uploaders":"{\"size\":1518,\"mobile\":164,\"satellite\":1,\"tor\":0,\"tor_exit_nodes\":0,\"vpn\":962,\"relay\":0,\"proxy\":0,\"hosting\":1213,\"service\":951}"},"geometry":{"type":"Point","coordinates":[-84.38798,33.749]}},{"type":"Feature","properties":{"country_code":"CHN","city":"Shenzhen","geoname_id":"1795565","downloaders":"{\"size\":6768,\"mobile\":14,\"satellite\":0,\"tor\":0,\"tor_exit_nodes\":0,\"vpn\":91,\"relay\":0,\"proxy\":0,\"hosting\":97,\"service\":0}","uploaders":"{\"size\":598,\"mobile\":3,\"satellite\":0,\"tor\":0,\"tor_exit_nodes\":0,\"vpn\":10,\"relay\":0,\"proxy\":0,\"hosting\":23,\"service\":0}"},"geometry":{"type":"Point","coordinates":[114.0683,22.54554]}},{"type":"Feature","properties":{"country_code":"SWE","city":"Stockholm","geoname_id":"2673730","downloaders":"{\"size\":6734,\"mobile\":518,\"satellite\":0,\"tor\":5,\"tor_exit_nodes\":5,\"vpn\":3214,\"relay\":0,\"proxy\":1,\"hosting\":2942,\"service\":3097}","uploaders":"{\"size\":1563,\"mobile\":88,\"satellite\":0,\"tor\":0,\"tor_exit_nodes\":0,\"vpn\":908,\"relay\":0,\"proxy\":0,\"hosting\":815,\"service\":888}"},"geometry":{"type":"Point","coordinates":[18.06871,59.32938]}},{"type":"Feature","properties":{"country_code":"RUS","city":"Novosibirsk","geoname_id":"1496747","downloaders":"{\"size\":6683,\"mobile\":597,\"satellite\":0,\"tor\":0,\"tor_exit_nodes\":0,\"vpn\":23,\"relay\":0,\"proxy\":0,\"hosting\":29,\"service\":9}","uploaders":"{\"size\":528,\"mobile\":94,\"satellite\":0,\"tor\":0,\"tor_exit_nodes\":0,\"vpn\":1,\"relay\":0,\"proxy\":0,\"hosting\":0,\"service\":1}"},"geometry":{"type":"Point","coordinates":[82.94339,55.03442]}},{"type":"Feature","properties":{"country_code":"BEL","city":"Brussels","geoname_id":"2800866","downloaders":"{\"size\":6554,\"mobile\":706,\"satellite\":0,\"tor\":0,\"tor_exit_nodes\":8,\"vpn\":881,\"relay\":0,\"proxy\":0,\"hosting\":199,\"service\":812}","uploaders":"{\"size\":1236,\"mobile\":173,\"satellite\":0,\"tor\":0,\"tor_exit_nodes\":0,\"vpn\":215,\"relay\":0,\"proxy\":0,\"hosting\":33,\"service\":197}"},"geometry":{"type":"Point","coordinates":[4.34878,50.85045]}},{"type":"Feature","properties":{"country_code":"RUS","city":"Nizhniy Novgorod","geoname_id":"520555","downloaders":"{\"size\":6465,\"mobile\":1549,\"satellite\":0,\"tor\":0,\"tor_exit_nodes\":0,\"vpn\":63,\"relay\":0,\"proxy\":0,\"hosting\":4,\"service\":7}","uploaders":"{\"size\":590,\"mobile\":231,\"satellite\":0,\"tor\":0,\"tor_exit_nodes\":0,\"vpn\":0,\"relay\":0,\"proxy\":0,\"hosting\":0,\"service\":0}"},"geometry":{"type":"Point","coordinates":[44.00205,56.32867]}},{"type":"Feature","properties":{"country_code":"NZL","city":"Auckland","geoname_id":"2193733","downloaders":"{\"size\":6338,\"mobile\":3363,\"satellite\":44,\"tor\":0,\"tor_exit_nodes\":0,\"vpn\":1070,\"relay\":0,\"proxy\":0,\"hosting\":1110,\"service\":1056}","uploaders":"{\"size\":1872,\"mobile\":894,\"satellite\":10,\"tor\":0,\"tor_exit_nodes\":0,\"vpn\":240,\"relay\":0,\"proxy\":0,\"hosting\":253,\"service\":236}"},"geometry":{"type":"Point","coordinates":[174.76349,-36.84853]}},{"type":"Feature","properties":{"country_code":"CHE","city":"Zürich","geoname_id":"2657896","downloaders":"{\"size\":6267,\"mobile\":668,\"satellite\":0,\"tor\":23,\"tor_exit_nodes\":8,\"vpn\":3204,\"relay\":1,\"proxy\":5,\"hosting\":3742,\"service\":3032}","uploaders":"{\"size\":2044,\"mobile\":173,\"satellite\":0,\"tor\":6,\"tor_exit_nodes\":0,\"vpn\":1289,\"relay\":0,\"proxy\":0,\"hosting\":1402,\"service\":1244}"},"geometry":{"type":"Point","coordinates":[8.55,47.36667]}},{"type":"Feature","properties":{"country_code":"KOR","city":"Incheon","geoname_id":"1843564","downloaders":"{\"size\":6024,\"mobile\":0,\"satellite\":0,\"tor\":0,\"tor_exit_nodes\":0,\"vpn\":67,\"relay\":0,\"proxy\":0,\"hosting\":374,\"service\":9}","uploaders":"{\"size\":182,\"mobile\":0,\"satellite\":0,\"tor\":0,\"tor_exit_nodes\":0,\"vpn\":0,\"relay\":0,\"proxy\":0,\"hosting\":13,\"service\":0}"},"geometry":{"type":"Point","coordinates":[126.70515,37.45646]}},{"type":"Feature","properties":{"country_code":"ZAF","city":"Cape Town","geoname_id":"3369157","downloaders":"{\"size\":6010,\"mobile\":1678,\"satellite\":0,\"tor\":0,\"tor_exit_nodes\":0,\"vpn\":22,\"relay\":0,\"proxy\":0,\"hosting\":571,\"service\":0}","uploaders":"{\"size\":2039,\"mobile\":429,\"satellite\":0,\"tor\":0,\"tor_exit_nodes\":0,\"vpn\":9,\"relay\":0,\"proxy\":0,\"hosting\":209,\"service\":0}"},"geometry":{"type":"Point","coordinates":[18.42322,-33.92584]}},{"type":"Feature","properties":{"country_code":"RUS","city":"Krasnodar","geoname_id":"542420","downloaders":"{\"size\":5796,\"mobile\":1903,\"satellite\":0,\"tor\":0,\"tor_exit_nodes\":0,\"vpn\":113,\"relay\":0,\"proxy\":0,\"hosting\":318,\"service\":74}","uploaders":"{\"size\":833,\"mobile\":390,\"satellite\":0,\"tor\":0,\"tor_exit_nodes\":0,\"vpn\":7,\"relay\":0,\"proxy\":0,\"hosting\":34,\"service\":5}"},"geometry":{"type":"Point","coordinates":[38.97603,45.04484]}},{"type":"Feature","properties":{"country_code":"AUS","city":"Brisbane","geoname_id":"2174003","downloaders":"{\"size\":5640,\"mobile\":849,\"satellite\":15,\"tor\":0,\"tor_exit_nodes\":0,\"vpn\":1477,\"relay\":0,\"proxy\":0,\"hosting\":1624,\"service\":1439}","uploaders":"{\"size\":2007,\"mobile\":184,\"satellite\":7,\"tor\":0,\"tor_exit_nodes\":0,\"vpn\":423,\"relay\":0,\"proxy\":0,\"hosting\":496,\"service\":416}"},"geometry":{"type":"Point","coordinates":[153.02809,-27.46794]}},{"type":"Feature","properties":{"country_code":"PHL","city":"Quezon City","geoname_id":"1692192","downloaders":"{\"size\":5586,\"mobile\":1909,\"satellite\":0,\"tor\":0,\"tor_exit_nodes\":0,\"vpn\":13,\"relay\":0,\"proxy\":0,\"hosting\":9,\"service\":0}","uploaders":"{\"size\":1876,\"mobile\":549,\"satellite\":0,\"tor\":0,\"tor_exit_nodes\":0,\"vpn\":0,\"relay\":0,\"proxy\":0,\"hosting\":0,\"service\":0}"},"geometry":{"type":"Point","coordinates":[121.0509,14.6488]}},{"type":"Feature","properties":{"country_code":"AUS","city":"Perth","geoname_id":"2063523","downloaders":"{\"size\":5515,\"mobile\":365,\"satellite\":0,\"tor\":0,\"tor_exit_nodes\":0,\"vpn\":2572,\"relay\":0,\"proxy\":0,\"hosting\":2672,\"service\":2553}","uploaders":"{\"size\":1888,\"mobile\":109,\"satellite\":0,\"tor\":0,\"tor_exit_nodes\":0,\"vpn\":653,\"relay\":0,\"proxy\":0,\"hosting\":703,\"service\":650}"},"geometry":{"type":"Point","coordinates":[115.8614,-31.95224]}},{"type":"Feature","properties":{"country_code":"RUS","city":"Samara","geoname_id":"499099","downloaders":"{\"size\":5466,\"mobile\":872,\"satellite\":0,\"tor\":0,\"tor_exit_nodes\":0,\"vpn\":80,\"relay\":0,\"proxy\":0,\"hosting\":5,\"service\":47}","uploaders":"{\"size\":677,\"mobile\":141,\"satellite\":0,\"tor\":0,\"tor_exit_nodes\":0,\"vpn\":8,\"relay\":0,\"proxy\":0,\"hosting\":0,\"service\":2}"},"geometry":{"type":"Point","coordinates":[50.15,53.20007]}},{"type":"Feature","properties":{"country_code":"GRC","city":"Athens","geoname_id":"264371","downloaders":"{\"size\":5424,\"mobile\":726,\"satellite\":0,\"tor\":0,\"tor_exit_nodes\":0,\"vpn\":188,\"relay\":0,\"proxy\":0,\"hosting\":306,\"service\":102}","uploaders":"{\"size\":1971,\"mobile\":188,\"satellite\":0,\"tor\":0,\"tor_exit_nodes\":0,\"vpn\":52,\"relay\":0,\"proxy\":0,\"hosting\":74,\"service\":28}"},"geometry":{"type":"Point","coordinates":[23.72784,37.98376]}},{"type":"Feature","properties":{"country_code":"NLD","city":"Lelystad","geoname_id":"2751738","downloaders":"{\"size\":5401,\"mobile\":0,\"satellite\":0,\"tor\":4,\"tor_exit_nodes\":4,\"vpn\":873,\"relay\":0,\"proxy\":0,\"hosting\":5214,\"service\":513}","uploaders":"{\"size\":638,\"mobile\":0,\"satellite\":0,\"tor\":1,\"tor_exit_nodes\":0,\"vpn\":95,\"relay\":0,\"proxy\":0,\"hosting\":599,\"service\":88}"},"geometry":{"type":"Point","coordinates":[5.475,52.50833]}},{"type":"Feature","properties":{"country_code":"FIN","city":"Helsinki","geoname_id":"658225","downloaders":"{\"size\":5174,\"mobile\":391,\"satellite\":0,\"tor\":0,\"tor_exit_nodes\":0,\"vpn\":948,\"relay\":0,\"proxy\":1,\"hosting\":4124,\"service\":840}","uploaders":"{\"size\":647,\"mobile\":108,\"satellite\":0,\"tor\":0,\"tor_exit_nodes\":0,\"vpn\":224,\"relay\":0,\"proxy\":0,\"hosting\":412,\"service\":204}"},"geometry":{"type":"Point","coordinates":[24.93545,60.16952]}},{"type":"Feature","properties":{"country_code":"JPN","city":"Tokyo","geoname_id":"1850147","downloaders":"{\"size\":5008,\"mobile\":360,\"satellite\":0,\"tor\":0,\"tor_exit_nodes\":0,\"vpn\":1566,\"relay\":0,\"proxy\":6,\"hosting\":2518,\"service\":1528}","uploaders":"{\"size\":796,\"mobile\":136,\"satellite\":0,\"tor\":0,\"tor_exit_nodes\":0,\"vpn\":405,\"relay\":0,\"proxy\":3,\"hosting\":522,\"service\":403}"},"geometry":{"type":"Point","coordinates":[139.69171,35.6895]}},{"type":"Feature","properties":{"country_code":"RUS","city":"Voronezh","geoname_id":"472045","downloaders":"{\"size\":4985,\"mobile\":125,\"satellite\":0,\"tor\":0,\"tor_exit_nodes\":0,\"vpn\":44,\"relay\":0,\"proxy\":0,\"hosting\":199,\"service\":1}","uploaders":"{\"size\":484,\"mobile\":19,\"satellite\":0,\"tor\":0,\"tor_exit_nodes\":0,\"vpn\":2,\"relay\":0,\"proxy\":0,\"hosting\":29,\"service\":0}"},"geometry":{"type":"Point","coordinates":[39.1843,51.67204]}},{"type":"Feature","properties":{"country_code":"RUS","city":"Ufa","geoname_id":"479561","downloaders":"{\"size\":4870,\"mobile\":186,\"satellite\":0,\"tor\":0,\"tor_exit_nodes\":0,\"vpn\":32,\"relay\":0,\"proxy\":0,\"hosting\":0,\"service\":8}","uploaders":"{\"size\":443,\"mobile\":29,\"satellite\":0,\"tor\":0,\"tor_exit_nodes\":0,\"vpn\":3,\"relay\":0,\"proxy\":0,\"hosting\":0,\"service\":0}"},"geometry":{"type":"Point","coordinates":[55.96779,54.74306]}},{"type":"Feature","properties":{"country_code":"CHL","city":"Santiago","geoname_id":"3871336","downloaders":"{\"size\":4835,\"mobile\":1668,\"satellite\":47,\"tor\":0,\"tor_exit_nodes\":0,\"vpn\":50,\"relay\":0,\"proxy\":0,\"hosting\":269,\"service\":44}","uploaders":"{\"size\":1077,\"mobile\":389,\"satellite\":29,\"tor\":0,\"tor_exit_nodes\":0,\"vpn\":14,\"relay\":0,\"proxy\":0,\"hosting\":49,\"service\":14}"},"geometry":{"type":"Point","coordinates":[-70.64827,-33.45694]}},{"type":"Feature","properties":{"country_code":"MEX","city":"Mexico City","geoname_id":"3530597","downloaders":"{\"size\":4722,\"mobile\":24,\"satellite\":18,\"tor\":0,\"tor_exit_nodes\":0,\"vpn\":82,\"relay\":0,\"proxy\":0,\"hosting\":129,\"service\":79}","uploaders":"{\"size\":696,\"mobile\":1,\"satellite\":6,\"tor\":0,\"tor_exit_nodes\":0,\"vpn\":22,\"relay\":0,\"proxy\":0,\"hosting\":29,\"service\":21}"},"geometry":{"type":"Point","coordinates":[-99.12766,19.42847]}},{"type":"Feature","properties":{"country_code":"USA","city":"Boardman","geoname_id":"5714964","downloaders":"{\"size\":4708,\"mobile\":0,\"satellite\":0,\"tor\":0,\"tor_exit_nodes\":0,\"vpn\":0,\"relay\":0,\"proxy\":0,\"hosting\":4708,\"service\":0}","uploaders":"{\"size\":2520,\"mobile\":0,\"satellite\":0,\"tor\":0,\"tor_exit_nodes\":0,\"vpn\":0,\"relay\":0,\"proxy\":0,\"hosting\":2520,\"service\":0}"},"geometry":{"type":"Point","coordinates":[-119.70058,45.83986]}},{"type":"Feature","properties":{"country_code":"RUS","city":"Chelyabinsk","geoname_id":"1508291","downloaders":"{\"size\":4671,\"mobile\":456,\"satellite\":0,\"tor\":0,\"tor_exit_nodes\":0,\"vpn\":12,\"relay\":0,\"proxy\":0,\"hosting\":1,\"service\":6}","uploaders":"{\"size\":433,\"mobile\":97,\"satellite\":0,\"tor\":0,\"tor_exit_nodes\":0,\"vpn\":0,\"relay\":0,\"proxy\":0,\"hosting\":0,\"service\":0}"},"geometry":{"type":"Point","coordinates":[61.42915,55.15402]}},{"type":"Feature","properties":{"country_code":"RUS","city":"Tyumen","geoname_id":"1488754","downloaders":"{\"size\":4615,\"mobile\":757,\"satellite\":0,\"tor\":0,\"tor_exit_nodes\":0,\"vpn\":44,\"relay\":0,\"proxy\":0,\"hosting\":0,\"service\":2}","uploaders":"{\"size\":499,\"mobile\":127,\"satellite\":0,\"tor\":0,\"tor_exit_nodes\":0,\"vpn\":8,\"relay\":0,\"proxy\":0,\"hosting\":0,\"service\":0}"},"geometry":{"type":"Point","coordinates":[65.52722,57.15222]}},{"type":"Feature","properties":{"country_code":"ZAF","city":"Pretoria","geoname_id":"964137","downloaders":"{\"size\":4550,\"mobile\":1105,\"satellite\":0,\"tor\":0,\"tor_exit_nodes\":0,\"vpn\":12,\"relay\":0,\"proxy\":0,\"hosting\":11,\"service\":0}","uploaders":"{\"size\":819,\"mobile\":224,\"satellite\":0,\"tor\":0,\"tor_exit_nodes\":0,\"vpn\":3,\"relay\":0,\"proxy\":0,\"hosting\":4,\"service\":0}"},"geometry":{"type":"Point","coordinates":[28.18783,-25.74486]}},{"type":"Feature","properties":{"country_code":"RUS","city":"Perm","geoname_id":"511196","downloaders":"{\"size\":4466,\"mobile\":258,\"satellite\":0,\"tor\":0,\"tor_exit_nodes\":0,\"vpn\":38,\"relay\":0,\"proxy\":0,\"hosting\":3,\"service\":0}","uploaders":"{\"size\":593,\"mobile\":40,\"satellite\":0,\"tor\":0,\"tor_exit_nodes\":0,\"vpn\":2,\"relay\":0,\"proxy\":0,\"hosting\":0,\"service\":0}"},"geometry":{"type":"Point","coordinates":[56.25017,58.01046]}},{"type":"Feature","properties":{"country_code":"DEU","city":"Falkenstein","geoname_id":"2927913","downloaders":"{\"size\":4385,\"mobile\":0,\"satellite\":0,\"tor\":0,\"tor_exit_nodes\":0,\"vpn\":2,\"relay\":0,\"proxy\":0,\"hosting\":4385,\"service\":2}","uploaders":"{\"size\":288,\"mobile\":0,\"satellite\":0,\"tor\":0,\"tor_exit_nodes\":0,\"vpn\":1,\"relay\":0,\"proxy\":0,\"hosting\":288,\"service\":1}"},"geometry":{"type":"Point","coordinates":[12.37129,50.47788]}},{"type":"Feature","properties":{"country_code":"CZE","city":"Prague","geoname_id":"3067696","downloaders":"{\"size\":4343,\"mobile\":327,\"satellite\":2,\"tor\":0,\"tor_exit_nodes\":3,\"vpn\":1270,\"relay\":0,\"proxy\":0,\"hosting\":1432,\"service\":1212}","uploaders":"{\"size\":1076,\"mobile\":104,\"satellite\":0,\"tor\":0,\"tor_exit_nodes\":0,\"vpn\":359,\"relay\":0,\"proxy\":0,\"hosting\":376,\"service\":350}"},"geometry":{"type":"Point","coordinates":[14.42076,50.08804]}},{"type":"Feature","properties":{"country_code":"ROU","city":"Bucharest","geoname_id":"683506","downloaders":"{\"size\":4310,\"mobile\":621,\"satellite\":0,\"tor\":6,\"tor_exit_nodes\":9,\"vpn\":847,\"relay\":1,\"proxy\":0,\"hosting\":1069,\"service\":677}","uploaders":"{\"size\":1241,\"mobile\":95,\"satellite\":0,\"tor\":0,\"tor_exit_nodes\":1,\"vpn\":189,\"relay\":0,\"proxy\":0,\"hosting\":298,\"service\":152}"},"geometry":{"type":"Point","coordinates":[26.10626,44.43225]}},{"type":"Feature","properties":{"country_code":"ISR","city":"Tel Aviv","geoname_id":"293397","downloaders":"{\"size\":4296,\"mobile\":1115,\"satellite\":0,\"tor\":0,\"tor_exit_nodes\":0,\"vpn\":375,\"relay\":0,\"proxy\":0,\"hosting\":435,\"service\":349}","uploaders":"{\"size\":1440,\"mobile\":313,\"satellite\":0,\"tor\":0,\"tor_exit_nodes\":0,\"vpn\":81,\"relay\":0,\"proxy\":0,\"hosting\":108,\"service\":71}"},"geometry":{"type":"Point","coordinates":[34.78057,32.08088]}},{"type":"Feature","properties":{"country_code":"FRA","city":"Dunkerque","geoname_id":"3020686","downloaders":"{\"size\":4284,\"mobile\":19,\"satellite\":0,\"tor\":0,\"tor_exit_nodes\":0,\"vpn\":91,\"relay\":0,\"proxy\":0,\"hosting\":4211,\"service\":72}","uploaders":"{\"size\":266,\"mobile\":0,\"satellite\":0,\"tor\":0,\"tor_exit_nodes\":0,\"vpn\":4,\"relay\":0,\"proxy\":0,\"hosting\":264,\"service\":3}"},"geometry":{"type":"Point","coordinates":[2.37681,51.0344]}},{"type":"Feature","properties":{"country_code":"NGA","city":"Lagos","geoname_id":"2332459","downloaders":"{\"size\":4256,\"mobile\":2198,\"satellite\":2,\"tor\":0,\"tor_exit_nodes\":0,\"vpn\":32,\"relay\":0,\"proxy\":5,\"hosting\":144,\"service\":7}","uploaders":"{\"size\":725,\"mobile\":273,\"satellite\":0,\"tor\":0,\"tor_exit_nodes\":0,\"vpn\":8,\"relay\":0,\"proxy\":2,\"hosting\":31,\"service\":2}"},"geometry":{"type":"Point","coordinates":[3.39467,6.45407]}},{"type":"Feature","properties":{"country_code":"NLD","city":"Roosendaal","geoname_id":"2747930","downloaders":"{\"size\":4253,\"mobile\":0,\"satellite\":0,\"tor\":0,\"tor_exit_nodes\":2,\"vpn\":163,\"relay\":0,\"proxy\":0,\"hosting\":3099,\"service\":163}","uploaders":"{\"size\":578,\"mobile\":0,\"satellite\":0,\"tor\":0,\"tor_exit_nodes\":0,\"vpn\":41,\"relay\":0,\"proxy\":0,\"hosting\":474,\"service\":41}"},"geometry":{"type":"Point","coordinates":[4.46528,51.53083]}},{"type":"Feature","properties":{"country_code":"RUS","city":"Rostov-na-Donu","geoname_id":"501175","downloaders":"{\"size\":4159,\"mobile\":862,\"satellite\":0,\"tor\":0,\"tor_exit_nodes\":0,\"vpn\":77,\"relay\":0,\"proxy\":0,\"hosting\":4,\"service\":8}","uploaders":"{\"size\":650,\"mobile\":212,\"satellite\":0,\"tor\":0,\"tor_exit_nodes\":0,\"vpn\":6,\"relay\":0,\"proxy\":0,\"hosting\":0,\"service\":1}"},"geometry":{"type":"Point","coordinates":[39.72328,47.23135]}},{"type":"Feature","properties":{"country_code":"CHN","city":"Nanjing","geoname_id":"1799962","downloaders":"{\"size\":4154,\"mobile\":0,\"satellite\":0,\"tor\":0,\"tor_exit_nodes\":0,\"vpn\":51,\"relay\":0,\"proxy\":0,\"hosting\":23,\"service\":0}","uploaders":"{\"size\":177,\"mobile\":0,\"satellite\":0,\"tor\":0,\"tor_exit_nodes\":0,\"vpn\":1,\"relay\":0,\"proxy\":0,\"hosting\":0,\"service\":0}"},"geometry":{"type":"Point","coordinates":[118.77778,32.06167]}},{"type":"Feature","properties":{"country_code":"CHN","city":"Beijing","geoname_id":"1816670","downloaders":"{\"size\":4003,\"mobile\":0,\"satellite\":0,\"tor\":0,\"tor_exit_nodes\":0,\"vpn\":37,\"relay\":0,\"proxy\":0,\"hosting\":678,\"service\":0}","uploaders":"{\"size\":804,\"mobile\":0,\"satellite\":0,\"tor\":0,\"tor_exit_nodes\":0,\"vpn\":4,\"relay\":0,\"proxy\":0,\"hosting\":324,\"service\":0}"},"geometry":{"type":"Point","coordinates":[116.39723,39.9075]}},{"type":"Feature","properties":{"country_code":"BLR","city":"Minsk","geoname_id":"625144","downloaders":"{\"size\":3949,\"mobile\":45,\"satellite\":0,\"tor\":0,\"tor_exit_nodes\":0,\"vpn\":56,\"relay\":0,\"proxy\":0,\"hosting\":138,\"service\":11}","uploaders":"{\"size\":584,\"mobile\":6,\"satellite\":0,\"tor\":0,\"tor_exit_nodes\":0,\"vpn\":3,\"relay\":0,\"proxy\":0,\"hosting\":7,\"service\":1}"},"geometry":{"type":"Point","coordinates":[27.56653,53.90019]}},{"type":"Feature","properties":{"country_code":"RUS","city":"Krasnoyarsk","geoname_id":"1502026","downloaders":"{\"size\":3932,\"mobile\":344,\"satellite\":2,\"tor\":0,\"tor_exit_nodes\":0,\"vpn\":19,\"relay\":0,\"proxy\":0,\"hosting\":6,\"service\":10}","uploaders":"{\"size\":409,\"mobile\":48,\"satellite\":0,\"tor\":0,\"tor_exit_nodes\":0,\"vpn\":3,\"relay\":0,\"proxy\":0,\"hosting\":0,\"service\":2}"},"geometry":{"type":"Point","coordinates":[92.90765,56.02668]}},{"type":"Feature","properties":{"country_code":"ITA","city":"Milan","geoname_id":"3173435","downloaders":"{\"size\":3914,\"mobile\":1007,\"satellite\":0,\"tor\":0,\"tor_exit_nodes\":0,\"vpn\":491,\"relay\":0,\"proxy\":0,\"hosting\":746,\"service\":467}","uploaders":"{\"size\":771,\"mobile\":173,\"satellite\":0,\"tor\":0,\"tor_exit_nodes\":0,\"vpn\":153,\"relay\":0,\"proxy\":0,\"hosting\":191,\"service\":149}"},"geometry":{"type":"Point","coordinates":[9.18951,45.46427]}},{"type":"Feature","properties":{"country_code":"USA","city":"Phoenix","geoname_id":"5308655","downloaders":"{\"size\":3874,\"mobile\":74,\"satellite\":25,\"tor\":0,\"tor_exit_nodes\":0,\"vpn\":1065,\"relay\":0,\"proxy\":0,\"hosting\":2883,\"service\":1037}","uploaders":"{\"size\":690,\"mobile\":15,\"satellite\":8,\"tor\":0,\"tor_exit_nodes\":0,\"vpn\":201,\"relay\":0,\"proxy\":0,\"hosting\":518,\"service\":195}"},"geometry":{"type":"Point","coordinates":[-112.07404,33.44838]}},{"type":"Feature","properties":{"country_code":"GRC","city":"Thessaloníki","geoname_id":"734077","downloaders":"{\"size\":3871,\"mobile\":360,\"satellite\":0,\"tor\":0,\"tor_exit_nodes\":0,\"vpn\":4,\"relay\":0,\"proxy\":0,\"hosting\":37,\"service\":4}","uploaders":"{\"size\":1193,\"mobile\":94,\"satellite\":0,\"tor\":0,\"tor_exit_nodes\":0,\"vpn\":0,\"relay\":0,\"proxy\":0,\"hosting\":11,\"service\":0}"},"geometry":{"type":"Point","coordinates":[22.93086,40.64361]}},{"type":"Feature","properties":{"country_code":"SVN","city":"Ljubljana","geoname_id":"3196359","downloaders":"{\"size\":3738,\"mobile\":405,\"satellite\":0,\"tor\":0,\"tor_exit_nodes\":0,\"vpn\":204,\"relay\":0,\"proxy\":0,\"hosting\":321,\"service\":172}","uploaders":"{\"size\":1115,\"mobile\":127,\"satellite\":0,\"tor\":0,\"tor_exit_nodes\":0,\"vpn\":39,\"relay\":0,\"proxy\":0,\"hosting\":41,\"service\":34}"},"geometry":{"type":"Point","coordinates":[14.50513,46.05108]}},{"type":"Feature","properties":{"country_code":"USA","city":"San Francisco","geoname_id":"5391959","downloaders":"{\"size\":3641,\"mobile\":54,\"satellite\":0,\"tor\":0,\"tor_exit_nodes\":0,\"vpn\":2747,\"relay\":0,\"proxy\":0,\"hosting\":2849,\"service\":2606}","uploaders":"{\"size\":504,\"mobile\":8,\"satellite\":0,\"tor\":0,\"tor_exit_nodes\":0,\"vpn\":295,\"relay\":0,\"proxy\":0,\"hosting\":300,\"service\":275}"},"geometry":{"type":"Point","coordinates":[-122.41942,37.77493]}},{"type":"Feature","properties":{"country_code":"LVA","city":"Riga","geoname_id":"456172","downloaders":"{\"size\":3497,\"mobile\":229,\"satellite\":0,\"tor\":0,\"tor_exit_nodes\":0,\"vpn\":283,\"relay\":0,\"proxy\":0,\"hosting\":436,\"service\":253}","uploaders":"{\"size\":533,\"mobile\":44,\"satellite\":0,\"tor\":0,\"tor_exit_nodes\":0,\"vpn\":63,\"relay\":0,\"proxy\":0,\"hosting\":80,\"service\":58}"},"geometry":{"type":"Point","coordinates":[24.10589,56.946]}},{"type":"Feature","properties":{"country_code":"ARG","city":"Buenos Aires","geoname_id":"3435910","downloaders":"{\"size\":3489,\"mobile\":576,\"satellite\":0,\"tor\":0,\"tor_exit_nodes\":0,\"vpn\":41,\"relay\":0,\"proxy\":0,\"hosting\":209,\"service\":34}","uploaders":"{\"size\":811,\"mobile\":108,\"satellite\":0,\"tor\":0,\"tor_exit_nodes\":0,\"vpn\":10,\"relay\":0,\"proxy\":0,\"hosting\":40,\"service\":8}"},"geometry":{"type":"Point","coordinates":[-58.37723,-34.61315]}},{"type":"Feature","properties":{"country_code":"RUS","city":"Omsk","geoname_id":"1496153","downloaders":"{\"size\":3460,\"mobile\":19,\"satellite\":0,\"tor\":0,\"tor_exit_nodes\":0,\"vpn\":13,\"relay\":0,\"proxy\":0,\"hosting\":7,\"service\":6}","uploaders":"{\"size\":348,\"mobile\":5,\"satellite\":0,\"tor\":0,\"tor_exit_nodes\":0,\"vpn\":1,\"relay\":0,\"proxy\":0,\"hosting\":1,\"service\":1}"},"geometry":{"type":"Point","coordinates":[73.36859,54.99244]}},{"type":"Feature","properties":{"country_code":"GHA","city":"Accra","geoname_id":"2306104","downloaders":"{\"size\":3439,\"mobile\":3192,\"satellite\":0,\"tor\":0,\"tor_exit_nodes\":0,\"vpn\":17,\"relay\":0,\"proxy\":0,\"hosting\":29,\"service\":0}","uploaders":"{\"size\":1217,\"mobile\":1131,\"satellite\":0,\"tor\":0,\"tor_exit_nodes\":0,\"vpn\":6,\"relay\":0,\"proxy\":0,\"hosting\":9,\"service\":0}"},"geometry":{"type":"Point","coordinates":[-0.1969,5.55602]}},{"type":"Feature","properties":{"country_code":"FRA","city":"Calais","geoname_id":"3029162","downloaders":"{\"size\":3423,\"mobile\":23,\"satellite\":0,\"tor\":0,\"tor_exit_nodes\":3,\"vpn\":57,\"relay\":0,\"proxy\":1,\"hosting\":3378,\"service\":13}","uploaders":"{\"size\":75,\"mobile\":0,\"satellite\":0,\"tor\":0,\"tor_exit_nodes\":0,\"vpn\":1,\"relay\":0,\"proxy\":0,\"hosting\":75,\"service\":0}"},"geometry":{"type":"Point","coordinates":[1.85635,50.95194]}},{"type":"Feature","properties":{"country_code":"KOR","city":"Busan","geoname_id":"1838524","downloaders":"{\"size\":3375,\"mobile\":2,\"satellite\":0,\"tor\":0,\"tor_exit_nodes\":0,\"vpn\":19,\"relay\":0,\"proxy\":0,\"hosting\":0,\"service\":3}","uploaders":"{\"size\":128,\"mobile\":0,\"satellite\":0,\"tor\":0,\"tor_exit_nodes\":0,\"vpn\":0,\"relay\":0,\"proxy\":0,\"hosting\":0,\"service\":0}"},"geometry":{"type":"Point","coordinates":[129.03004,35.10168]}},{"type":"Feature","properties":{"country_code":"MYS","city":"Kuala Lumpur","geoname_id":"1735161","downloaders":"{\"size\":3339,\"mobile\":802,\"satellite\":0,\"tor\":0,\"tor_exit_nodes\":0,\"vpn\":35,\"relay\":9,\"proxy\":0,\"hosting\":236,\"service\":30}","uploaders":"{\"size\":1114,\"mobile\":210,\"satellite\":0,\"tor\":0,\"tor_exit_nodes\":0,\"vpn\":10,\"relay\":0,\"proxy\":0,\"hosting\":83,\"service\":4}"},"geometry":{"type":"Point","coordinates":[101.68653,3.1412]}},{"type":"Feature","properties":{"country_code":"CHN","city":"Qingdao","geoname_id":"1797929","downloaders":"{\"size\":3318,\"mobile\":0,\"satellite\":0,\"tor\":0,\"tor_exit_nodes\":0,\"vpn\":38,\"relay\":0,\"proxy\":0,\"hosting\":70,\"service\":0}","uploaders":"{\"size\":99,\"mobile\":0,\"satellite\":0,\"tor\":0,\"tor_exit_nodes\":0,\"vpn\":4,\"relay\":0,\"proxy\":0,\"hosting\":0,\"service\":0}"},"geometry":{"type":"Point","coordinates":[120.38042,36.06488]}},{"type":"Feature","properties":{"country_code":"ITA","city":"Rome","geoname_id":"3169070","downloaders":"{\"size\":3285,\"mobile\":1097,\"satellite\":1,\"tor\":0,\"tor_exit_nodes\":0,\"vpn\":9,\"relay\":0,\"proxy\":0,\"hosting\":22,\"service\":0}","uploaders":"{\"size\":696,\"mobile\":283,\"satellite\":0,\"tor\":0,\"tor_exit_nodes\":0,\"vpn\":0,\"relay\":0,\"proxy\":0,\"hosting\":3,\"service\":0}"},"geometry":{"type":"Point","coordinates":[12.51133,41.89193]}},{"type":"Feature","properties":{"country_code":"NOR","city":"Oslo","geoname_id":"3143244","downloaders":"{\"size\":3255,\"mobile\":169,\"satellite\":0,\"tor\":0,\"tor_exit_nodes\":5,\"vpn\":1742,\"relay\":0,\"proxy\":0,\"hosting\":1107,\"service\":1700}","uploaders":"{\"size\":863,\"mobile\":29,\"satellite\":0,\"tor\":0,\"tor_exit_nodes\":1,\"vpn\":521,\"relay\":0,\"proxy\":0,\"hosting\":315,\"service\":519}"},"geometry":{"type":"Point","coordinates":[10.74609,59.91273]}},{"type":"Feature","properties":{"country_code":"IND","city":"Mumbai","geoname_id":"1275339","downloaders":"{\"size\":3243,\"mobile\":376,\"satellite\":0,\"tor\":0,\"tor_exit_nodes\":0,\"vpn\":47,\"relay\":0,\"proxy\":0,\"hosting\":1405,\"service\":8}","uploaders":"{\"size\":925,\"mobile\":84,\"satellite\":0,\"tor\":0,\"tor_exit_nodes\":0,\"vpn\":11,\"relay\":0,\"proxy\":0,\"hosting\":396,\"service\":2}"},"geometry":{"type":"Point","coordinates":[72.88261,19.07283]}},{"type":"Feature","properties":{"country_code":"MEX","city":"Chihuahua","geoname_id":"4014338","downloaders":"{\"size\":3236,\"mobile\":0,\"satellite\":0,\"tor\":0,\"tor_exit_nodes\":0,\"vpn\":0,\"relay\":0,\"proxy\":0,\"hosting\":0,\"service\":0}","uploaders":"{\"size\":27,\"mobile\":0,\"satellite\":0,\"tor\":0,\"tor_exit_nodes\":0,\"vpn\":0,\"relay\":0,\"proxy\":0,\"hosting\":0,\"service\":0}"},"geometry":{"type":"Point","coordinates":[-106.08889,28.63528]}},{"type":"Feature","properties":{"country_code":"UKR","city":"Kyiv","geoname_id":"703448","downloaders":"{\"size\":3230,\"mobile\":276,\"satellite\":112,\"tor\":0,\"tor_exit_nodes\":0,\"vpn\":120,\"relay\":5,\"proxy\":0,\"hosting\":641,\"service\":90}","uploaders":"{\"size\":581,\"mobile\":25,\"satellite\":54,\"tor\":0,\"tor_exit_nodes\":0,\"vpn\":18,\"relay\":0,\"proxy\":0,\"hosting\":103,\"service\":14}"},"geometry":{"type":"Point","coordinates":[30.5238,50.45466]}},{"type":"Feature","properties":{"country_code":"RUS","city":"Tolyatti","geoname_id":"482283","downloaders":"{\"size\":3142,\"mobile\":2,\"satellite\":0,\"tor\":0,\"tor_exit_nodes\":0,\"vpn\":12,\"relay\":0,\"proxy\":0,\"hosting\":0,\"service\":0}","uploaders":"{\"size\":319,\"mobile\":0,\"satellite\":0,\"tor\":0,\"tor_exit_nodes\":0,\"vpn\":0,\"relay\":0,\"proxy\":0,\"hosting\":0,\"service\":0}"},"geometry":{"type":"Point","coordinates":[49.3461,53.5303]}},{"type":"Feature","properties":{"country_code":"BGD","city":"Dhaka","geoname_id":"1185241","downloaders":"{\"size\":3138,\"mobile\":212,\"satellite\":0,\"tor\":0,\"tor_exit_nodes\":0,\"vpn\":50,\"relay\":0,\"proxy\":0,\"hosting\":232,\"service\":8}","uploaders":"{\"size\":770,\"mobile\":47,\"satellite\":0,\"tor\":0,\"tor_exit_nodes\":0,\"vpn\":14,\"relay\":0,\"proxy\":0,\"hosting\":44,\"service\":3}"},"geometry":{"type":"Point","coordinates":[90.40744,23.7104]}},{"type":"Feature","properties":{"country_code":"TUR","city":"Ankara","geoname_id":"323786","downloaders":"{\"size\":3107,\"mobile\":278,\"satellite\":0,\"tor\":0,\"tor_exit_nodes\":0,\"vpn\":3,\"relay\":0,\"proxy\":0,\"hosting\":4,\"service\":1}","uploaders":"{\"size\":297,\"mobile\":38,\"satellite\":0,\"tor\":0,\"tor_exit_nodes\":0,\"vpn\":0,\"relay\":0,\"proxy\":0,\"hosting\":0,\"service\":0}"},"geometry":{"type":"Point","coordinates":[32.85427,39.91987]}},{"type":"Feature","properties":{"country_code":"USA","city":"Denver","geoname_id":"5419384","downloaders":"{\"size\":3059,\"mobile\":423,\"satellite\":16,\"tor\":0,\"tor_exit_nodes\":0,\"vpn\":2012,\"relay\":5,\"proxy\":0,\"hosting\":1656,\"service\":2007}","uploaders":"{\"size\":564,\"mobile\":41,\"satellite\":3,\"tor\":0,\"tor_exit_nodes\":0,\"vpn\":360,\"relay\":2,\"proxy\":0,\"hosting\":357,\"service\":358}"},"geometry":{"type":"Point","coordinates":[-104.9876,39.7436]}},{"type":"Feature","properties":{"country_code":"DEU","city":"Berlin","geoname_id":"2950159","downloaders":"{\"size\":3040,\"mobile\":787,\"satellite\":4,\"tor\":99,\"tor_exit_nodes\":101,\"vpn\":925,\"relay\":0,\"proxy\":0,\"hosting\":1258,\"service\":885}","uploaders":"{\"size\":458,\"mobile\":33,\"satellite\":2,\"tor\":7,\"tor_exit_nodes\":7,\"vpn\":241,\"relay\":0,\"proxy\":0,\"hosting\":348,\"service\":236}"},"geometry":{"type":"Point","coordinates":[13.41053,52.52437]}},{"type":"Feature","properties":{"country_code":"GBR","city":"Manchester","geoname_id":"2643123","downloaders":"{\"size\":2976,\"mobile\":144,\"satellite\":0,\"tor\":0,\"tor_exit_nodes\":0,\"vpn\":2157,\"relay\":4,\"proxy\":0,\"hosting\":1974,\"service\":2100}","uploaders":"{\"size\":797,\"mobile\":39,\"satellite\":0,\"tor\":0,\"tor_exit_nodes\":0,\"vpn\":566,\"relay\":0,\"proxy\":0,\"hosting\":573,\"service\":551}"},"geometry":{"type":"Point","coordinates":[-2.23743,53.48095]}},{"type":"Feature","properties":{"country_code":"RUS","city":"Kazan","geoname_id":"551487","downloaders":"{\"size\":2964,\"mobile\":502,\"satellite\":0,\"tor\":0,\"tor_exit_nodes\":0,\"vpn\":40,\"relay\":0,\"proxy\":0,\"hosting\":17,\"service\":1}","uploaders":"{\"size\":406,\"mobile\":80,\"satellite\":0,\"tor\":0,\"tor_exit_nodes\":0,\"vpn\":1,\"relay\":0,\"proxy\":0,\"hosting\":0,\"service\":0}"},"geometry":{"type":"Point","coordinates":[49.12214,55.78874]}},{"type":"Feature","properties":{"country_code":"RUS","city":"Tomsk","geoname_id":"1489425","downloaders":"{\"size\":2950,\"mobile\":3,\"satellite\":0,\"tor\":0,\"tor_exit_nodes\":0,\"vpn\":3,\"relay\":0,\"proxy\":0,\"hosting\":6,\"service\":1}","uploaders":"{\"size\":149,\"mobile\":0,\"satellite\":0,\"tor\":0,\"tor_exit_nodes\":0,\"vpn\":0,\"relay\":0,\"proxy\":0,\"hosting\":0,\"service\":0}"},"geometry":{"type":"Point","coordinates":[84.98204,56.50032]}},{"type":"Feature","properties":{"country_code":"LTU","city":"Vilnius","geoname_id":"593116","downloaders":"{\"size\":2845,\"mobile\":160,\"satellite\":0,\"tor\":0,\"tor_exit_nodes\":0,\"vpn\":306,\"relay\":0,\"proxy\":0,\"hosting\":543,\"service\":287}","uploaders":"{\"size\":314,\"mobile\":46,\"satellite\":0,\"tor\":0,\"tor_exit_nodes\":0,\"vpn\":49,\"relay\":0,\"proxy\":0,\"hosting\":71,\"service\":48}"},"geometry":{"type":"Point","coordinates":[25.2798,54.68916]}},{"type":"Feature","properties":{"country_code":"KOR","city":"Daegu","geoname_id":"1835329","downloaders":"{\"size\":2833,\"mobile\":9,\"satellite\":0,\"tor\":0,\"tor_exit_nodes\":0,\"vpn\":17,\"relay\":0,\"proxy\":0,\"hosting\":82,\"service\":4}","uploaders":"{\"size\":98,\"mobile\":2,\"satellite\":0,\"tor\":0,\"tor_exit_nodes\":0,\"vpn\":2,\"relay\":0,\"proxy\":0,\"hosting\":3,\"service\":1}"},"geometry":{"type":"Point","coordinates":[128.59111,35.87028]}},{"type":"Feature","properties":{"country_code":"EST","city":"Tallinn","geoname_id":"588409","downloaders":"{\"size\":2812,\"mobile\":683,\"satellite\":0,\"tor\":0,\"tor_exit_nodes\":0,\"vpn\":174,\"relay\":0,\"proxy\":0,\"hosting\":387,\"service\":156}","uploaders":"{\"size\":824,\"mobile\":278,\"satellite\":0,\"tor\":0,\"tor_exit_nodes\":0,\"vpn\":24,\"relay\":0,\"proxy\":0,\"hosting\":83,\"service\":19}"},"geometry":{"type":"Point","coordinates":[24.75353,59.43696]}},{"type":"Feature","properties":{"country_code":"BRA","city":"Rio de Janeiro","geoname_id":"3451190","downloaders":"{\"size\":2807,\"mobile\":301,\"satellite\":0,\"tor\":0,\"tor_exit_nodes\":0,\"vpn\":15,\"relay\":0,\"proxy\":0,\"hosting\":7,\"service\":0}","uploaders":"{\"size\":548,\"mobile\":63,\"satellite\":0,\"tor\":0,\"tor_exit_nodes\":0,\"vpn\":2,\"relay\":0,\"proxy\":0,\"hosting\":1,\"service\":0}"},"geometry":{"type":"Point","coordinates":[-43.18223,-22.90642]}},{"type":"Feature","properties":{"country_code":"AUT","city":"Vienna","geoname_id":"2761369","downloaders":"{\"size\":2793,\"mobile\":477,\"satellite\":0,\"tor\":0,\"tor_exit_nodes\":0,\"vpn\":704,\"relay\":0,\"proxy\":2,\"hosting\":924,\"service\":665}","uploaders":"{\"size\":578,\"mobile\":111,\"satellite\":0,\"tor\":0,\"tor_exit_nodes\":0,\"vpn\":192,\"relay\":0,\"proxy\":0,\"hosting\":211,\"service\":186}"},"geometry":{"type":"Point","coordinates":[16.37208,48.20849]}},{"type":"Feature","properties":{"country_code":"PRT","city":"Lisbon","geoname_id":"2267057","downloaders":"{\"size\":2747,\"mobile\":472,\"satellite\":0,\"tor\":0,\"tor_exit_nodes\":0,\"vpn\":263,\"relay\":0,\"proxy\":0,\"hosting\":351,\"service\":248}","uploaders":"{\"size\":736,\"mobile\":116,\"satellite\":0,\"tor\":0,\"tor_exit_nodes\":0,\"vpn\":61,\"relay\":0,\"proxy\":0,\"hosting\":77,\"service\":57}"},"geometry":{"type":"Point","coordinates":[-9.1498,38.72509]}},{"type":"Feature","properties":{"country_code":"RUS","city":"Saratov","geoname_id":"498677","downloaders":"{\"size\":2732,\"mobile\":96,\"satellite\":0,\"tor\":0,\"tor_exit_nodes\":0,\"vpn\":19,\"relay\":0,\"proxy\":0,\"hosting\":0,\"service\":1}","uploaders":"{\"size\":152,\"mobile\":12,\"satellite\":0,\"tor\":0,\"tor_exit_nodes\":0,\"vpn\":1,\"relay\":0,\"proxy\":0,\"hosting\":0,\"service\":0}"},"geometry":{"type":"Point","coordinates":[46.00861,51.54056]}},{"type":"Feature","properties":{"country_code":"RUS","city":"Barnaul","geoname_id":"1510853","downloaders":"{\"size\":2700,\"mobile\":3,\"satellite\":0,\"tor\":0,\"tor_exit_nodes\":0,\"vpn\":7,\"relay\":0,\"proxy\":0,\"hosting\":0,\"service\":1}","uploaders":"{\"size\":215,\"mobile\":0,\"satellite\":0,\"tor\":0,\"tor_exit_nodes\":0,\"vpn\":0,\"relay\":0,\"proxy\":0,\"hosting\":0,\"service\":0}"},"geometry":{"type":"Point","coordinates":[83.7456,53.3598]}},{"type":"Feature","properties":{"country_code":"URY","city":"Montevideo","geoname_id":"3441575","downloaders":"{\"size\":2657,\"mobile\":110,\"satellite\":0,\"tor\":0,\"tor_exit_nodes\":0,\"vpn\":4,\"relay\":0,\"proxy\":0,\"hosting\":0,\"service\":0}","uploaders":"{\"size\":964,\"mobile\":14,\"satellite\":0,\"tor\":0,\"tor_exit_nodes\":0,\"vpn\":0,\"relay\":0,\"proxy\":0,\"hosting\":0,\"service\":0}"},"geometry":{"type":"Point","coordinates":[-56.18816,-34.90328]}},{"type":"Feature","properties":{"country_code":"USA","city":"San Jose","geoname_id":"5392171","downloaders":"{\"size\":2595,\"mobile\":8,\"satellite\":9,\"tor\":21,\"tor_exit_nodes\":25,\"vpn\":1116,\"relay\":10,\"proxy\":0,\"hosting\":2182,\"service\":1112}","uploaders":"{\"size\":660,\"mobile\":3,\"satellite\":1,\"tor\":2,\"tor_exit_nodes\":2,\"vpn\":363,\"relay\":5,\"proxy\":0,\"hosting\":567,\"service\":366}"},"geometry":{"type":"Point","coordinates":[-121.7875,37.2329]}},{"type":"Feature","properties":{"country_code":"USA","city":"Charlotte","geoname_id":"4460243","downloaders":"{\"size\":2584,\"mobile\":1540,\"satellite\":0,\"tor\":0,\"tor_exit_nodes\":0,\"vpn\":874,\"relay\":0,\"proxy\":0,\"hosting\":857,\"service\":874}","uploaders":"{\"size\":449,\"mobile\":147,\"satellite\":0,\"tor\":0,\"tor_exit_nodes\":0,\"vpn\":276,\"relay\":0,\"proxy\":0,\"hosting\":267,\"service\":276}"},"geometry":{"type":"Point","coordinates":[-80.84313,35.22709]}},{"type":"Feature","properties":{"country_code":"THA","city":"Bangkok","geoname_id":"1609350","downloaders":"{\"size\":2503,\"mobile\":514,\"satellite\":0,\"tor\":0,\"tor_exit_nodes\":0,\"vpn\":22,\"relay\":0,\"proxy\":0,\"hosting\":336,\"service\":9}","uploaders":"{\"size\":694,\"mobile\":137,\"satellite\":0,\"tor\":0,\"tor_exit_nodes\":0,\"vpn\":5,\"relay\":0,\"proxy\":0,\"hosting\":66,\"service\":3}"},"geometry":{"type":"Point","coordinates":[100.50144,13.75398]}},{"type":"Feature","properties":{"country_code":"RUS","city":"Tver","geoname_id":"480060","downloaders":"{\"size\":2491,\"mobile\":69,\"satellite\":0,\"tor\":0,\"tor_exit_nodes\":0,\"vpn\":14,\"relay\":0,\"proxy\":0,\"hosting\":10,\"service\":3}","uploaders":"{\"size\":206,\"mobile\":8,\"satellite\":0,\"tor\":0,\"tor_exit_nodes\":0,\"vpn\":2,\"relay\":0,\"proxy\":0,\"hosting\":0,\"service\":0}"},"geometry":{"type":"Point","coordinates":[35.90057,56.85836]}},{"type":"Feature","properties":{"country_code":"KOR","city":"Suwon","geoname_id":"1835553","downloaders":"{\"size\":2457,\"mobile\":2,\"satellite\":0,\"tor\":0,\"tor_exit_nodes\":0,\"vpn\":21,\"relay\":0,\"proxy\":0,\"hosting\":0,\"service\":2}","uploaders":"{\"size\":80,\"mobile\":0,\"satellite\":0,\"tor\":0,\"tor_exit_nodes\":0,\"vpn\":1,\"relay\":0,\"proxy\":0,\"hosting\":0,\"service\":0}"},"geometry":{"type":"Point","coordinates":[127.00889,37.29111]}},{"type":"Feature","properties":{"country_code":"RUS","city":"Yaroslavl","geoname_id":"468902","downloaders":"{\"size\":2446,\"mobile\":577,\"satellite\":0,\"tor\":0,\"tor_exit_nodes\":0,\"vpn\":28,\"relay\":0,\"proxy\":0,\"hosting\":0,\"service\":0}","uploaders":"{\"size\":221,\"mobile\":109,\"satellite\":0,\"tor\":0,\"tor_exit_nodes\":0,\"vpn\":2,\"relay\":0,\"proxy\":0,\"hosting\":0,\"service\":0}"},"geometry":{"type":"Point","coordinates":[39.87368,57.62987]}},{"type":"Feature","properties":{"country_code":"RUS","city":"Volgograd","geoname_id":"472757","downloaders":"{\"size\":2402,\"mobile\":178,\"satellite\":0,\"tor\":0,\"tor_exit_nodes\":0,\"vpn\":21,\"relay\":0,\"proxy\":0,\"hosting\":0,\"service\":0}","uploaders":"{\"size\":297,\"mobile\":26,\"satellite\":0,\"tor\":0,\"tor_exit_nodes\":0,\"vpn\":1,\"relay\":0,\"proxy\":0,\"hosting\":0,\"service\":0}"},"geometry":{"type":"Point","coordinates":[44.50183,48.71939]}},{"type":"Feature","properties":{"country_code":"TWN","city":"Taipei","geoname_id":"1668341","downloaders":"{\"size\":2400,\"mobile\":173,\"satellite\":0,\"tor\":0,\"tor_exit_nodes\":0,\"vpn\":327,\"relay\":0,\"proxy\":0,\"hosting\":306,\"service\":275}","uploaders":"{\"size\":331,\"mobile\":27,\"satellite\":0,\"tor\":0,\"tor_exit_nodes\":0,\"vpn\":71,\"relay\":0,\"proxy\":0,\"hosting\":69,\"service\":61}"},"geometry":{"type":"Point","coordinates":[121.52639,25.05306]}},{"type":"Feature","properties":{"country_code":"USA","city":"Edison","geoname_id":"5097529","downloaders":"{\"size\":2380,\"mobile\":0,\"satellite\":0,\"tor\":0,\"tor_exit_nodes\":0,\"vpn\":55,\"relay\":0,\"proxy\":0,\"hosting\":2380,\"service\":55}","uploaders":"{\"size\":465,\"mobile\":0,\"satellite\":0,\"tor\":0,\"tor_exit_nodes\":0,\"vpn\":7,\"relay\":0,\"proxy\":0,\"hosting\":465,\"service\":7}"},"geometry":{"type":"Point","coordinates":[-74.3375,40.5325]}},{"type":"Feature","properties":{"country_code":"ESP","city":"Barcelona","geoname_id":"3128760","downloaders":"{\"size\":2379,\"mobile\":903,\"satellite\":0,\"tor\":0,\"tor_exit_nodes\":0,\"vpn\":42,\"relay\":0,\"proxy\":0,\"hosting\":36,\"service\":36}","uploaders":"{\"size\":378,\"mobile\":127,\"satellite\":0,\"tor\":0,\"tor_exit_nodes\":0,\"vpn\":18,\"relay\":0,\"proxy\":0,\"hosting\":17,\"service\":17}"},"geometry":{"type":"Point","coordinates":[2.15899,41.38879]}},{"type":"Feature","properties":{"country_code":"RUS","city":"Khimki","geoname_id":"550280","downloaders":"{\"size\":2347,\"mobile\":0,\"satellite\":0,\"tor\":0,\"tor_exit_nodes\":0,\"vpn\":209,\"relay\":0,\"proxy\":0,\"hosting\":435,\"service\":54}","uploaders":"{\"size\":127,\"mobile\":0,\"satellite\":0,\"tor\":0,\"tor_exit_nodes\":0,\"vpn\":10,\"relay\":0,\"proxy\":0,\"hosting\":15,\"service\":5}"},"geometry":{"type":"Point","coordinates":[37.42848,55.9001]}},{"type":"Feature","properties":{"country_code":"USA","city":"Houston","geoname_id":"4699066","downloaders":"{\"size\":2310,\"mobile\":255,\"satellite\":0,\"tor\":0,\"tor_exit_nodes\":0,\"vpn\":859,\"relay\":0,\"proxy\":0,\"hosting\":960,\"service\":801}","uploaders":"{\"size\":522,\"mobile\":118,\"satellite\":0,\"tor\":0,\"tor_exit_nodes\":0,\"vpn\":207,\"relay\":0,\"proxy\":0,\"hosting\":244,\"service\":197}"},"geometry":{"type":"Point","coordinates":[-95.36327,29.76328]}},{"type":"Feature","properties":{"country_code":"RUS","city":"Lipetsk","geoname_id":"535121","downloaders":"{\"size\":2272,\"mobile\":280,\"satellite\":0,\"tor\":0,\"tor_exit_nodes\":0,\"vpn\":24,\"relay\":0,\"proxy\":0,\"hosting\":0,\"service\":1}","uploaders":"{\"size\":134,\"mobile\":33,\"satellite\":0,\"tor\":0,\"tor_exit_nodes\":0,\"vpn\":0,\"relay\":0,\"proxy\":0,\"hosting\":0,\"service\":0}"},"geometry":{"type":"Point","coordinates":[39.57076,52.60311]}},{"type":"Feature","properties":{"country_code":"KAZ","city":"Almaty","geoname_id":"1526384","downloaders":"{\"size\":2242,\"mobile\":332,\"satellite\":0,\"tor\":0,\"tor_exit_nodes\":0,\"vpn\":24,\"relay\":0,\"proxy\":0,\"hosting\":164,\"service\":1}","uploaders":"{\"size\":439,\"mobile\":69,\"satellite\":0,\"tor\":0,\"tor_exit_nodes\":0,\"vpn\":2,\"relay\":0,\"proxy\":0,\"hosting\":13,\"service\":0}"},"geometry":{"type":"Point","coordinates":[76.9115,43.25249]}},{"type":"Feature","properties":{"country_code":"AUS","city":"Adelaide","geoname_id":"2078025","downloaders":"{\"size\":2240,\"mobile\":165,\"satellite\":0,\"tor\":0,\"tor_exit_nodes\":0,\"vpn\":503,\"relay\":0,\"proxy\":0,\"hosting\":562,\"service\":465}","uploaders":"{\"size\":933,\"mobile\":41,\"satellite\":0,\"tor\":0,\"tor_exit_nodes\":0,\"vpn\":158,\"relay\":0,\"proxy\":0,\"hosting\":191,\"service\":137}"},"geometry":{"type":"Point","coordinates":[138.59863000000001,-34.92866]}},{"type":"Feature","properties":{"country_code":"RUS","city":"Irkutsk","geoname_id":"2023469","downloaders":"{\"size\":2240,\"mobile\":320,\"satellite\":0,\"tor\":0,\"tor_exit_nodes\":0,\"vpn\":2,\"relay\":0,\"proxy\":0,\"hosting\":0,\"service\":0}","uploaders":"{\"size\":317,\"mobile\":89,\"satellite\":0,\"tor\":0,\"tor_exit_nodes\":0,\"vpn\":0,\"relay\":0,\"proxy\":0,\"hosting\":0,\"service\":0}"},"geometry":{"type":"Point","coordinates":[104.29585,52.29795]}},{"type":"Feature","properties":{"country_code":"RUS","city":"Tula","geoname_id":"480562","downloaders":"{\"size\":2238,\"mobile\":569,\"satellite\":0,\"tor\":0,\"tor_exit_nodes\":0,\"vpn\":11,\"relay\":0,\"proxy\":0,\"hosting\":55,\"service\":0}","uploaders":"{\"size\":181,\"mobile\":82,\"satellite\":0,\"tor\":0,\"tor_exit_nodes\":0,\"vpn\":0,\"relay\":0,\"proxy\":0,\"hosting\":4,\"service\":0}"},"geometry":{"type":"Point","coordinates":[37.61822,54.19609]}},{"type":"Feature","properties":{"country_code":"USA","city":"Washington","geoname_id":"4140963","downloaders":"{\"size\":2224,\"mobile\":41,\"satellite\":0,\"tor\":0,\"tor_exit_nodes\":0,\"vpn\":1232,\"relay\":0,\"proxy\":0,\"hosting\":1382,\"service\":1183}","uploaders":"{\"size\":449,\"mobile\":7,\"satellite\":0,\"tor\":0,\"tor_exit_nodes\":0,\"vpn\":313,\"relay\":0,\"proxy\":0,\"hosting\":352,\"service\":298}"},"geometry":{"type":"Point","coordinates":[-77.03637,38.89511]}},{"type":"Feature","properties":{"country_code":"TUR","city":"İzmir","geoname_id":"311046","downloaders":"{\"size\":2211,\"mobile\":397,\"satellite\":0,\"tor\":0,\"tor_exit_nodes\":0,\"vpn\":1,\"relay\":0,\"proxy\":0,\"hosting\":3,\"service\":0}","uploaders":"{\"size\":195,\"mobile\":27,\"satellite\":0,\"tor\":0,\"tor_exit_nodes\":0,\"vpn\":0,\"relay\":0,\"proxy\":0,\"hosting\":2,\"service\":0}"},"geometry":{"type":"Point","coordinates":[27.13838,38.41273]}},{"type":"Feature","properties":{"country_code":"BWA","city":"Gaborone","geoname_id":"933773","downloaders":"{\"size\":2170,\"mobile\":655,\"satellite\":66,\"tor\":0,\"tor_exit_nodes\":0,\"vpn\":1,\"relay\":0,\"proxy\":0,\"hosting\":1,\"service\":0}","uploaders":"{\"size\":422,\"mobile\":302,\"satellite\":1,\"tor\":0,\"tor_exit_nodes\":0,\"vpn\":0,\"relay\":0,\"proxy\":0,\"hosting\":0,\"service\":0}"},"geometry":{"type":"Point","coordinates":[25.90859,-24.65451]}},{"type":"Feature","properties":{"country_code":"PHL","city":"Manila","geoname_id":"1701668","downloaders":"{\"size\":2138,\"mobile\":542,\"satellite\":0,\"tor\":0,\"tor_exit_nodes\":0,\"vpn\":20,\"relay\":0,\"proxy\":0,\"hosting\":70,\"service\":14}","uploaders":"{\"size\":715,\"mobile\":163,\"satellite\":0,\"tor\":0,\"tor_exit_nodes\":0,\"vpn\":6,\"relay\":0,\"proxy\":0,\"hosting\":18,\"service\":4}"},"geometry":{"type":"Point","coordinates":[120.9822,14.6042]}},{"type":"Feature","properties":{"country_code":"USA","city":"Philadelphia","geoname_id":"4560349","downloaders":"{\"size\":2125,\"mobile\":147,\"satellite\":0,\"tor\":0,\"tor_exit_nodes\":0,\"vpn\":7,\"relay\":0,\"proxy\":0,\"hosting\":32,\"service\":6}","uploaders":"{\"size\":362,\"mobile\":36,\"satellite\":0,\"tor\":0,\"tor_exit_nodes\":0,\"vpn\":2,\"relay\":0,\"proxy\":0,\"hosting\":4,\"service\":2}"},"geometry":{"type":"Point","coordinates":[-75.2282,39.9845]}},{"type":"Feature","properties":{"country_code":"PHL","city":"Cebu City","geoname_id":"1717512","downloaders":"{\"size\":2086,\"mobile\":836,\"satellite\":0,\"tor\":0,\"tor_exit_nodes\":0,\"vpn\":1,\"relay\":0,\"proxy\":0,\"hosting\":0,\"service\":0}","uploaders":"{\"size\":724,\"mobile\":244,\"satellite\":0,\"tor\":0,\"tor_exit_nodes\":0,\"vpn\":1,\"relay\":0,\"proxy\":0,\"hosting\":0,\"service\":0}"},"geometry":{"type":"Point","coordinates":[123.89071,10.31672]}},{"type":"Feature","properties":{"country_code":"USA","city":"Kansas City","geoname_id":"4393217","downloaders":"{\"size\":2074,\"mobile\":31,\"satellite\":0,\"tor\":0,\"tor_exit_nodes\":0,\"vpn\":515,\"relay\":0,\"proxy\":0,\"hosting\":1037,\"service\":489}","uploaders":"{\"size\":483,\"mobile\":2,\"satellite\":0,\"tor\":0,\"tor_exit_nodes\":0,\"vpn\":132,\"relay\":0,\"proxy\":0,\"hosting\":228,\"service\":126}"},"geometry":{"type":"Point","coordinates":[-94.57857,39.09973]}},{"type":"Feature","properties":{"country_code":"RUS","city":"Khabarovsk","geoname_id":"2022890","downloaders":"{\"size\":2069,\"mobile\":461,\"satellite\":7,\"tor\":0,\"tor_exit_nodes\":0,\"vpn\":27,\"relay\":0,\"proxy\":0,\"hosting\":14,\"service\":22}","uploaders":"{\"size\":469,\"mobile\":109,\"satellite\":3,\"tor\":0,\"tor_exit_nodes\":0,\"vpn\":3,\"relay\":0,\"proxy\":0,\"hosting\":4,\"service\":3}"},"geometry":{"type":"Point","coordinates":[135.08822,48.48032]}},{"type":"Feature","properties":{"country_code":"OMN","city":"Muscat","geoname_id":"287286","downloaders":"{\"size\":2065,\"mobile\":14,\"satellite\":0,\"tor\":0,\"tor_exit_nodes\":0,\"vpn\":1,\"relay\":0,\"proxy\":0,\"hosting\":33,\"service\":0}","uploaders":"{\"size\":580,\"mobile\":1,\"satellite\":0,\"tor\":0,\"tor_exit_nodes\":0,\"vpn\":0,\"relay\":0,\"proxy\":0,\"hosting\":8,\"service\":0}"},"geometry":{"type":"Point","coordinates":[58.40778,23.58413]}},{"type":"Feature","properties":{"country_code":"KOR","city":"Daejeon","geoname_id":"1835235","downloaders":"{\"size\":2025,\"mobile\":0,\"satellite\":0,\"tor\":0,\"tor_exit_nodes\":0,\"vpn\":25,\"relay\":0,\"proxy\":0,\"hosting\":0,\"service\":5}","uploaders":"{\"size\":63,\"mobile\":0,\"satellite\":0,\"tor\":0,\"tor_exit_nodes\":0,\"vpn\":2,\"relay\":0,\"proxy\":0,\"hosting\":0,\"service\":0}"},"geometry":{"type":"Point","coordinates":[127.38493,36.34913]}},{"type":"Feature","properties":{"country_code":"SRB","city":"Pančevo","geoname_id":"787237","downloaders":"{\"size\":2008,\"mobile\":178,\"satellite\":0,\"tor\":0,\"tor_exit_nodes\":0,\"vpn\":30,\"relay\":0,\"proxy\":0,\"hosting\":121,\"service\":19}","uploaders":"{\"size\":822,\"mobile\":63,\"satellite\":0,\"tor\":0,\"tor_exit_nodes\":0,\"vpn\":11,\"relay\":0,\"proxy\":0,\"hosting\":52,\"service\":5}"},"geometry":{"type":"Point","coordinates":[20.64167,44.87177]}},{"type":"Feature","properties":{"country_code":"MKD","city":"Skopje","geoname_id":"785842","downloaders":"{\"size\":1975,\"mobile\":128,\"satellite\":0,\"tor\":0,\"tor_exit_nodes\":0,\"vpn\":25,\"relay\":0,\"proxy\":0,\"hosting\":37,\"service\":5}","uploaders":"{\"size\":588,\"mobile\":21,\"satellite\":0,\"tor\":0,\"tor_exit_nodes\":0,\"vpn\":4,\"relay\":0,\"proxy\":0,\"hosting\":6,\"service\":0}"},"geometry":{"type":"Point","coordinates":[21.43141,41.99646]}},{"type":"Feature","properties":{"country_code":"DEU","city":"Nürnberg","geoname_id":"2861650","downloaders":"{\"size\":1974,\"mobile\":77,\"satellite\":0,\"tor\":31,\"tor_exit_nodes\":31,\"vpn\":52,\"relay\":0,\"proxy\":1,\"hosting\":1813,\"service\":26}","uploaders":"{\"size\":285,\"mobile\":2,\"satellite\":0,\"tor\":0,\"tor_exit_nodes\":0,\"vpn\":0,\"relay\":0,\"proxy\":0,\"hosting\":281,\"service\":0}"},"geometry":{"type":"Point","coordinates":[11.07752,49.45421]}},{"type":"Feature","properties":{"country_code":"RUS","city":"Kemerovo","geoname_id":"1503901","downloaders":"{\"size\":1958,\"mobile\":2,\"satellite\":0,\"tor\":0,\"tor_exit_nodes\":0,\"vpn\":11,\"relay\":0,\"proxy\":0,\"hosting\":4,\"service\":0}","uploaders":"{\"size\":75,\"mobile\":0,\"satellite\":0,\"tor\":0,\"tor_exit_nodes\":0,\"vpn\":0,\"relay\":0,\"proxy\":0,\"hosting\":0,\"service\":0}"},"geometry":{"type":"Point","coordinates":[86.08333,55.33333]}},{"type":"Feature","properties":{"country_code":"RUS","city":"Kirov","geoname_id":"548408","downloaders":"{\"size\":1918,\"mobile\":13,\"satellite\":0,\"tor\":0,\"tor_exit_nodes\":0,\"vpn\":161,\"relay\":0,\"proxy\":0,\"hosting\":0,\"service\":150}","uploaders":"{\"size\":220,\"mobile\":1,\"satellite\":0,\"tor\":0,\"tor_exit_nodes\":0,\"vpn\":22,\"relay\":0,\"proxy\":0,\"hosting\":0,\"service\":21}"},"geometry":{"type":"Point","coordinates":[49.66007,58.59665]}},{"type":"Feature","properties":{"country_code":"RUS","city":"Penza","geoname_id":"511565","downloaders":"{\"size\":1889,\"mobile\":267,\"satellite\":0,\"tor\":0,\"tor_exit_nodes\":0,\"vpn\":15,\"relay\":0,\"proxy\":0,\"hosting\":0,\"service\":1}","uploaders":"{\"size\":204,\"mobile\":49,\"satellite\":0,\"tor\":0,\"tor_exit_nodes\":0,\"vpn\":1,\"relay\":0,\"proxy\":0,\"hosting\":0,\"service\":0}"},"geometry":{"type":"Point","coordinates":[45.00464,53.20066]}},{"type":"Feature","properties":{"country_code":"RUS","city":"Ulyanovsk","geoname_id":"479123","downloaders":"{\"size\":1872,\"mobile\":140,\"satellite\":0,\"tor\":0,\"tor_exit_nodes\":0,\"vpn\":7,\"relay\":0,\"proxy\":0,\"hosting\":0,\"service\":1}","uploaders":"{\"size\":261,\"mobile\":20,\"satellite\":0,\"tor\":0,\"tor_exit_nodes\":0,\"vpn\":0,\"relay\":0,\"proxy\":0,\"hosting\":0,\"service\":0}"},"geometry":{"type":"Point","coordinates":[48.38657,54.32824]}},{"type":"Feature","properties":{"country_code":"RUS","city":"Bryansk","geoname_id":"571476","downloaders":"{\"size\":1872,\"mobile\":4,\"satellite\":0,\"tor\":0,\"tor_exit_nodes\":0,\"vpn\":8,\"relay\":0,\"proxy\":0,\"hosting\":0,\"service\":2}","uploaders":"{\"size\":180,\"mobile\":1,\"satellite\":0,\"tor\":0,\"tor_exit_nodes\":0,\"vpn\":0,\"relay\":0,\"proxy\":0,\"hosting\":0,\"service\":0}"},"geometry":{"type":"Point","coordinates":[34.37167,53.25209]}},{"type":"Feature","properties":{"country_code":"ETH","city":"Addis Ababa","geoname_id":"344979","downloaders":"{\"size\":1842,\"mobile\":505,\"satellite\":0,\"tor\":0,\"tor_exit_nodes\":0,\"vpn\":1,\"relay\":0,\"proxy\":0,\"hosting\":0,\"service\":0}","uploaders":"{\"size\":752,\"mobile\":141,\"satellite\":0,\"tor\":0,\"tor_exit_nodes\":0,\"vpn\":0,\"relay\":0,\"proxy\":0,\"hosting\":0,\"service\":0}"},"geometry":{"type":"Point","coordinates":[38.74689,9.02497]}},{"type":"Feature","properties":{"country_code":"IDN","city":"Jakarta","geoname_id":"1642911","downloaders":"{\"size\":1818,\"mobile\":476,\"satellite\":0,\"tor\":0,\"tor_exit_nodes\":0,\"vpn\":104,\"relay\":0,\"proxy\":0,\"hosting\":306,\"service\":88}","uploaders":"{\"size\":483,\"mobile\":116,\"satellite\":0,\"tor\":0,\"tor_exit_nodes\":0,\"vpn\":20,\"relay\":0,\"proxy\":0,\"hosting\":64,\"service\":18}"},"geometry":{"type":"Point","coordinates":[106.84513,-6.21462]}},{"type":"Feature","properties":{"country_code":"ZAF","city":"Benoni","geoname_id":"1020098","downloaders":"{\"size\":1816,\"mobile\":1521,\"satellite\":0,\"tor\":0,\"tor_exit_nodes\":0,\"vpn\":18,\"relay\":0,\"proxy\":0,\"hosting\":16,\"service\":7}","uploaders":"{\"size\":358,\"mobile\":232,\"satellite\":0,\"tor\":0,\"tor_exit_nodes\":0,\"vpn\":9,\"relay\":0,\"proxy\":0,\"hosting\":6,\"service\":3}"},"geometry":{"type":"Point","coordinates":[28.32078,-26.18848]}},{"type":"Feature","properties":{"country_code":"KOR","city":"Seongnam-si","geoname_id":"1897000","downloaders":"{\"size\":1790,\"mobile\":4,\"satellite\":0,\"tor\":0,\"tor_exit_nodes\":0,\"vpn\":18,\"relay\":0,\"proxy\":0,\"hosting\":0,\"service\":5}","uploaders":"{\"size\":90,\"mobile\":0,\"satellite\":0,\"tor\":0,\"tor_exit_nodes\":0,\"vpn\":1,\"relay\":0,\"proxy\":0,\"hosting\":0,\"service\":0}"},"geometry":{"type":"Point","coordinates":[127.13778,37.43861]}},{"type":"Feature","properties":{"country_code":"USA","city":"Santa Clara","geoname_id":"5393015","downloaders":"{\"size\":1758,\"mobile\":9,\"satellite\":0,\"tor\":0,\"tor_exit_nodes\":0,\"vpn\":1090,\"relay\":0,\"proxy\":0,\"hosting\":1276,\"service\":1040}","uploaders":"{\"size\":354,\"mobile\":0,\"satellite\":0,\"tor\":0,\"tor_exit_nodes\":0,\"vpn\":224,\"relay\":0,\"proxy\":0,\"hosting\":294,\"service\":221}"},"geometry":{"type":"Point","coordinates":[-121.95524,37.35411]}},{"type":"Feature","properties":{"country_code":"SAU","city":"Riyadh","geoname_id":"108410","downloaders":"{\"size\":1750,\"mobile\":795,\"satellite\":0,\"tor\":0,\"tor_exit_nodes\":0,\"vpn\":0,\"relay\":0,\"proxy\":0,\"hosting\":39,\"service\":0}","uploaders":"{\"size\":354,\"mobile\":166,\"satellite\":0,\"tor\":0,\"tor_exit_nodes\":0,\"vpn\":0,\"relay\":0,\"proxy\":0,\"hosting\":10,\"service\":0}"},"geometry":{"type":"Point","coordinates":[46.72185,24.68773]}},{"type":"Feature","properties":{"country_code":"RUS","city":"Orenburg","geoname_id":"515003","downloaders":"{\"size\":1738,\"mobile\":5,\"satellite\":0,\"tor\":0,\"tor_exit_nodes\":0,\"vpn\":44,\"relay\":0,\"proxy\":0,\"hosting\":0,\"service\":34}","uploaders":"{\"size\":141,\"mobile\":0,\"satellite\":0,\"tor\":0,\"tor_exit_nodes\":0,\"vpn\":5,\"relay\":0,\"proxy\":0,\"hosting\":0,\"service\":4}"},"geometry":{"type":"Point","coordinates":[55.0988,51.7727]}},{"type":"Feature","properties":{"country_code":"NGA","city":"Abuja","geoname_id":"2352778","downloaders":"{\"size\":1726,\"mobile\":1447,\"satellite\":0,\"tor\":0,\"tor_exit_nodes\":0,\"vpn\":1,\"relay\":0,\"proxy\":0,\"hosting\":6,\"service\":0}","uploaders":"{\"size\":256,\"mobile\":152,\"satellite\":0,\"tor\":0,\"tor_exit_nodes\":0,\"vpn\":0,\"relay\":0,\"proxy\":0,\"hosting\":1,\"service\":0}"},"geometry":{"type":"Point","coordinates":[7.49508,9.05785]}},{"type":"Feature","properties":{"country_code":"RUS","city":"Ryazan’","geoname_id":"500096","downloaders":"{\"size\":1721,\"mobile\":75,\"satellite\":0,\"tor\":0,\"tor_exit_nodes\":0,\"vpn\":42,\"relay\":0,\"proxy\":0,\"hosting\":4,\"service\":6}","uploaders":"{\"size\":187,\"mobile\":10,\"satellite\":0,\"tor\":0,\"tor_exit_nodes\":0,\"vpn\":0,\"relay\":0,\"proxy\":0,\"hosting\":0,\"service\":0}"},"geometry":{"type":"Point","coordinates":[39.6916,54.6269]}},{"type":"Feature","properties":{"country_code":"RUS","city":"Cheboksary","geoname_id":"569696","downloaders":"{\"size\":1720,\"mobile\":289,\"satellite\":0,\"tor\":0,\"tor_exit_nodes\":0,\"vpn\":6,\"relay\":0,\"proxy\":0,\"hosting\":0,\"service\":0}","uploaders":"{\"size\":148,\"mobile\":36,\"satellite\":0,\"tor\":0,\"tor_exit_nodes\":0,\"vpn\":0,\"relay\":0,\"proxy\":0,\"hosting\":0,\"service\":0}"},"geometry":{"type":"Point","coordinates":[47.25194,56.13222]}},{"type":"Feature","properties":{"country_code":"FRA","city":"Villecresnes","geoname_id":"2968823","downloaders":"{\"size\":1710,\"mobile\":0,\"satellite\":0,\"tor\":0,\"tor_exit_nodes\":0,\"vpn\":867,\"relay\":0,\"proxy\":0,\"hosting\":1708,\"service\":542}","uploaders":"{\"size\":62,\"mobile\":0,\"satellite\":0,\"tor\":0,\"tor_exit_nodes\":0,\"vpn\":33,\"relay\":0,\"proxy\":0,\"hosting\":61,\"service\":31}"},"geometry":{"type":"Point","coordinates":[2.5394,48.72002]}},{"type":"Feature","properties":{"country_code":"EGY","city":"Cairo","geoname_id":"360630","downloaders":"{\"size\":1706,\"mobile\":68,\"satellite\":0,\"tor\":0,\"tor_exit_nodes\":0,\"vpn\":2,\"relay\":0,\"proxy\":0,\"hosting\":100,\"service\":0}","uploaders":"{\"size\":332,\"mobile\":18,\"satellite\":0,\"tor\":0,\"tor_exit_nodes\":0,\"vpn\":0,\"relay\":0,\"proxy\":0,\"hosting\":6,\"service\":0}"},"geometry":{"type":"Point","coordinates":[31.24967,30.06263]}},{"type":"Feature","properties":{"country_code":"PHL","city":"Davao","geoname_id":"1715348","downloaders":"{\"size\":1701,\"mobile\":1175,\"satellite\":0,\"tor\":0,\"tor_exit_nodes\":0,\"vpn\":2,\"relay\":0,\"proxy\":0,\"hosting\":7,\"service\":0}","uploaders":"{\"size\":706,\"mobile\":488,\"satellite\":0,\"tor\":0,\"tor_exit_nodes\":0,\"vpn\":0,\"relay\":0,\"proxy\":0,\"hosting\":7,\"service\":0}"},"geometry":{"type":"Point","coordinates":[125.61278,7.07306]}},{"type":"Feature","properties":{"country_code":"RUS","city":"Balashikha","geoname_id":"579464","downloaders":"{\"size\":1687,\"mobile\":39,\"satellite\":0,\"tor\":0,\"tor_exit_nodes\":0,\"vpn\":59,\"relay\":0,\"proxy\":0,\"hosting\":137,\"service\":6}","uploaders":"{\"size\":93,\"mobile\":4,\"satellite\":0,\"tor\":0,\"tor_exit_nodes\":0,\"vpn\":4,\"relay\":0,\"proxy\":0,\"hosting\":6,\"service\":0}"},"geometry":{"type":"Point","coordinates":[37.94794,55.79479]}},{"type":"Feature","properties":{"country_code":"DNK","city":"Copenhagen","geoname_id":"2618425","downloaders":"{\"size\":1664,\"mobile\":593,\"satellite\":0,\"tor\":5,\"tor_exit_nodes\":5,\"vpn\":199,\"relay\":0,\"proxy\":0,\"hosting\":185,\"service\":187}","uploaders":"{\"size\":332,\"mobile\":92,\"satellite\":0,\"tor\":1,\"tor_exit_nodes\":1,\"vpn\":51,\"relay\":0,\"proxy\":0,\"hosting\":34,\"service\":50}"},"geometry":{"type":"Point","coordinates":[12.56553,55.67594]}},{"type":"Feature","properties":{"country_code":"PRT","city":"Porto","geoname_id":"2735943","downloaders":"{\"size\":1661,\"mobile\":249,\"satellite\":0,\"tor\":0,\"tor_exit_nodes\":0,\"vpn\":6,\"relay\":0,\"proxy\":0,\"hosting\":1,\"service\":0}","uploaders":"{\"size\":369,\"mobile\":78,\"satellite\":0,\"tor\":0,\"tor_exit_nodes\":0,\"vpn\":1,\"relay\":0,\"proxy\":0,\"hosting\":0,\"service\":0}"},"geometry":{"type":"Point","coordinates":[-8.61099,41.14961]}},{"type":"Feature","properties":{"country_code":"KOR","city":"Hwaseong-si","geoname_id":"1843847","downloaders":"{\"size\":1661,\"mobile\":1,\"satellite\":0,\"tor\":0,\"tor_exit_nodes\":0,\"vpn\":26,\"relay\":0,\"proxy\":0,\"hosting\":0,\"service\":2}","uploaders":"{\"size\":40,\"mobile\":0,\"satellite\":0,\"tor\":0,\"tor_exit_nodes\":0,\"vpn\":0,\"relay\":0,\"proxy\":0,\"hosting\":0,\"service\":0}"},"geometry":{"type":"Point","coordinates":[126.8169,37.20682]}},{"type":"Feature","properties":{"country_code":"RUS","city":"Ivanovo","geoname_id":"555312","downloaders":"{\"size\":1638,\"mobile\":125,\"satellite\":0,\"tor\":0,\"tor_exit_nodes\":0,\"vpn\":14,\"relay\":0,\"proxy\":0,\"hosting\":0,\"service\":2}","uploaders":"{\"size\":167,\"mobile\":33,\"satellite\":0,\"tor\":0,\"tor_exit_nodes\":0,\"vpn\":1,\"relay\":0,\"proxy\":0,\"hosting\":0,\"service\":0}"},"geometry":{"type":"Point","coordinates":[40.97139,56.99719]}},{"type":"Feature","properties":{"country_code":"SWE","city":"Göteborg","geoname_id":"2711537","downloaders":"{\"size\":1635,\"mobile\":208,\"satellite\":0,\"tor\":0,\"tor_exit_nodes\":0,\"vpn\":284,\"relay\":0,\"proxy\":0,\"hosting\":240,\"service\":274}","uploaders":"{\"size\":419,\"mobile\":63,\"satellite\":0,\"tor\":0,\"tor_exit_nodes\":0,\"vpn\":79,\"relay\":0,\"proxy\":0,\"hosting\":73,\"service\":78}"},"geometry":{"type":"Point","coordinates":[11.96679,57.70716]}},{"type":"Feature","properties":{"country_code":"SRB","city":"Novi Sad","geoname_id":"3194360","downloaders":"{\"size\":1628,\"mobile\":270,\"satellite\":0,\"tor\":0,\"tor_exit_nodes\":0,\"vpn\":4,\"relay\":0,\"proxy\":0,\"hosting\":0,\"service\":0}","uploaders":"{\"size\":754,\"mobile\":70,\"satellite\":0,\"tor\":0,\"tor_exit_nodes\":0,\"vpn\":2,\"relay\":0,\"proxy\":0,\"hosting\":0,\"service\":0}"},"geometry":{"type":"Point","coordinates":[19.83694,45.25167]}},{"type":"Feature","properties":{"country_code":"RUS","city":"Izhevsk","geoname_id":"554840","downloaders":"{\"size\":1627,\"mobile\":161,\"satellite\":0,\"tor\":0,\"tor_exit_nodes\":0,\"vpn\":18,\"relay\":0,\"proxy\":0,\"hosting\":0,\"service\":2}","uploaders":"{\"size\":178,\"mobile\":26,\"satellite\":0,\"tor\":0,\"tor_exit_nodes\":0,\"vpn\":1,\"relay\":0,\"proxy\":0,\"hosting\":0,\"service\":1}"},"geometry":{"type":"Point","coordinates":[53.20448,56.84976]}},{"type":"Feature","properties":{"country_code":"POL","city":"Mokotów","geoname_id":"764484","downloaders":"{\"size\":1621,\"mobile\":58,\"satellite\":0,\"tor\":0,\"tor_exit_nodes\":0,\"vpn\":0,\"relay\":0,\"proxy\":0,\"hosting\":1,\"service\":0}","uploaders":"{\"size\":292,\"mobile\":13,\"satellite\":0,\"tor\":0,\"tor_exit_nodes\":0,\"vpn\":0,\"relay\":0,\"proxy\":0,\"hosting\":1,\"service\":0}"},"geometry":{"type":"Point","coordinates":[20.9944,52.177]}},{"type":"Feature","properties":{"country_code":"POL","city":"Ursynów","geoname_id":"6545326","downloaders":"{\"size\":1595,\"mobile\":0,\"satellite\":0,\"tor\":0,\"tor_exit_nodes\":0,\"vpn\":230,\"relay\":0,\"proxy\":0,\"hosting\":237,\"service\":230}","uploaders":"{\"size\":258,\"mobile\":0,\"satellite\":0,\"tor\":0,\"tor_exit_nodes\":0,\"vpn\":56,\"relay\":0,\"proxy\":0,\"hosting\":56,\"service\":56}"},"geometry":{"type":"Point","coordinates":[21.0068,52.1552]}},{"type":"Feature","properties":{"country_code":"POL","city":"Poznań","geoname_id":"3088171","downloaders":"{\"size\":1592,\"mobile\":213,\"satellite\":0,\"tor\":0,\"tor_exit_nodes\":0,\"vpn\":16,\"relay\":0,\"proxy\":0,\"hosting\":9,\"service\":0}","uploaders":"{\"size\":262,\"mobile\":40,\"satellite\":0,\"tor\":0,\"tor_exit_nodes\":0,\"vpn\":2,\"relay\":0,\"proxy\":0,\"hosting\":2,\"service\":0}"},"geometry":{"type":"Point","coordinates":[16.92993,52.40692]}},{"type":"Feature","properties":{"country_code":"TUR","city":"Bursa","geoname_id":"750269","downloaders":"{\"size\":1584,\"mobile\":155,\"satellite\":0,\"tor\":0,\"tor_exit_nodes\":0,\"vpn\":0,\"relay\":0,\"proxy\":0,\"hosting\":61,\"service\":0}","uploaders":"{\"size\":81,\"mobile\":14,\"satellite\":0,\"tor\":0,\"tor_exit_nodes\":0,\"vpn\":0,\"relay\":0,\"proxy\":0,\"hosting\":6,\"service\":0}"},"geometry":{"type":"Point","coordinates":[29.06013,40.19559]}},{"type":"Feature","properties":{"country_code":"KOR","city":"Goyang-si","geoname_id":"1842485","downloaders":"{\"size\":1581,\"mobile\":1,\"satellite\":0,\"tor\":0,\"tor_exit_nodes\":0,\"vpn\":27,\"relay\":0,\"proxy\":0,\"hosting\":0,\"service\":14}","uploaders":"{\"size\":59,\"mobile\":0,\"satellite\":0,\"tor\":0,\"tor_exit_nodes\":0,\"vpn\":2,\"relay\":0,\"proxy\":0,\"hosting\":0,\"service\":1}"},"geometry":{"type":"Point","coordinates":[126.835,37.65639]}},{"type":"Feature","properties":{"country_code":"CHN","city":"Zhengzhou","geoname_id":"1784658","downloaders":"{\"size\":1555,\"mobile\":0,\"satellite\":0,\"tor\":0,\"tor_exit_nodes\":0,\"vpn\":15,\"relay\":0,\"proxy\":0,\"hosting\":6,\"service\":0}","uploaders":"{\"size\":79,\"mobile\":0,\"satellite\":0,\"tor\":0,\"tor_exit_nodes\":0,\"vpn\":0,\"relay\":0,\"proxy\":0,\"hosting\":0,\"service\":0}"},"geometry":{"type":"Point","coordinates":[113.64861,34.75778]}},{"type":"Feature","properties":{"country_code":"RUS","city":"Kaliningrad","geoname_id":"554234","downloaders":"{\"size\":1552,\"mobile\":26,\"satellite\":0,\"tor\":0,\"tor_exit_nodes\":0,\"vpn\":14,\"relay\":0,\"proxy\":0,\"hosting\":7,\"service\":0}","uploaders":"{\"size\":250,\"mobile\":6,\"satellite\":0,\"tor\":0,\"tor_exit_nodes\":0,\"vpn\":0,\"relay\":0,\"proxy\":0,\"hosting\":0,\"service\":0}"},"geometry":{"type":"Point","coordinates":[20.51095,54.70649]}},{"type":"Feature","properties":{"country_code":"KOR","city":"Gwangju","geoname_id":"1841811","downloaders":"{\"size\":1551,\"mobile\":0,\"satellite\":0,\"tor\":0,\"tor_exit_nodes\":0,\"vpn\":16,\"relay\":0,\"proxy\":0,\"hosting\":0,\"service\":0}","uploaders":"{\"size\":57,\"mobile\":0,\"satellite\":0,\"tor\":0,\"tor_exit_nodes\":0,\"vpn\":0,\"relay\":0,\"proxy\":0,\"hosting\":0,\"service\":0}"},"geometry":{"type":"Point","coordinates":[126.91556,35.15472]}},{"type":"Feature","properties":{"country_code":"CHN","city":"Hangzhou","geoname_id":"1808926","downloaders":"{\"size\":1539,\"mobile\":0,\"satellite\":0,\"tor\":0,\"tor_exit_nodes\":0,\"vpn\":17,\"relay\":0,\"proxy\":0,\"hosting\":129,\"service\":0}","uploaders":"{\"size\":286,\"mobile\":0,\"satellite\":0,\"tor\":0,\"tor_exit_nodes\":0,\"vpn\":0,\"relay\":0,\"proxy\":0,\"hosting\":5,\"service\":0}"},"geometry":{"type":"Point","coordinates":[120.16142,30.29365]}},{"type":"Feature","properties":{"country_code":"SVK","city":"Bratislava","geoname_id":"3060972","downloaders":"{\"size\":1521,\"mobile\":13,\"satellite\":0,\"tor\":0,\"tor_exit_nodes\":0,\"vpn\":214,\"relay\":0,\"proxy\":0,\"hosting\":347,\"service\":182}","uploaders":"{\"size\":352,\"mobile\":3,\"satellite\":0,\"tor\":0,\"tor_exit_nodes\":0,\"vpn\":41,\"relay\":0,\"proxy\":0,\"hosting\":60,\"service\":36}"},"geometry":{"type":"Point","coordinates":[17.10674,48.14816]}},{"type":"Feature","properties":{"country_code":"BGR","city":"Plovdiv","geoname_id":"728193","downloaders":"{\"size\":1506,\"mobile\":32,\"satellite\":0,\"tor\":0,\"tor_exit_nodes\":0,\"vpn\":24,\"relay\":0,\"proxy\":0,\"hosting\":349,\"service\":0}","uploaders":"{\"size\":368,\"mobile\":10,\"satellite\":0,\"tor\":0,\"tor_exit_nodes\":0,\"vpn\":5,\"relay\":0,\"proxy\":0,\"hosting\":74,\"service\":0}"},"geometry":{"type":"Point","coordinates":[24.75,42.15]}},{"type":"Feature","properties":{"country_code":"SRB","city":"Novi Beograd","geoname_id":"787607","downloaders":"{\"size\":1492,\"mobile\":310,\"satellite\":0,\"tor\":0,\"tor_exit_nodes\":0,\"vpn\":0,\"relay\":0,\"proxy\":0,\"hosting\":2,\"service\":0}","uploaders":"{\"size\":414,\"mobile\":96,\"satellite\":0,\"tor\":0,\"tor_exit_nodes\":0,\"vpn\":0,\"relay\":0,\"proxy\":0,\"hosting\":1,\"service\":0}"},"geometry":{"type":"Point","coordinates":[20.42417,44.80556]}},{"type":"Feature","properties":{"country_code":"BRA","city":"Chapecó","geoname_id":"3466296","downloaders":"{\"size\":1486,\"mobile\":0,\"satellite\":0,\"tor\":0,\"tor_exit_nodes\":0,\"vpn\":0,\"relay\":0,\"proxy\":0,\"hosting\":1406,\"service\":0}","uploaders":"{\"size\":78,\"mobile\":0,\"satellite\":0,\"tor\":0,\"tor_exit_nodes\":0,\"vpn\":0,\"relay\":0,\"proxy\":0,\"hosting\":71,\"service\":0}"},"geometry":{"type":"Point","coordinates":[-52.61833,-27.09639]}},{"type":"Feature","properties":{"country_code":"CHN","city":"Chengdu","geoname_id":"1815286","downloaders":"{\"size\":1482,\"mobile\":0,\"satellite\":0,\"tor\":0,\"tor_exit_nodes\":0,\"vpn\":15,\"relay\":0,\"proxy\":0,\"hosting\":59,\"service\":0}","uploaders":"{\"size\":244,\"mobile\":0,\"satellite\":0,\"tor\":0,\"tor_exit_nodes\":0,\"vpn\":0,\"relay\":0,\"proxy\":0,\"hosting\":33,\"service\":0}"},"geometry":{"type":"Point","coordinates":[104.06667,30.66667]}},{"type":"Feature","properties":{"country_code":"RUS","city":"Surgut","geoname_id":"1490624","downloaders":"{\"size\":1467,\"mobile\":267,\"satellite\":0,\"tor\":0,\"tor_exit_nodes\":0,\"vpn\":4,\"relay\":0,\"proxy\":0,\"hosting\":6,\"service\":0}","uploaders":"{\"size\":186,\"mobile\":70,\"satellite\":0,\"tor\":0,\"tor_exit_nodes\":0,\"vpn\":0,\"relay\":0,\"proxy\":0,\"hosting\":1,\"service\":0}"},"geometry":{"type":"Point","coordinates":[73.41775,61.25757]}},{"type":"Feature","properties":{"country_code":"USA","city":"Las Vegas","geoname_id":"5506956","downloaders":"{\"size\":1464,\"mobile\":298,\"satellite\":0,\"tor\":4,\"tor_exit_nodes\":4,\"vpn\":368,\"relay\":0,\"proxy\":0,\"hosting\":294,\"service\":343}","uploaders":"{\"size\":261,\"mobile\":55,\"satellite\":0,\"tor\":0,\"tor_exit_nodes\":0,\"vpn\":50,\"relay\":0,\"proxy\":0,\"hosting\":44,\"service\":49}"},"geometry":{"type":"Point","coordinates":[-115.13722,36.17497]}},{"type":"Feature","properties":{"country_code":"LKA","city":"Colombo","geoname_id":"1248991","downloaders":"{\"size\":1457,\"mobile\":593,\"satellite\":0,\"tor\":0,\"tor_exit_nodes\":0,\"vpn\":1,\"relay\":0,\"proxy\":0,\"hosting\":0,\"service\":0}","uploaders":"{\"size\":443,\"mobile\":182,\"satellite\":0,\"tor\":0,\"tor_exit_nodes\":0,\"vpn\":0,\"relay\":0,\"proxy\":0,\"hosting\":0,\"service\":0}"},"geometry":{"type":"Point","coordinates":[79.84868,6.93548]}},{"type":"Feature","properties":{"country_code":"NLD","city":"Rotterdam","geoname_id":"2747891","downloaders":"{\"size\":1454,\"mobile\":157,\"satellite\":0,\"tor\":0,\"tor_exit_nodes\":0,\"vpn\":252,\"relay\":0,\"proxy\":0,\"hosting\":734,\"service\":247}","uploaders":"{\"size\":460,\"mobile\":41,\"satellite\":0,\"tor\":0,\"tor_exit_nodes\":0,\"vpn\":69,\"relay\":0,\"proxy\":0,\"hosting\":283,\"service\":68}"},"geometry":{"type":"Point","coordinates":[4.4203,51.9291]}},{"type":"Feature","properties":{"country_code":"CHN","city":"Ningbo","geoname_id":"1799397","downloaders":"{\"size\":1453,\"mobile\":0,\"satellite\":0,\"tor\":0,\"tor_exit_nodes\":0,\"vpn\":13,\"relay\":0,\"proxy\":0,\"hosting\":1,\"service\":0}","uploaders":"{\"size\":113,\"mobile\":0,\"satellite\":0,\"tor\":0,\"tor_exit_nodes\":0,\"vpn\":1,\"relay\":0,\"proxy\":0,\"hosting\":0,\"service\":0}"},"geometry":{"type":"Point","coordinates":[121.54945,29.87819]}},{"type":"Feature","properties":{"country_code":"KOR","city":"Ansan-si","geoname_id":"1846918","downloaders":"{\"size\":1450,\"mobile\":0,\"satellite\":0,\"tor\":0,\"tor_exit_nodes\":0,\"vpn\":21,\"relay\":0,\"proxy\":0,\"hosting\":0,\"service\":4}","uploaders":"{\"size\":34,\"mobile\":0,\"satellite\":0,\"tor\":0,\"tor_exit_nodes\":0,\"vpn\":1,\"relay\":0,\"proxy\":0,\"hosting\":0,\"service\":1}"},"geometry":{"type":"Point","coordinates":[126.82194,37.32361]}},{"type":"Feature","properties":{"country_code":"RUS","city":"Vladivostok","geoname_id":"2013348","downloaders":"{\"size\":1449,\"mobile\":105,\"satellite\":0,\"tor\":0,\"tor_exit_nodes\":0,\"vpn\":224,\"relay\":0,\"proxy\":0,\"hosting\":9,\"service\":136}","uploaders":"{\"size\":300,\"mobile\":18,\"satellite\":0,\"tor\":0,\"tor_exit_nodes\":0,\"vpn\":25,\"relay\":0,\"proxy\":0,\"hosting\":0,\"service\":20}"},"geometry":{"type":"Point","coordinates":[131.87353,43.10562]}},{"type":"Feature","properties":{"country_code":"GBR","city":"Ipswich","geoname_id":"2646057","downloaders":"{\"size\":1448,\"mobile\":466,\"satellite\":0,\"tor\":0,\"tor_exit_nodes\":0,\"vpn\":0,\"relay\":0,\"proxy\":0,\"hosting\":0,\"service\":0}","uploaders":"{\"size\":361,\"mobile\":82,\"satellite\":0,\"tor\":0,\"tor_exit_nodes\":0,\"vpn\":0,\"relay\":0,\"proxy\":0,\"hosting\":0,\"service\":0}"},"geometry":{"type":"Point","coordinates":[1.15545,52.05917]}},{"type":"Feature","properties":{"country_code":"MEX","city":"Guadalajara","geoname_id":"4005539","downloaders":"{\"size\":1442,\"mobile\":34,\"satellite\":0,\"tor\":0,\"tor_exit_nodes\":0,\"vpn\":1,\"relay\":0,\"proxy\":0,\"hosting\":21,\"service\":0}","uploaders":"{\"size\":146,\"mobile\":3,\"satellite\":0,\"tor\":0,\"tor_exit_nodes\":0,\"vpn\":0,\"relay\":0,\"proxy\":0,\"hosting\":9,\"service\":0}"},"geometry":{"type":"Point","coordinates":[-103.34749,20.67738]}},{"type":"Feature","properties":{"country_code":"ZWE","city":"Harare","geoname_id":"890299","downloaders":"{\"size\":1437,\"mobile\":36,\"satellite\":0,\"tor\":0,\"tor_exit_nodes\":0,\"vpn\":7,\"relay\":0,\"proxy\":0,\"hosting\":21,\"service\":0}","uploaders":"{\"size\":430,\"mobile\":2,\"satellite\":0,\"tor\":0,\"tor_exit_nodes\":0,\"vpn\":4,\"relay\":0,\"proxy\":0,\"hosting\":8,\"service\":0}"},"geometry":{"type":"Point","coordinates":[31.05337,-17.82772]}},{"type":"Feature","properties":{"country_code":"TWN","city":"Banqiao","geoname_id":"1670029","downloaders":"{\"size\":1417,\"mobile\":29,\"satellite\":0,\"tor\":0,\"tor_exit_nodes\":0,\"vpn\":25,\"relay\":0,\"proxy\":0,\"hosting\":20,\"service\":0}","uploaders":"{\"size\":105,\"mobile\":8,\"satellite\":0,\"tor\":0,\"tor_exit_nodes\":0,\"vpn\":0,\"relay\":0,\"proxy\":0,\"hosting\":1,\"service\":0}"},"geometry":{"type":"Point","coordinates":[121.46719,25.01427]}},{"type":"Feature","properties":{"country_code":"NGA","city":"Alimosho","geoname_id":"2566676","downloaders":"{\"size\":1415,\"mobile\":1386,\"satellite\":0,\"tor\":0,\"tor_exit_nodes\":0,\"vpn\":0,\"relay\":0,\"proxy\":0,\"hosting\":0,\"service\":0}","uploaders":"{\"size\":108,\"mobile\":97,\"satellite\":0,\"tor\":0,\"tor_exit_nodes\":0,\"vpn\":0,\"relay\":0,\"proxy\":0,\"hosting\":0,\"service\":0}"},"geometry":{"type":"Point","coordinates":[3.30235,6.60656]}},{"type":"Feature","properties":{"country_code":"RUS","city":"Stavropol’","geoname_id":"487846","downloaders":"{\"size\":1409,\"mobile\":741,\"satellite\":0,\"tor\":0,\"tor_exit_nodes\":0,\"vpn\":17,\"relay\":0,\"proxy\":0,\"hosting\":0,\"service\":4}","uploaders":"{\"size\":161,\"mobile\":94,\"satellite\":0,\"tor\":0,\"tor_exit_nodes\":0,\"vpn\":0,\"relay\":0,\"proxy\":0,\"hosting\":0,\"service\":0}"},"geometry":{"type":"Point","coordinates":[41.9734,45.0428]}},{"type":"Feature","properties":{"country_code":"RUS","city":"Odintsovo","geoname_id":"516215","downloaders":"{\"size\":1397,\"mobile\":0,\"satellite\":0,\"tor\":0,\"tor_exit_nodes\":0,\"vpn\":66,\"relay\":0,\"proxy\":0,\"hosting\":10,\"service\":0}","uploaders":"{\"size\":84,\"mobile\":0,\"satellite\":0,\"tor\":0,\"tor_exit_nodes\":0,\"vpn\":1,\"relay\":0,\"proxy\":0,\"hosting\":0,\"service\":0}"},"geometry":{"type":"Point","coordinates":[37.27716,55.66977]}},{"type":"Feature","properties":{"country_code":"RUS","city":"Lyubertsy","geoname_id":"532615","downloaders":"{\"size\":1397,\"mobile\":1,\"satellite\":0,\"tor\":0,\"tor_exit_nodes\":0,\"vpn\":33,\"relay\":0,\"proxy\":0,\"hosting\":179,\"service\":0}","uploaders":"{\"size\":96,\"mobile\":0,\"satellite\":0,\"tor\":0,\"tor_exit_nodes\":0,\"vpn\":1,\"relay\":0,\"proxy\":0,\"hosting\":0,\"service\":0}"},"geometry":{"type":"Point","coordinates":[37.89322,55.67719]}},{"type":"Feature","properties":{"country_code":"RUS","city":"Kursk","geoname_id":"538560","downloaders":"{\"size\":1387,\"mobile\":13,\"satellite\":0,\"tor\":0,\"tor_exit_nodes\":0,\"vpn\":12,\"relay\":0,\"proxy\":0,\"hosting\":72,\"service\":0}","uploaders":"{\"size\":138,\"mobile\":5,\"satellite\":0,\"tor\":0,\"tor_exit_nodes\":0,\"vpn\":1,\"relay\":0,\"proxy\":0,\"hosting\":24,\"service\":0}"},"geometry":{"type":"Point","coordinates":[36.18712,51.73758]}},{"type":"Feature","properties":{"country_code":"RUS","city":"Vladimir","geoname_id":"473247","downloaders":"{\"size\":1385,\"mobile\":64,\"satellite\":0,\"tor\":0,\"tor_exit_nodes\":0,\"vpn\":10,\"relay\":0,\"proxy\":0,\"hosting\":0,\"service\":0}","uploaders":"{\"size\":93,\"mobile\":4,\"satellite\":0,\"tor\":0,\"tor_exit_nodes\":0,\"vpn\":0,\"relay\":0,\"proxy\":0,\"hosting\":0,\"service\":0}"},"geometry":{"type":"Point","coordinates":[40.39658,56.13655]}},{"type":"Feature","properties":{"country_code":"USA","city":"Minneapolis","geoname_id":"5037649","downloaders":"{\"size\":1378,\"mobile\":471,\"satellite\":0,\"tor\":0,\"tor_exit_nodes\":0,\"vpn\":8,\"relay\":0,\"proxy\":0,\"hosting\":1,\"service\":0}","uploaders":"{\"size\":255,\"mobile\":57,\"satellite\":0,\"tor\":0,\"tor_exit_nodes\":0,\"vpn\":0,\"relay\":0,\"proxy\":0,\"hosting\":0,\"service\":0}"},"geometry":{"type":"Point","coordinates":[-93.26384,44.97997]}},{"type":"Feature","properties":{"country_code":"VEN","city":"Caracas","geoname_id":"3646738","downloaders":"{\"size\":1377,\"mobile\":449,\"satellite\":0,\"tor\":0,\"tor_exit_nodes\":0,\"vpn\":1,\"relay\":0,\"proxy\":0,\"hosting\":6,\"service\":0}","uploaders":"{\"size\":454,\"mobile\":84,\"satellite\":0,\"tor\":0,\"tor_exit_nodes\":0,\"vpn\":1,\"relay\":0,\"proxy\":0,\"hosting\":4,\"service\":0}"},"geometry":{"type":"Point","coordinates":[-66.87919,10.48801]}},{"type":"Feature","properties":{"country_code":"IND","city":"Bengaluru","geoname_id":"1277333","downloaders":"{\"size\":1374,\"mobile\":192,\"satellite\":0,\"tor\":0,\"tor_exit_nodes\":0,\"vpn\":54,\"relay\":0,\"proxy\":0,\"hosting\":53,\"service\":49}","uploaders":"{\"size\":300,\"mobile\":34,\"satellite\":0,\"tor\":0,\"tor_exit_nodes\":0,\"vpn\":26,\"relay\":0,\"proxy\":0,\"hosting\":14,\"service\":26}"},"geometry":{"type":"Point","coordinates":[77.59369,12.97194]}},{"type":"Feature","properties":{"country_code":"TWN","city":"Taichung","geoname_id":"1668399","downloaders":"{\"size\":1359,\"mobile\":133,\"satellite\":0,\"tor\":0,\"tor_exit_nodes\":0,\"vpn\":27,\"relay\":0,\"proxy\":0,\"hosting\":3,\"service\":0}","uploaders":"{\"size\":160,\"mobile\":64,\"satellite\":0,\"tor\":0,\"tor_exit_nodes\":0,\"vpn\":1,\"relay\":0,\"proxy\":0,\"hosting\":0,\"service\":0}"},"geometry":{"type":"Point","coordinates":[120.6839,24.1469]}},{"type":"Feature","properties":{"country_code":"GBR","city":"Coventry","geoname_id":"2652221","downloaders":"{\"size\":1359,\"mobile\":0,\"satellite\":0,\"tor\":1,\"tor_exit_nodes\":1,\"vpn\":310,\"relay\":0,\"proxy\":0,\"hosting\":1266,\"service\":308}","uploaders":"{\"size\":353,\"mobile\":0,\"satellite\":0,\"tor\":0,\"tor_exit_nodes\":0,\"vpn\":87,\"relay\":0,\"proxy\":0,\"hosting\":339,\"service\":86}"},"geometry":{"type":"Point","coordinates":[-1.51217,52.40656]}},{"type":"Feature","properties":{"country_code":"BRB","city":"Bridgetown","geoname_id":"3374036","downloaders":"{\"size\":1344,\"mobile\":0,\"satellite\":0,\"tor\":0,\"tor_exit_nodes\":0,\"vpn\":4,\"relay\":0,\"proxy\":0,\"hosting\":0,\"service\":0}","uploaders":"{\"size\":379,\"mobile\":0,\"satellite\":0,\"tor\":0,\"tor_exit_nodes\":0,\"vpn\":0,\"relay\":0,\"proxy\":0,\"hosting\":0,\"service\":0}"},"geometry":{"type":"Point","coordinates":[-59.62021,13.10732]}},{"type":"Feature","properties":{"country_code":"JPN","city":"Osaka","geoname_id":"1853909","downloaders":"{\"size\":1337,\"mobile\":106,\"satellite\":0,\"tor\":0,\"tor_exit_nodes\":0,\"vpn\":57,\"relay\":0,\"proxy\":0,\"hosting\":158,\"service\":44}","uploaders":"{\"size\":101,\"mobile\":23,\"satellite\":0,\"tor\":0,\"tor_exit_nodes\":0,\"vpn\":6,\"relay\":0,\"proxy\":0,\"hosting\":46,\"service\":4}"},"geometry":{"type":"Point","coordinates":[135.50107,34.69379]}},{"type":"Feature","properties":{"country_code":"NLD","city":"Haarlem","geoname_id":"2755003","downloaders":"{\"size\":1337,\"mobile\":0,\"satellite\":0,\"tor\":1,\"tor_exit_nodes\":2,\"vpn\":451,\"relay\":0,\"proxy\":0,\"hosting\":1229,\"service\":181}","uploaders":"{\"size\":134,\"mobile\":0,\"satellite\":0,\"tor\":0,\"tor_exit_nodes\":0,\"vpn\":57,\"relay\":0,\"proxy\":0,\"hosting\":115,\"service\":54}"},"geometry":{"type":"Point","coordinates":[4.63683,52.38084]}},{"type":"Feature","properties":{"country_code":"USA","city":"Buffalo","geoname_id":"5110629","downloaders":"{\"size\":1331,\"mobile\":1,\"satellite\":0,\"tor\":1,\"tor_exit_nodes\":1,\"vpn\":1127,\"relay\":0,\"proxy\":0,\"hosting\":1254,\"service\":1126}","uploaders":"{\"size\":329,\"mobile\":0,\"satellite\":0,\"tor\":0,\"tor_exit_nodes\":0,\"vpn\":305,\"relay\":0,\"proxy\":0,\"hosting\":326,\"service\":304}"},"geometry":{"type":"Point","coordinates":[-78.87837,42.88645]}},{"type":"Feature","properties":{"country_code":"KOR","city":"Cheongju-si","geoname_id":"1845604","downloaders":"{\"size\":1331,\"mobile\":0,\"satellite\":0,\"tor\":0,\"tor_exit_nodes\":0,\"vpn\":6,\"relay\":0,\"proxy\":0,\"hosting\":0,\"service\":1}","uploaders":"{\"size\":29,\"mobile\":0,\"satellite\":0,\"tor\":0,\"tor_exit_nodes\":0,\"vpn\":0,\"relay\":0,\"proxy\":0,\"hosting\":0,\"service\":0}"},"geometry":{"type":"Point","coordinates":[127.48972,36.63722]}},{"type":"Feature","properties":{"country_code":"BGR","city":"Burgas","geoname_id":"732770","downloaders":"{\"size\":1320,\"mobile\":651,\"satellite\":0,\"tor\":0,\"tor_exit_nodes\":0,\"vpn\":2,\"relay\":0,\"proxy\":0,\"hosting\":1,\"service\":0}","uploaders":"{\"size\":285,\"mobile\":80,\"satellite\":0,\"tor\":0,\"tor_exit_nodes\":0,\"vpn\":1,\"relay\":0,\"proxy\":0,\"hosting\":0,\"service\":0}"},"geometry":{"type":"Point","coordinates":[27.46781,42.50606]}},{"type":"Feature","properties":{"country_code":"COL","city":"Bogotá","geoname_id":"3688689","downloaders":"{\"size\":1300,\"mobile\":578,\"satellite\":1,\"tor\":0,\"tor_exit_nodes\":0,\"vpn\":27,\"relay\":0,\"proxy\":0,\"hosting\":53,\"service\":24}","uploaders":"{\"size\":153,\"mobile\":48,\"satellite\":0,\"tor\":0,\"tor_exit_nodes\":0,\"vpn\":8,\"relay\":0,\"proxy\":0,\"hosting\":14,\"service\":8}"},"geometry":{"type":"Point","coordinates":[-74.08175,4.60971]}},{"type":"Feature","properties":{"country_code":"KOR","city":"Haegok","geoname_id":"6398843","downloaders":"{\"size\":1293,\"mobile\":4,\"satellite\":0,\"tor\":0,\"tor_exit_nodes\":0,\"vpn\":16,\"relay\":0,\"proxy\":0,\"hosting\":0,\"service\":0}","uploaders":"{\"size\":42,\"mobile\":0,\"satellite\":0,\"tor\":0,\"tor_exit_nodes\":0,\"vpn\":0,\"relay\":0,\"proxy\":0,\"hosting\":0,\"service\":0}"},"geometry":{"type":"Point","coordinates":[127.27880999999999,37.19251]}},{"type":"Feature","properties":{"country_code":"BGR","city":"Varna","geoname_id":"726050","downloaders":"{\"size\":1283,\"mobile\":261,\"satellite\":0,\"tor\":0,\"tor_exit_nodes\":0,\"vpn\":8,\"relay\":0,\"proxy\":0,\"hosting\":9,\"service\":0}","uploaders":"{\"size\":359,\"mobile\":57,\"satellite\":0,\"tor\":0,\"tor_exit_nodes\":0,\"vpn\":1,\"relay\":0,\"proxy\":0,\"hosting\":0,\"service\":0}"},"geometry":{"type":"Point","coordinates":[27.91667,43.21667]}},{"type":"Feature","properties":{"country_code":"KOR","city":"Bucheon-si","geoname_id":"1838716","downloaders":"{\"size\":1282,\"mobile\":6,\"satellite\":0,\"tor\":0,\"tor_exit_nodes\":0,\"vpn\":21,\"relay\":0,\"proxy\":0,\"hosting\":0,\"service\":0}","uploaders":"{\"size\":41,\"mobile\":0,\"satellite\":0,\"tor\":0,\"tor_exit_nodes\":0,\"vpn\":0,\"relay\":0,\"proxy\":0,\"hosting\":0,\"service\":0}"},"geometry":{"type":"Point","coordinates":[126.78306,37.49889]}},